# LAS format log file from PETREL
# Project units are specified as depth units
#==================================================================
~Version information
VERS.   2.0:
WRAP.   NO:
#==================================================================
~Well
STRT .m      1550.0000000 :
STOP .m      1779.8000000 :
STEP .m     0.30000000 :
NULL .        -999.250000 :
COMP.           : COMPANY
WELL.  D_IPE   : WELL
FLD.            : FIELD
LOC.            : LOCATION
SRVC.           : SERVICE COMPANY
DATE.  Friday, March 30 2012 17:04:05   : DATE
PROV.           : PROVINCE
UWI.      : UNIQUE WELL ID
API.            : API NUMBER
#==================================================================
~Curve
DEPT .m                   : DEPTH
Permeability*** .mD       : Permeability ***
NTG*** .                  : NTG ***
PORDENS268*** .m3/m3      : POR DENS 268 ***
~Parameter
#==================================================================
~Ascii
# ...
 1595.3000000 3.7292962074 1.0000000000 0.1250000000
 1595.6000000 1.3032044172 1.0000000000 0.1071000025
 1595.9000000 0.0010000000 0.0000000000 0.0952000022
 1596.2000000 0.5118396878 1.0000000000 0.0952000022
 1596.5000000 0.0845635682 1.0000000000 0.0773999989
 1596.8000000 0.0538983010 1.0000000000 0.0773999989
 1597.1000000 0.0010000000 0.0000000000 0.0654999986
 1597.4000000 0.0010000000 0.0000000000 0.0833000019
 1597.7000000 0.0010000000 0.0000000000 0.0952000022
 1598.0000000 0.8442239165 1.0000000000 0.1011999995
 1598.3000000 0.1028515473 1.0000000000 0.0773999989
 1598.6000000 0.0010000000 0.0000000000 0.0535999984
 1598.9000000 1.2705423832 1.0000000000 0.1071000025
 1599.2000000 2.6179020405 1.0000000000 0.1190999970
 1599.5000000 5.7382049561 1.0000000000 0.1309999973
 1599.8000000 11.130319595 1.0000000000 0.1429000050
 1600.1000000 67.685997009 1.0000000000 0.1726000011
 1600.4000000 81.136192322 1.0000000000 0.1785999984
 1600.7000000 19.008562088 1.0000000000 0.1547999978
 1601.0000000 18.810451508 1.0000000000 0.1547999978
 1601.3000000 24.003509521 1.0000000000 0.1606999934
 1601.6000000 61.869258881 1.0000000000 0.1726000011
 1601.9000000 116.68969727 1.0000000000 0.1905000061
 1602.2000000 86.068908691 1.0000000000 0.1785999984
 1602.5000000 8.1071872711 1.0000000000 0.1368999928
 1602.8000000 0.0010000000 0.0000000000 0.0892999992
 1603.1000000 0.0010000000 0.0000000000 0.0892999992
 1603.4000000 0.0010000000 0.0000000000 0.0952000022
 1603.7000000 2.0356945992 1.0000000000 0.1130999997
 1604.0000000 9.2015972137 1.0000000000 0.1250000000
 1604.3000000 0.9076885581 1.0000000000 0.1011999995
 1604.6000000 1.9195069075 1.0000000000 0.1130999997
 1604.9000000 110.16776276 1.0000000000 0.1905000061
 1605.2000000 179.91099548 1.0000000000 0.2023999989
 1605.5000000 188.58293152 1.0000000000 0.2023999989
 1605.8000000 119.61078644 1.0000000000 0.1905000061
 1606.1000000 10.202224731 1.0000000000 0.1429000050
 1606.4000000 0.0010000000 0.0000000000 0.1190999970
 1606.7000000 0.0010000000 0.0000000000 0.1250000000
 1607.0000000 3.7554750443 1.0000000000 0.1250000000
 1607.3000000 9.3110122681 1.0000000000 0.1429000050
 1607.6000000 12.474728584 1.0000000000 0.1488000005
 1607.9000000 11.454724312 1.0000000000 0.1488000005
 1608.2000000 19.008562088 1.0000000000 0.1547999978
 1608.5000000 109.95574188 1.0000000000 0.1844999939
 1608.8000000 17.193294525 1.0000000000 0.1547999978
 1609.1000000 8.5362272263 1.0000000000 0.1429000050
 1609.4000000 19.058444977 1.0000000000 0.1547999978
 1609.7000000 388.88446045 1.0000000000 0.2320999950
 1610.0000000 708.93383789 1.0000000000 0.2560000122
 1610.3000000 206.93481445 1.0000000000 0.2082999945
 1610.6000000 7.3933763504 1.0000000000 0.1368999928
 1610.9000000 0.0010000000 0.0000000000 0.0892999992
 1611.2000000 0.0010000000 0.0000000000 0.0833000019
 1611.5000000 0.0010000000 0.0000000000 0.0714000016
 1611.8000000 0.0010000000 0.0000000000 0.0833000019
 1612.1000000 3.4511210918 1.0000000000 0.1250000000
 1612.4000000 25.234325409 1.0000000000 0.1667000055
 1612.7000000 266.85833740 1.0000000000 0.2202000022
 1613.0000000 357.17443848 1.0000000000 0.2261999995
 1613.3000000 415.35559082 1.0000000000 0.2320999950
 1613.6000000 461.11044312 1.0000000000 0.2381000072
 1613.9000000 497.84017944 1.0000000000 0.2440000027
 1614.2000000 463.13058472 1.0000000000 0.2381000072
 1614.5000000 503.58386230 1.0000000000 0.2440000027
 1614.8000000 429.12319946 1.0000000000 0.2381000072
 1615.1000000 280.99737549 1.0000000000 0.2202000022
 1615.4000000 143.57580566 1.0000000000 0.1964000016
 1615.7000000 50.073947906 1.0000000000 0.1667000055
 1616.0000000 1.6228002310 1.0000000000 0.1130999997
 1616.3000000 3.0771663189 1.0000000000 0.1190999970
 1616.6000000 5.7755012512 1.0000000000 0.1309999973
 1616.9000000 0.9968848825 1.0000000000 0.1071000025
 1617.2000000 2.5694937706 1.0000000000 0.1190999970
 1617.5000000 66.828987122 1.0000000000 0.1726000011
 1617.8000000 145.42509460 1.0000000000 0.1964000016
 1618.1000000 243.49534607 1.0000000000 0.2143000066
 1618.4000000 185.97959900 1.0000000000 0.2023999989
 1618.7000000 199.63471985 1.0000000000 0.2082999945
 1619.0000000 178.34104919 1.0000000000 0.2023999989
 1619.3000000 105.36940002 1.0000000000 0.1844999939
 1619.6000000 10.412868500 1.0000000000 0.1429000050
 1619.9000000 17.939432144 1.0000000000 0.1547999978
 1620.2000000 56.709842682 1.0000000000 0.1667000055
 1620.5000000 52.602085114 1.0000000000 0.1667000055
 1620.8000000 94.949249268 1.0000000000 0.1844999939
 1621.1000000 215.53971863 1.0000000000 0.2082999945
 1621.4000000 179.91099548 1.0000000000 0.2023999989
 1621.7000000 27.988185883 1.0000000000 0.1667000055
 1622.0000000 117.80669403 1.0000000000 0.1905000061
 1622.3000000 165.28845215 1.0000000000 0.2023999989
 1622.6000000 74.088813782 1.0000000000 0.1785999984
 1622.9000000 34.401046753 1.0000000000 0.1726000011
 1623.2000000 30.540998459 1.0000000000 0.1667000055
 1623.5000000 23.703681946 1.0000000000 0.1606999934
 1623.8000000 5.7382049561 1.0000000000 0.1309999973
 1624.1000000 0.0010000000 0.0000000000 0.1011999995
 1624.4000000 6.7745718956 1.0000000000 0.1368999928
 1624.7000000 104.16349792 1.0000000000 0.2023999989
 1625.0000000 331.68041992 1.0000000000 0.2261999995
 1625.3000000 1466.1770020 1.0000000000 0.2917000055
 1625.6000000 826.18029785 1.0000000000 0.2619000077
 1625.9000000 503.58386230 1.0000000000 0.2440000027
 1626.2000000 242.69233704 1.0000000000 0.2143000066
 1626.5000000 187.92916870 1.0000000000 0.2023999989
 1626.8000000 62.944847107 1.0000000000 0.1726000011
 1627.1000000 11.389229774 1.0000000000 0.1488000005
 1627.4000000 75.175750732 1.0000000000 0.1785999984
 1627.7000000 505.02636719 1.0000000000 0.2440000027
 1628.0000000 542.98846436 1.0000000000 0.2440000027
 1628.3000000 415.35559082 1.0000000000 0.2320999950
 1628.6000000 362.67834473 1.0000000000 0.2261999995
 1628.9000000 214.44808960 1.0000000000 0.2082999945
 1629.2000000 14.538468361 1.0000000000 0.1488000005
 1629.5000000 1.1027176380 1.0000000000 0.1071000025
 1629.8000000 2.5029332638 1.0000000000 0.1190999970
 1630.1000000 6.0810580254 1.0000000000 0.1309999973
 1630.4000000 20.497497559 1.0000000000 0.1606999934
 1630.7000000 87.471000671 1.0000000000 0.1785999984
 1631.0000000 133.36788940 1.0000000000 0.1964000016
 1631.3000000 123.98516846 1.0000000000 0.1905000061
 1631.6000000 92.709365845 1.0000000000 0.1844999939
 1631.9000000 84.170242310 1.0000000000 0.1785999984
 1632.2000000 77.228515625 1.0000000000 0.1785999984
 1632.5000000 7.6960864067 1.0000000000 0.1368999928
 1632.8000000 6.6686964035 1.0000000000 0.1368999928
 1633.1000000 4.0117444992 1.0000000000 0.1250000000
 1633.4000000 6.3794360161 1.0000000000 0.1368999928
 1633.7000000 55.353759766 1.0000000000 0.1667000055
 1634.0000000 178.65460205 1.0000000000 0.2023999989
 1634.3000000 492.15100098 1.0000000000 0.2440000027
 1634.6000000 542.22344971 1.0000000000 0.2440000027
 1634.9000000 1004.1712646 1.0000000000 0.2737999856
 1635.2000000 745.76074219 1.0000000000 0.2619000077
 1635.5000000 243.09405518 1.0000000000 0.2143000066
 1635.8000000 15.948990822 1.0000000000 0.1547999978
 1636.1000000 0.7316235900 1.0000000000 0.1011999995
 1636.4000000 4.9007949829 1.0000000000 0.1309999973
 1636.7000000 7.9115543365 1.0000000000 0.1368999928
 1637.0000000 7.7673473358 1.0000000000 0.1368999928
 1637.3000000 20.710083008 1.0000000000 0.1606999934
 1637.6000000 29.526473999 1.0000000000 0.1667000055
 1637.9000000 16.874988556 1.0000000000 0.1547999978
 1638.2000000 6.2986979485 1.0000000000 0.1368999928
 1638.5000000 4.9665026665 1.0000000000 0.1309999973
 1638.8000000 13.232209206 1.0000000000 0.1488000005
 1639.1000000 9.7339363098 1.0000000000 0.1429000050
 1639.4000000 10.907797813 1.0000000000 0.1429000050
 1639.7000000 24.921903610 1.0000000000 0.1606999934
 1640.0000000 21.468784332 1.0000000000 0.1606999934
 1640.3000000 201.00923157 1.0000000000 0.2082999945
