# LAS format log file from PETREL
# Project units are specified as depth units
#==================================================================
~Version information
VERS.   2.0:
WRAP.   NO:
#==================================================================
~Well
STRT .m      1555.0999800 :
STOP .m      1749.8999800 :
STEP .m     0.10000000 :
NULL .        -999.250000 :
COMP.           : COMPANY
WELL.  F_IPE   : WELL
FLD.            : FIELD
LOC.            : LOCATION
SRVC.           : SERVICE COMPANY
DATE.  Friday, March 30 2012 17:04:30   : DATE
PROV.           : PROVINCE
UWI.      : UNIQUE WELL ID
API.            : API NUMBER
#==================================================================
~Curve
DEPT .m                   : DEPTH
Permeability*** .mD       : Permeability ***
NTG*** .                  : NTG ***
PORDENS268*** .m3/m3      : POR DENS 268 ***
~Parameter
#==================================================================
~Ascii
# ...
 1600.3999800 1023.1583252 1.0000000000 0.2737999856
 1600.4999800 1171.4119873 1.0000000000 0.2797999978
 1600.5999800 1088.5512695 1.0000000000 0.2737999856
 1600.6999800 1010.4685059 1.0000000000 0.2737999856
 1600.7999800 936.95544434 1.0000000000 0.2679071724
 1600.8999800 845.69396973 1.0000000000 0.2619000077
 1600.9999800 761.72045898 1.0000000000 0.2619000077
 1601.0999800 469.22885132 1.0000000000 0.2381000072
 1601.1999800 576.75024414 1.0000000000 0.2500000000
 1601.2999800 703.25421143 1.0000000000 0.2559926808
 1601.3999800 782.05590820 1.0000000000 0.2619000077
 1601.4999800 703.25421143 1.0000000000 0.2560000122
 1601.5999800 630.97100830 1.0000000000 0.2500000000
 1601.6999800 504.30468750 1.0000000000 0.2440000027
 1601.7999800 469.22885132 1.0000000000 0.2381072044
 1601.8999800 436.14410400 1.0000000000 0.2381000072
 1601.9999800 297.61679077 1.0000000000 0.2202000022
 1602.0999800 312.06277466 1.0000000000 0.2202000022
 1602.1999800 327.06750488 1.0000000000 0.2261999995
 1602.2999800 317.00228882 1.0000000000 0.2261999995
 1602.3999800 241.09271240 1.0000000000 0.2143000066
 1602.4999800 180.54223633 1.0000000000 0.2023999989
 1602.5999800 97.809982300 1.0000000000 0.1844999939
 1602.6999800 147.02568054 1.0000000000 0.1964000016
 1602.7999800 214.44808960 1.0000000000 0.2082854807
 1602.8999800 292.92321777 1.0000000000 0.2202000022
 1602.9999800 263.84317017 1.0000000000 0.2143000066
 1603.0999800 237.13166809 1.0000000000 0.2143000066
 1603.1999800 135.36100769 1.0000000000 0.1964000016
 1603.2999800 17.844720840 1.0000000000 0.1548507363
 1603.3999800 2.3741021156 1.0000000000 0.1190999970
 1603.4999800 2.7574574947 1.0000000000 0.1190999970
 1603.5999800 3.1902573109 1.0000000000 0.1250000000
 1603.6999800 4.2240529060 1.0000000000 0.1250000000
 1603.7999800 6.3794360161 1.0000000000 0.1368854791
 1603.8999800 9.3665170670 1.0000000000 0.1429000050
 1603.9999800 13.988315582 1.0000000000 0.1488000005
 1604.0999800 15.607349396 1.0000000000 0.1547999978
 1604.1999800 17.377420425 1.0000000000 0.1547999978
 1604.2999800 18.322299957 1.0000000000 0.1547999978
 1604.3999800 12.866865158 1.0000000000 0.1488000005
 1604.4999800 8.8235797882 1.0000000000 0.1429000050
 1604.5999800 8.3068380356 1.0000000000 0.1368999928
 1604.6999800 9.3665170670 1.0000000000 0.1429000050
 1604.7999800 10.534852982 1.0000000000 0.1429000050
 1604.8999800 20.870870590 1.0000000000 0.1606999934
 1604.9999800 77.548324585 1.0000000000 0.1785999984
 1605.0999800 137.88679504 1.0000000000 0.1964000016
 1605.1999800 159.48489380 1.0000000000 0.1964000016
 1605.2999800 162.36547852 1.0000000000 0.2023926824
 1605.3999800 165.28845215 1.0000000000 0.2023999989
 1605.4999800 153.84704590 1.0000000000 0.1964000016
 1605.5999800 137.88679504 1.0000000000 0.1964000016
 1605.6999800 123.28620148 1.0000000000 0.1905000061
 1605.7999800 90.330734253 1.0000000000 0.1786145121
 1605.8999800 88.534896851 1.0000000000 0.1785999984
 1605.9999800 86.767463684 1.0000000000 0.1785999984
 1606.0999800 86.767463684 1.0000000000 0.1785999984
 1606.1999800 90.330734253 1.0000000000 0.1785999984
 1606.2999800 94.010772705 1.0000000000 0.1844927967
 1606.3999800 90.330734253 1.0000000000 0.1785999984
 1606.4999800 88.534896851 1.0000000000 0.1785999984
 1606.5999800 86.767463684 1.0000000000 0.1785999984
 1606.6999800 50.312740326 1.0000000000 0.1785999984
 1606.7999800 88.534896851 1.0000000000 0.1785999984
 1606.8999800 86.767463684 1.0000000000 0.1785999984
 1606.9999800 67.685997009 1.0000000000 0.1726000011
 1607.0999800 52.134899139 1.0000000000 0.1667000055
 1607.1999800 12.866865158 1.0000000000 0.1488000005
 1607.2999800 11.820383072 1.0000000000 0.1488000005
 1607.3999800 10.844885826 1.0000000000 0.1429000050
 1607.4999800 54.504333496 1.0000000000 0.1667000055
 1607.5999800 64.863533020 1.0000000000 0.1726000011
 1607.6999800 76.750991821 1.0000000000 0.1785999984
 1607.7999800 186.95234680 1.0000000000 0.2023709714
 1607.8999800 255.37863159 1.0000000000 0.2143000066
 1607.9999800 342.64715576 1.0000000000 0.2261999995
 1608.0999800 387.13067627 1.0000000000 0.2320999950
 1608.1999800 239.10559082 1.0000000000 0.2143000066
 1608.2999800 140.44972229 1.0000000000 0.1964218318
 1608.3999800 76.750991821 1.0000000000 0.1785999984
 1608.4999800 55.720958710 1.0000000000 0.1667000055
 1608.5999800 39.596305847 1.0000000000 0.1606999934
 1608.6999800 75.175750732 1.0000000000 0.1785999984
 1608.7999800 88.534896851 1.0000000000 0.1785999984
 1608.8999800 103.73995972 1.0000000000 0.1844999939
 1608.9999800 190.22494507 1.0000000000 0.2023999989
 1609.0999800 249.17546082 1.0000000000 0.2143000066
 1609.1999800 322.00326538 1.0000000000 0.2261999995
 1609.2999800 556.92224121 1.0000000000 0.2439782917
 1609.3999800 511.56570435 1.0000000000 0.2440000027
 1609.4999800 469.22885132 1.0000000000 0.2381000072
 1609.5999800 436.14410400 1.0000000000 0.2381000072
 1609.6999800 404.96069336 1.0000000000 0.2320999950
 1609.7999800 302.37179565 1.0000000000 0.2202145159
 1609.8999800 5.7011070251 1.0000000000 0.1309999973
 1609.9999800 5.5186038017 1.0000000000 0.1309999973
 1610.0999800 5.3408875465 1.0000000000 0.1309999973
 1610.1999800 6.9034733772 1.0000000000 0.1368999928
 1610.2999800 8.8235797882 1.0000000000 0.1428926885
 1610.3999800 15.607349396 1.0000000000 0.1547999978
 1610.4999800 15.188876152 1.0000000000 0.1547999978
 1610.5999800 14.779668808 1.0000000000 0.1488000005
 1610.6999800 23.113254547 1.0000000000 0.1606999934
 1610.7999800 28.193927765 1.0000000000 0.1666926891
 1610.8999800 63.488414764 1.0000000000 0.1726000011
 1610.9999800 132.87316895 1.0000000000 0.1905000061
 1611.0999800 182.12773132 1.0000000000 0.2023999989
 1611.1999800 245.10777283 1.0000000000 0.2143000066
 1611.2999800 327.06750488 1.0000000000 0.2261854857
 1611.3999800 401.94406128 1.0000000000 0.2320999950
 1611.4999800 490.02963257 1.0000000000 0.2381000072
 1611.5999800 564.78582764 1.0000000000 0.2440000027
 1611.6999800 703.25421143 1.0000000000 0.2560000122
 1611.7999800 867.80651855 1.0000000000 0.2678854764
 1611.8999800 997.90563965 1.0000000000 0.2737999856
 1611.9999800 1048.9255371 1.0000000000 0.2737999856
 1612.0999800 1102.0229492 1.0000000000 0.2797999978
 1612.1999800 1023.1583252 1.0000000000 0.2737999856
 1612.2999800 985.46569824 1.0000000000 0.2737999856
 1612.3999800 948.89813232 1.0000000000 0.2678999901
 1612.4999800 834.80639648 1.0000000000 0.2619000077
 1612.5999800 782.05590820 1.0000000000 0.2619000077
 1612.6999800 732.01794434 1.0000000000 0.2560000122
 1612.7999800 490.02963257 1.0000000000 0.2381218374
 1612.8999800 375.59759521 1.0000000000 0.2320999950
 1612.9999800 283.71362305 1.0000000000 0.2202000022
 1613.0999800 205.52862549 1.0000000000 0.2082999945
 1613.1999800 145.69120789 1.0000000000 0.1964000016
 1613.2999800 62.136840820 1.0000000000 0.1726290286
 1613.3999800 19.562498093 1.0000000000 0.1606999934
 1613.4999800 10.844885826 1.0000000000 0.1429000050
 1613.5999800 4.2240529060 1.0000000000 0.1250000000
 1613.6999800 2.6571519375 1.0000000000 0.1190999970
 1613.7999800 1.6031299829 1.0000000000 0.1131073162
 1613.8999800 0.0010000000 0.0000000000 0.1011999995
 1613.9999800 0.0010000000 0.0000000000 0.1071000025
 1614.0999800 1.7379781008 1.0000000000 0.1130999997
 1614.1999800 7.1227326393 1.0000000000 0.1368999928
 1614.2999800 17.844720840 1.0000000000 0.1547781676
 1614.3999800 39.281879425 1.0000000000 0.1726000011
 1614.4999800 218.10276794 1.0000000000 0.2082999945
 1614.5999800 249.17546082 1.0000000000 0.2143000066
 1614.6999800 283.71362305 1.0000000000 0.2202000022
 1614.7999800 556.92224121 1.0000000000 0.2439709753
 1614.8999800 736.90216064 1.0000000000 0.2560000122
 1614.9999800 960.96582031 1.0000000000 0.2678999901
 1615.0999800 936.95544434 1.0000000000 0.2678999901
 1615.1999800 824.03436279 1.0000000000 0.2619000077
 1615.2999800 722.32763672 1.0000000000 0.2560071945
 1615.3999800 741.81494141 1.0000000000 0.2560000122
