# LAS format log file from PETREL
# Project units are specified as depth units
#==================================================================
~Version information
VERS.   2.0:
WRAP.   NO:
#==================================================================
~Well
STRT .m      1610.0000000 :
STOP .m      1780.0000000 :
STEP .m     0.05000000 :
NULL .        -999.250000 :
COMP.           : COMPANY
WELL.  B_IPE   : WELL
FLD.            : FIELD
LOC.            : LOCATION
SRVC.           : SERVICE COMPANY
DATE.  Friday, March 30 2012 17:03:38   : DATE
PROV.           : PROVINCE
UWI.      : UNIQUE WELL ID
API.            : API NUMBER
#==================================================================
~Curve
DEPT .m                   : DEPTH
Permeability*** .mD       : Permeability ***
NTG*** .                  : NTG ***
PORDENS268*** .m3/m3      : POR DENS 268 ***
~Parameter
#==================================================================
~Ascii
# ...
 1662.8500000 25.478994370 1.0000000000 0.1606999934
 1662.9000000 37.134151459 1.0000000000 0.1667000055
 1662.9500000 52.853393555 1.0000000000 0.1785999984
 1663.0000000 73.695678711 1.0000000000 0.1844999939
 1663.0500000 184.21250916 1.0000000000 0.1964000016
 1663.1000000 259.05911255 1.0000000000 0.2082999945
 1663.1500000 356.62734985 1.0000000000 0.2202000022
 1663.2000000 417.50915527 1.0000000000 0.2261999995
 1663.2500000 486.59719849 1.0000000000 0.2320999950
 1663.3000000 564.47039795 1.0000000000 0.2381000072
 1663.3500000 548.21948242 1.0000000000 0.2381000072
 1663.4000000 532.22656250 1.0000000000 0.2320999950
 1663.4500000 516.61090088 1.0000000000 0.2320999950
 1663.5000000 476.91040039 1.0000000000 0.2320999950
 1663.5500000 439.59823608 1.0000000000 0.2261999995
 1663.6000000 404.76782227 1.0000000000 0.2261999995
 1663.6500000 402.64285278 1.0000000000 0.2261999995
 1663.7000000 400.52688599 1.0000000000 0.2261999995
 1663.7500000 398.41986084 1.0000000000 0.2261999995
 1663.8000000 404.76782227 1.0000000000 0.2261999995
 1663.8500000 411.09872437 1.0000000000 0.2261999995
 1663.9000000 417.50915527 1.0000000000 0.2261999995
 1663.9500000 376.00778198 1.0000000000 0.2202000022
 1664.0000000 337.97491455 1.0000000000 0.2202000022
 1664.0500000 303.02267456 1.0000000000 0.2143000066
 1664.1000000 225.59107971 1.0000000000 0.2023999989
 1664.1500000 97.460304260 1.0000000000 0.1905000061
 1664.2000000 60.814941406 1.0000000000 0.1844999939
 1664.2500000 36.982551575 1.0000000000 0.1726000011
 1664.3000000 21.435867310 1.0000000000 0.1606999934
 1664.3500000 11.710373878 1.0000000000 0.1547999978
 1664.4000000 10.680292130 1.0000000000 0.1488000005
 1664.4500000 9.7350559235 1.0000000000 0.1488000005
 1664.5000000 8.8511800766 1.0000000000 0.1429000050
 1664.5500000 12.478917122 1.0000000000 0.1488000005
 1664.6000000 17.263057709 1.0000000000 0.1547999978
 1664.6500000 22.936162949 1.0000000000 0.1547999978
 1664.7000000 28.007366180 1.0000000000 0.1606999934
 1664.7500000 33.940162659 1.0000000000 0.1667000055
 1664.8000000 40.883892059 1.0000000000 0.1667000055
 1664.8500000 43.915618896 1.0000000000 0.1726000011
 1664.9000000 47.112903595 1.0000000000 0.1726000011
 1664.9500000 50.499084473 1.0000000000 0.1726000011
 1665.0000000 85.665512085 1.0000000000 0.1726000011
 1665.0500000 80.943824768 1.0000000000 0.1726000011
 1665.1000000 76.433723450 1.0000000000 0.1726000011
 1665.1500000 32.294364929 1.0000000000 0.1667000055
 1665.2000000 24.610174179 1.0000000000 0.1547999978
 1665.2500000 18.481256485 1.0000000000 0.1488000005
 1665.3000000 12.495826721 1.0000000000 0.1429000050
 1665.3500000 8.2005281448 1.0000000000 0.1368999928
 1665.4000000 5.2007961273 1.0000000000 0.1250000000
 1665.4500000 3.1701066494 1.0000000000 0.1190999970
 1665.5000000 1.4317556620 1.0000000000 0.1071000025
 1665.5500000 0.0010000000 0.0000000000 0.0952000022
 1665.6000000 0.0010000000 0.0000000000 0.0833000019
 1665.6500000 0.0010000000 0.0000000000 0.0773999989
 1665.7000000 0.0010000000 0.0000000000 0.0714000016
 1665.7500000 0.0010000000 0.0000000000 0.0654999986
 1665.8000000 0.0010000000 0.0000000000 0.0714000016
 1665.8500000 0.0010000000 0.0000000000 0.0773999989
 1665.9000000 0.0010000000 0.0000000000 0.0773999989
 1665.9500000 0.0010000000 0.0000000000 0.0892999992
 1666.0000000 1.0800920725 1.0000000000 0.1011999995
 1666.0500000 2.4191167355 1.0000000000 0.1130999997
 1666.1000000 4.3528671265 1.0000000000 0.1250000000
 1666.1500000 7.4080653191 1.0000000000 0.1309999973
 1666.2000000 12.040308952 1.0000000000 0.1429000050
 1666.2500000 12.400244713 1.0000000000 0.1429000050
 1666.3000000 12.774722099 1.0000000000 0.1429000050
 1666.3500000 13.152557373 1.0000000000 0.1429000050
 1666.4000000 9.1570653915 1.0000000000 0.1368999928
 1666.4500000 6.2148647308 1.0000000000 0.1309999973
 1666.5000000 4.1006693840 1.0000000000 0.1250000000
 1666.5500000 3.0905518532 1.0000000000 0.1190999970
 1666.6000000 2.2945587635 1.0000000000 0.1130999997
 1666.6500000 1.6753802299 1.0000000000 0.1071000025
 1666.7000000 2.5157604218 1.0000000000 0.1130999997
 1666.7500000 3.6773929596 1.0000000000 0.1190999970
 1666.8000000 5.2476210594 1.0000000000 0.1250000000
 1666.8500000 10.784814835 1.0000000000 0.1429000050
 1666.9000000 20.427677155 1.0000000000 0.1547999978
 1666.9500000 67.011123657 1.0000000000 0.1667000055
 1667.0000000 99.849784851 1.0000000000 0.1785999984
 1667.0500000 144.54576111 1.0000000000 0.1905000061
 1667.1000000 204.08729553 1.0000000000 0.2023999989
 1667.1500000 233.62702942 1.0000000000 0.2023999989
 1667.2000000 266.51251221 1.0000000000 0.2082999945
 1667.2500000 303.02267456 1.0000000000 0.2143000066
 1667.3000000 303.02267456 1.0000000000 0.2143000066
 1667.3500000 303.02267456 1.0000000000 0.2143000066
 1667.4000000 303.02267456 1.0000000000 0.2143000066
 1667.4500000 309.75369263 1.0000000000 0.2143000066
 1667.5000000 316.68389893 1.0000000000 0.2143000066
 1667.5500000 323.65728760 1.0000000000 0.2143000066
 1667.6000000 362.34625244 1.0000000000 0.2202000022
 1667.6500000 404.76782227 1.0000000000 0.2261999995
 1667.7000000 450.98995972 1.0000000000 0.2261999995
 1667.7500000 511.56625366 1.0000000000 0.2320999950
 1667.8000000 578.52178955 1.0000000000 0.2381000072
 1667.8500000 652.21008301 1.0000000000 0.2440000027
 1667.9000000 658.48510742 1.0000000000 0.2440000027
 1667.9500000 664.66442871 1.0000000000 0.2440000027
 1668.0000000 671.03533936 1.0000000000 0.2440000027
 1668.0500000 575.56079102 1.0000000000 0.2381000072
 1668.1000000 491.55615234 1.0000000000 0.2320999950
 1668.1500000 417.50915527 1.0000000000 0.2261999995
 1668.2000000 334.30718994 1.0000000000 0.2143000066
 1668.2500000 264.99444580 1.0000000000 0.2082999945
 1668.3000000 207.74038696 1.0000000000 0.2023999989
 1668.3500000 194.23995972 1.0000000000 0.1964000016
 1668.4000000 181.45437622 1.0000000000 0.1964000016
 1668.4500000 169.35467529 1.0000000000 0.1964000016
 1668.5000000 157.91250610 1.0000000000 0.1905000061
 1668.5500000 174.35977173 1.0000000000 0.1964000016
 1668.6000000 192.21083069 1.0000000000 0.1964000016
 1668.6500000 211.50331116 1.0000000000 0.2023999989
 1668.7000000 246.07896423 1.0000000000 0.2082999945
 1668.7500000 285.06222534 1.0000000000 0.2143000066
 1668.8000000 328.94757080 1.0000000000 0.2143000066
 1668.8500000 364.29849243 1.0000000000 0.2202000022
 1668.9000000 402.64285278 1.0000000000 0.2261999995
 1668.9500000 444.16851807 1.0000000000 0.2261999995
 1669.0000000 462.61788940 1.0000000000 0.2320999950
 1669.0500000 481.67855835 1.0000000000 0.2320999950
 1669.1000000 501.48098755 1.0000000000 0.2320999950
 1669.1500000 479.34515381 1.0000000000 0.2320999950
 1669.2000000 457.89538574 1.0000000000 0.2261999995
 1669.2500000 437.32733154 1.0000000000 0.2261999995
 1669.3000000 368.13867188 1.0000000000 0.2202000022
 1669.3500000 308.04034424 1.0000000000 0.2143000066
 1669.4000000 256.09832764 1.0000000000 0.2082999945
 1669.4500000 191.04385376 1.0000000000 0.1964000016
 1669.5000000 139.99586487 1.0000000000 0.1905000061
 1669.5500000 100.54249573 1.0000000000 0.1785999984
 1669.6000000 80.362052917 1.0000000000 0.1726000011
 1669.6500000 34.223194122 1.0000000000 0.1667000055
 1669.7000000 26.144443512 1.0000000000 0.1606999934
 1669.7500000 28.238065720 1.0000000000 0.1606999934
 1669.8000000 30.467531204 1.0000000000 0.1606999934
 1669.8500000 32.839664459 1.0000000000 0.1667000055
 1669.9000000 79.809860229 1.0000000000 0.1726000011
 1669.9500000 102.61170197 1.0000000000 0.1785999984
 1670.0000000 130.38319397 1.0000000000 0.1844999939
 1670.0500000 161.90209961 1.0000000000 0.1905000061
 1670.1000000 199.27880859 1.0000000000 0.1964000016
 1670.1500000 243.23823547 1.0000000000 0.2082999945
 1670.2000000 263.55184937 1.0000000000 0.2082999945
 1670.2500000 285.06222534 1.0000000000 0.2143000066
 1670.3000000 308.04034424 1.0000000000 0.2143000066
 1670.3500000 299.66357422 1.0000000000 0.2143000066
