# LAS format log file from PETREL
# Project units are specified as depth units
#==================================================================
~Version information
VERS.   2.0:
WRAP.   NO:
#==================================================================
~Well
STRT .m      1580.0000000 :
STOP .m      1760.0000000 :
STEP .m     0.05000000 :
NULL .        -999.250000 :
COMP.           : COMPANY
WELL.  A_IPE   : WELL
FLD.            : FIELD
LOC.            : LOCATION
SRVC.           : SERVICE COMPANY
DATE.  Friday, March 30 2012 17:03:22   : DATE
PROV.           : PROVINCE
UWI.      : UNIQUE WELL ID
API.            : API NUMBER
#==================================================================
~Curve
DEPT .m                   : DEPTH
Permeability*** .mD       : Permeability ***
NTG*** .                  : NTG ***
PORDENS268*** .m3/m3      : POR DENS 268 ***
~Parameter
#==================================================================
~Ascii
# ...
 1731.0000000 28.559200287 1.0000000000 0.1488000005
 1731.0500000 31.046913147 1.0000000000 0.1547999978
 1731.1000000 33.952983856 1.0000000000 0.1547999978
 1731.1500000 37.564136505 1.0000000000 0.1547999978
 1731.2000000 41.500244141 1.0000000000 0.1606999934
 1731.2500000 45.752773285 1.0000000000 0.1606999934
 1731.3000000 49.076232910 1.0000000000 0.1606999934
 1731.3500000 94.085411072 1.0000000000 0.1606999934
 1731.4000000 100.13266754 1.0000000000 0.1667000055
 1731.4500000 106.65415955 1.0000000000 0.1667000055
 1731.5000000 113.51302338 1.0000000000 0.1667000055
 1731.5500000 120.72228241 1.0000000000 0.1667000055
 1731.6000000 128.41059875 1.0000000000 0.1726000011
 1731.6500000 136.52836609 1.0000000000 0.1726000011
 1731.7000000 145.01145935 1.0000000000 0.1785999984
 1731.7500000 153.60237122 1.0000000000 0.1785999984
 1731.8000000 162.64453125 1.0000000000 0.1785999984
 1731.8500000 172.06135559 1.0000000000 0.1844999939
 1731.9000000 174.75338745 1.0000000000 0.1844999939
 1731.9500000 177.47927856 1.0000000000 0.1844999939
 1732.0000000 180.23925781 1.0000000000 0.1844999939
 1732.0500000 184.26388550 1.0000000000 0.1844999939
 1732.1000000 183.13591003 1.0000000000 0.1844999939
 1732.1500000 182.01350403 1.0000000000 0.1844999939
 1732.2000000 180.94726563 1.0000000000 0.1844999939
 1732.2500000 177.72880554 1.0000000000 0.1844999939
 1732.3000000 174.50729370 1.0000000000 0.1844999939
 1732.3500000 171.38139343 1.0000000000 0.1844999939
 1732.4000000 172.40206909 1.0000000000 0.1844999939
 1732.4500000 173.47659302 1.0000000000 0.1844999939
 1732.5000000 174.50729370 1.0000000000 0.1844999939
 1732.5500000 174.50729370 1.0000000000 0.1844999939
 1732.6000000 174.50729370 1.0000000000 0.1844999939
 1732.6500000 174.50729370 1.0000000000 0.1844999939
 1732.7000000 158.23051453 1.0000000000 0.1844999939
 1732.7500000 143.19786072 1.0000000000 0.1785999984
 1732.8000000 129.33584595 1.0000000000 0.1726000011
 1732.8500000 61.022296906 1.0000000000 0.1726000011
 1732.9000000 49.511837006 1.0000000000 0.1667000055
 1732.9500000 40.541442871 1.0000000000 0.1606999934
 1733.0000000 36.571697235 1.0000000000 0.1547999978
 1733.0500000 32.914615631 1.0000000000 0.1547999978
 1733.1000000 29.781724930 1.0000000000 0.1488000005
 1733.1500000 34.521163940 1.0000000000 0.1547999978
 1733.2000000 39.863620758 1.0000000000 0.1606999934
 1733.2500000 45.867614746 1.0000000000 0.1606999934
 1733.3000000 51.810256958 1.0000000000 0.1667000055
 1733.3500000 58.391601563 1.0000000000 0.1667000055
 1733.4000000 65.622909546 1.0000000000 0.1726000011
 1733.4500000 56.670589447 1.0000000000 0.1667000055
 1733.5000000 48.781852722 1.0000000000 0.1667000055
 1733.5500000 41.788455963 1.0000000000 0.1606999934
 1733.6000000 27.388988495 1.0000000000 0.1488000005
 1733.6500000 17.897691727 1.0000000000 0.1368999928
 1733.7000000 12.597693443 1.0000000000 0.1309999973
 1733.7500000 9.4760742188 1.0000000000 0.1190999970
 1733.8000000 0.0010000000 0.0000000000 0.1130999997
 1733.8500000 0.0010000000 0.0000000000 0.1071000025
 1733.9000000 0.0010000000 0.0000000000 0.1071000025
 1733.9500000 0.0010000000 0.0000000000 0.1011999995
 1734.0000000 0.0010000000 0.0000000000 0.1011999995
 1734.0500000 0.0010000000 0.0000000000 0.1011999995
 1734.1000000 0.0010000000 0.0000000000 0.1011999995
 1734.1500000 0.0010000000 0.0000000000 0.0952000022
 1734.2000000 0.0010000000 0.0000000000 0.0952000022
 1734.2500000 0.0010000000 0.0000000000 0.0892999992
 1734.3000000 0.0010000000 0.0000000000 0.0833000019
 1734.3500000 0.0010000000 0.0000000000 0.0773999989
 1734.4000000 0.0010000000 0.0000000000 0.0714000016
 1734.4500000 0.0010000000 0.0000000000 0.0654999986
 1734.5000000 0.0010000000 0.0000000000 0.0595000014
 1734.5500000 0.0010000000 0.0000000000 0.0595000014
 1734.6000000 0.0010000000 0.0000000000 0.0535999984
 1734.6500000 0.0010000000 0.0000000000 0.0595000014
 1734.7000000 0.0010000000 0.0000000000 0.0595000014
 1734.7500000 0.0010000000 0.0000000000 0.0654999986
 1734.8000000 0.0010000000 0.0000000000 0.0654999986
 1734.8500000 0.0010000000 0.0000000000 0.0714000016
 1734.9000000 0.0010000000 0.0000000000 0.0714000016
 1734.9500000 0.0010000000 0.0000000000 0.0773999989
 1735.0000000 0.0010000000 0.0000000000 0.0773999989
 1735.0500000 0.0010000000 0.0000000000 0.0833000019
 1735.1000000 0.0010000000 0.0000000000 0.0833000019
 1735.1500000 0.0010000000 0.0000000000 0.0833000019
 1735.2000000 0.0010000000 0.0000000000 0.0892999992
 1735.2500000 0.0010000000 0.0000000000 0.0892999992
 1735.3000000 0.0010000000 0.0000000000 0.0952000022
 1735.3500000 0.0010000000 0.0000000000 0.0952000022
 1735.4000000 0.0010000000 0.0000000000 0.0952000022
 1735.4500000 0.0010000000 0.0000000000 0.1011999995
 1735.5000000 0.0010000000 0.0000000000 0.1071000025
 1735.5500000 3.3266575336 1.0000000000 0.1071000025
 1735.6000000 4.8229160309 1.0000000000 0.1130999997
 1735.6500000 6.8878993988 1.0000000000 0.1190999970
 1735.7000000 9.6298618317 1.0000000000 0.1250000000
 1735.7500000 15.235299110 1.0000000000 0.1368999928
 1735.8000000 23.272644043 1.0000000000 0.1488000005
 1735.8500000 34.521163940 1.0000000000 0.1547999978
 1735.9000000 49.897777557 1.0000000000 0.1667000055
 1735.9500000 122.82180023 1.0000000000 0.1726000011
 1736.0000000 165.17059326 1.0000000000 0.1844999939
 1736.0500000 196.71932983 1.0000000000 0.1905000061
 1736.1000000 232.94352722 1.0000000000 0.1964000016
 1736.1500000 274.27893066 1.0000000000 0.2023999989
 1736.2000000 291.47109985 1.0000000000 0.2023999989
 1736.2500000 309.44165039 1.0000000000 0.2023999989
 1736.3000000 328.37460327 1.0000000000 0.2082999945
 1736.3500000 326.66030884 1.0000000000 0.2082999945
 1736.4000000 324.87210083 1.0000000000 0.2082999945
 1736.4500000 323.17251587 1.0000000000 0.2082999945
 1736.5000000 303.48312378 1.0000000000 0.2023999989
 1736.5500000 287.99453735 1.0000000000 0.2023999989
 1736.6000000 273.14828491 1.0000000000 0.1964000016
 1736.6500000 233.37832642 1.0000000000 0.1905000061
 1736.7000000 198.45909119 1.0000000000 0.1844999939
 1736.7500000 167.82344055 1.0000000000 0.1785999984
 1736.8000000 132.97204590 1.0000000000 0.1667000055
 1736.8500000 104.22664642 1.0000000000 0.1547999978
 1736.9000000 44.441078186 1.0000000000 0.1488000005
 1736.9500000 41.651729584 1.0000000000 0.1488000005
 1737.0000000 39.007900238 1.0000000000 0.1488000005
 1737.0500000 36.517189026 1.0000000000  -999.250000
 1737.1000000 68.039253235 1.0000000000  -999.250000
 1737.1500000 242.46809387 1.0000000000  -999.250000
 1737.2000000 476.35852051 1.0000000000  -999.250000
 1737.2500000 1423.1516113 1.0000000000  -999.250000
 1737.3000000 3503.0881348 1.0000000000  -999.250000
 1737.3500000 7533.2841797 1.0000000000  -999.250000
 1737.4000000 14326.011719 1.0000000000  -999.250000
 1737.4500000 25354.279297 1.0000000000  -999.250000
 1737.5000000 42372.890625 1.0000000000  -999.250000
 1737.5500000 55186.488281 1.0000000000  -999.250000
 1737.6000000 70947.312500 1.0000000000  -999.250000
 1737.6500000 90141.898438 1.0000000000  -999.250000
 1737.7000000 90471.742188 1.0000000000  -999.250000
 1737.7500000 90787.484375 1.0000000000  -999.250000
 1737.8000000 91111.710938 1.0000000000  -999.250000
 1737.8500000 72284.765625 1.0000000000  -999.250000
 1737.9000000 56721.757813 1.0000000000  -999.250000
 1737.9500000 43975.179688 1.0000000000  -999.250000
 1738.0000000 25824.589844 1.0000000000  -999.250000
 1738.0500000 14252.852539 1.0000000000  -999.250000
 1738.1000000 7274.6308594 1.0000000000  -999.250000
 1738.1500000 3295.6791992 1.0000000000  -999.250000
 1738.2000000 1290.8206787 1.0000000000  -999.250000
 1738.2500000 432.60958862 1.0000000000  -999.250000
 1738.3000000 337.30563354 1.0000000000  -999.250000
 1738.3500000 259.60040283 1.0000000000  -999.250000
 1738.4000000 196.99040222 1.0000000000  -999.250000
 1738.4500000 147.14343262 1.0000000000  -999.250000
 1738.5000000 306.17999268 1.0000000000  -999.250000
