# LAS format log file from PETREL
# Project units are specified as depth units
#==================================================================
~Version information
VERS.   2.0:
WRAP.   NO:
#==================================================================
~Well
STRT .m      1580.0000000 :
STOP .m      1760.0000000 :
STEP .m     0.05000000 :
NULL .        -999.250000 :
COMP.           : COMPANY
WELL.  A_IPE   : WELL
FLD.            : FIELD
LOC.            : LOCATION
SRVC.           : SERVICE COMPANY
DATE.  Friday, March 30 2012 17:03:22   : DATE
PROV.           : PROVINCE
UWI.      : UNIQUE WELL ID
API.            : API NUMBER
#==================================================================
~Curve
DEPT .m                   : DEPTH
Permeability*** .mD       : Permeability ***
NTG*** .                  : NTG ***
PORDENS268*** .m3/m3      : POR DENS 268 ***
~Parameter
#==================================================================
~Ascii
# ...
 1647.9500000 93.059486389 1.0000000000 0.1726000011
 1648.0000000 107.89880371 1.0000000000 0.1785999984
 1648.0500000 124.66727448 1.0000000000 0.1844999939
 1648.1000000 169.26211548 1.0000000000 0.1905000061
 1648.1500000 226.14474487 1.0000000000 0.2023999989
 1648.2000000 297.95269775 1.0000000000 0.2143000066
 1648.2500000 533.91754150 1.0000000000 0.2202000022
 1648.3000000 621.68865967 1.0000000000 0.2261999995
 1648.3500000 720.86352539 1.0000000000 0.2320999950
 1648.4000000 721.01745605 1.0000000000 0.2320999950
 1648.4500000 721.01745605 1.0000000000 0.2320999950
 1648.5000000 721.17144775 1.0000000000 0.2320999950
 1648.5500000 641.34448242 1.0000000000 0.2320999950
 1648.6000000 568.91119385 1.0000000000 0.2261999995
 1648.6500000 503.09298706 1.0000000000 0.2202000022
 1648.7000000 408.65438843 1.0000000000 0.2143000066
 1648.7500000 329.02947998 1.0000000000 0.2082999945
 1648.8000000 262.38864136 1.0000000000 0.1964000016
 1648.8500000 187.62924194 1.0000000000 0.1844999939
 1648.9000000 75.730918884 1.0000000000 0.1726000011
 1648.9500000 49.564311981 1.0000000000 0.1606999934
 1649.0000000 28.950780869 1.0000000000 0.1488000005
 1649.0500000 15.980023384 1.0000000000 0.1368999928
 1649.1000000 8.2204980850 1.0000000000 0.1250000000
 1649.1500000 4.5238938332 1.0000000000 0.1130999997
 1649.2000000 0.0010000000 0.0000000000 0.1011999995
 1649.2500000 0.0010000000 0.0000000000 0.0892999992
 1649.3000000 0.0010000000 0.0000000000 0.0892999992
 1649.3500000 0.0010000000 0.0000000000 0.0892999992
 1649.4000000 0.0010000000 0.0000000000 0.0833000019
 1649.4500000 0.0010000000 0.0000000000 0.0833000019
 1649.5000000 0.0010000000 0.0000000000 0.0892999992
 1649.5500000 0.0010000000 0.0000000000 0.0952000022
 1649.6000000 2.4323136806 1.0000000000 0.1011999995
 1649.6500000 5.9098653793 1.0000000000 0.1190999970
 1649.7000000 12.711671829 1.0000000000 0.1309999973
 1649.7500000 24.946771622 1.0000000000 0.1488000005
 1649.8000000 47.297859192 1.0000000000 0.1606999934
 1649.8500000 144.12344360 1.0000000000 0.1785999984
 1649.9000000 231.58132935 1.0000000000 0.1964000016
 1649.9500000 306.17999268 1.0000000000 0.2023999989
 1650.0000000 398.89788818 1.0000000000 0.2143000066
 1650.0500000 512.97003174 1.0000000000 0.2261999995
 1650.1000000 525.74420166 1.0000000000 0.2261999995
 1650.1500000 538.65106201 1.0000000000 0.2261999995
 1650.2000000 551.93591309 1.0000000000 0.2261999995
 1650.2500000 485.81192017 1.0000000000 0.2202000022
 1650.3000000 426.41668701 1.0000000000 0.2143000066
 1650.3500000 372.82592773 1.0000000000 0.2143000066
 1650.4000000 314.54440308 1.0000000000 0.2082999945
 1650.4500000 263.82611084 1.0000000000 0.1964000016
 1650.5000000 219.90367126 1.0000000000 0.1905000061
 1650.5500000 201.42297363 1.0000000000 0.1905000061
 1650.6000000 184.26388550 1.0000000000 0.1844999939
 1650.6500000 168.25297546 1.0000000000 0.1844999939
 1650.7000000 178.77976990 1.0000000000 0.1844999939
 1650.7500000 189.82995605 1.0000000000 0.1905000061
 1650.8000000 201.42297363 1.0000000000 0.1905000061
 1650.8500000 239.66098022 1.0000000000 0.1964000016
 1650.9000000 283.53234863 1.0000000000 0.2023999989
 1650.9500000 333.72659302 1.0000000000 0.2082999945
 1651.0000000 403.02850342 1.0000000000 0.2143000066
 1651.0500000 483.46258545 1.0000000000 0.2202000022
 1651.1000000 576.33197021 1.0000000000 0.2261999995
 1651.1500000 630.90155029 1.0000000000 0.2320999950
 1651.2000000 689.55242920 1.0000000000 0.2381000072
 1651.2500000 752.35162354 1.0000000000 0.2381000072
 1651.3000000 712.12982178 1.0000000000 0.2381000072
 1651.3500000 673.65594482 1.0000000000 0.2381000072
 1651.4000000 636.87194824 1.0000000000 0.2320999950
 1651.4500000 543.90924072 1.0000000000 0.2261999995
 1651.5000000 462.18685913 1.0000000000 0.2202000022
 1651.5500000 390.73880005 1.0000000000 0.2143000066
 1651.6000000 344.55630493 1.0000000000 0.2082999945
 1651.6500000 302.86935425 1.0000000000 0.2023999989
 1651.7000000 265.26989746 1.0000000000 0.1964000016
 1651.7500000 269.77908325 1.0000000000 0.2023999989
 1651.8000000 274.27893066 1.0000000000 0.2023999989
 1651.8500000 278.91058350 1.0000000000 0.2023999989
 1651.9000000 304.48257446 1.0000000000 0.2023999989
 1651.9500000 331.90731812 1.0000000000 0.2082999945
 1652.0000000 361.28497314 1.0000000000 0.2082999945
 1652.0500000 376.73818970 1.0000000000 0.2143000066
 1652.1000000 392.71865845 1.0000000000 0.2143000066
 1652.1500000 409.24002075 1.0000000000 0.2143000066
 1652.2000000 390.73880005 1.0000000000 0.2143000066
 1652.2500000 372.82592773 1.0000000000 0.2143000066
 1652.3000000 355.66677856 1.0000000000 0.2082999945
 1652.3500000 317.95718384 1.0000000000 0.2082999945
 1652.4000000 283.53234863 1.0000000000 0.2023999989
 1652.4500000 252.23716736 1.0000000000 0.1964000016
 1652.5000000 224.68522644 1.0000000000 0.1964000016
 1652.5500000 199.66232300 1.0000000000 0.1905000061
 1652.6000000 176.88165283 1.0000000000 0.1844999939
 1652.6500000 156.28498840 1.0000000000 0.1785999984
 1652.7000000 137.86628723 1.0000000000 0.1785999984
 1652.7500000 121.23524475 1.0000000000 0.1726000011
 1652.8000000 106.25745392 1.0000000000 0.1667000055
 1652.8500000 109.09327698 1.0000000000 0.1726000011
 1652.9000000 112.05854034 1.0000000000 0.1726000011
 1652.9500000 65.622909546 1.0000000000 0.1726000011
 1653.0000000 145.90385437 1.0000000000 0.1785999984
 1653.0500000 183.13591003 1.0000000000 0.1844999939
 1653.1000000 227.65505981 1.0000000000 0.1964000016
 1653.1500000 311.16113281 1.0000000000 0.2023999989
 1653.2000000 417.70764160 1.0000000000 0.2143000066
 1653.2500000 551.93591309 1.0000000000 0.2261999995
 1653.3000000 692.67791748 1.0000000000 0.2381000072
 1653.3500000 860.94689941 1.0000000000 0.2440000027
 1653.4000000 1060.6358643 1.0000000000 0.2560000122
 1653.4500000 1163.8106689 1.0000000000 0.2619000077
 1653.5000000 1275.1527100 1.0000000000 0.2619000077
 1653.5500000 1394.6453857 1.0000000000 0.2678999901
 1653.6000000 1339.2626953 1.0000000000 0.2678999901
 1653.6500000 1285.4174805 1.0000000000 0.2678999901
 1653.7000000 1233.8023682 1.0000000000 0.2619000077
 1653.7500000 1016.4417114 1.0000000000 0.2560000122
 1653.8000000 830.82971191 1.0000000000 0.2440000027
 1653.8500000 673.65594482 1.0000000000 0.2381000072
 1653.9000000 483.46258545 1.0000000000 0.2202000022
 1653.9500000 339.06472778 1.0000000000 0.2082999945
 1654.0000000 231.58132935 1.0000000000 0.1964000016
 1654.0500000 171.38139343 1.0000000000 0.1844999939
 1654.1000000 124.42501068 1.0000000000 0.1726000011
 1654.1500000 88.420822144 1.0000000000 0.1667000055
 1654.2000000 84.808456421 1.0000000000 0.1606999934
 1654.2500000 81.315795898 1.0000000000 0.1606999934
 1654.3000000 77.939773560 1.0000000000 0.1606999934
 1654.3500000 89.652069092 1.0000000000 0.1667000055
 1654.4000000 102.74018097 1.0000000000 0.1667000055
 1654.4500000 117.32306671 1.0000000000 0.1726000011
 1654.5000000 132.69551086 1.0000000000 0.1785999984
 1654.5500000 149.64805603 1.0000000000 0.1785999984
 1654.6000000 168.25297546 1.0000000000 0.1844999939
 1654.6500000 177.72880554 1.0000000000 0.1844999939
 1654.7000000 187.57710266 1.0000000000 0.1844999939
 1654.7500000 197.91407776 1.0000000000 0.1905000061
 1654.8000000 197.91407776 1.0000000000 0.1905000061
 1654.8500000 197.91407776 1.0000000000 0.1905000061
 1654.9000000 197.91407776 1.0000000000 0.1905000061
 1654.9500000 188.67463684 1.0000000000 0.1905000061
 1655.0000000 179.88613892 1.0000000000 0.1844999939
 1655.0500000 171.38139343 1.0000000000 0.1844999939
 1655.1000000 164.18450928 1.0000000000 0.1844999939
 1655.1500000 157.23274231 1.0000000000 0.1844999939
 1655.2000000 150.56333923 1.0000000000 0.1785999984
 1655.2500000 153.38052368 1.0000000000 0.1785999984
 1655.3000000 156.28498840 1.0000000000 0.1785999984
 1655.3500000 159.18774414 1.0000000000 0.1844999939
 1655.4000000 163.15655518 1.0000000000 0.1844999939
 1655.4500000 167.25210571 1.0000000000 0.1844999939
