# LAS format log file from PETREL
# Project units are specified as depth units
#==================================================================
~Version information
VERS.   2.0:
WRAP.   NO:
#==================================================================
~Well
STRT .m      1605.0999800 :
STOP .m      1769.9999800 :
STEP .m     0.10000000 :
NULL .        -999.250000 :
COMP.           : COMPANY
WELL.  E_IPE   : WELL
FLD.            : FIELD
LOC.            : LOCATION
SRVC.           : SERVICE COMPANY
DATE.  Friday, March 30 2012 17:04:18   : DATE
PROV.           : PROVINCE
UWI.      : UNIQUE WELL ID
API.            : API NUMBER
#==================================================================
~Curve
DEPT .m                   : DEPTH
Permeability*** .mD       : Permeability ***
NTG*** .                  : NTG ***
PORDENS268*** .m3/m3      : POR DENS 268 ***
~Parameter
#==================================================================
~Ascii
# ...
 1635.2999800 151.08822632 1.0000000000 0.1963928044
 1635.3999800 186.95234680 1.0000000000 0.2023999989
 1635.4999800 241.09271240 1.0000000000 0.2143000066
 1635.5999800 322.00326538 1.0000000000 0.2261999995
 1635.6999800 411.05007935 1.0000000000 0.2320999950
 1635.7999800 518.91235352 1.0000000000 0.2439854890
 1635.8999800 605.45867920 1.0000000000 0.2500000000
 1635.9999800 666.32452393 1.0000000000 0.2560000122
 1636.0999800 675.40661621 1.0000000000 0.2560000122
 1636.1999800 693.87170410 1.0000000000 0.2560000122
 1636.2999800 722.32763672 1.0000000000 0.2560000122
 1636.3999800 712.74072266 1.0000000000 0.2560000122
 1636.4999800 613.86816406 1.0000000000 0.2500000000
 1636.5999800 411.05007935 1.0000000000 0.2320999950
 1636.6999800 233.22314453 1.0000000000 0.2143000066
 1636.7999800 123.28620148 1.0000000000 0.1905290335
 1636.8999800 88.534896851 1.0000000000 0.1785999984
 1636.9999800 79.980361938 1.0000000000 0.1785999984
 1637.0999800 92.155761719 1.0000000000 0.1844999939
 1637.1999800 86.767463684 1.0000000000 0.1785999984
 1637.2999800 63.488414764 1.0000000000 0.1726073176
 1637.3999800 35.149005890 1.0000000000 0.1547999978
 1637.4999800 22.333892822 1.0000000000 0.1429000050
 1637.5999800 26.096023560 1.0000000000 0.1488000005
 1637.6999800 49.849029541 1.0000000000 0.1667000055
 1637.7999800 107.85159302 1.0000000000 0.1844782829
 1637.8999800 190.22494507 1.0000000000 0.2023999989
 1637.9999800 245.10777283 1.0000000000 0.2143000066
 1638.0999800 200.32102966 1.0000000000 0.2082999945
 1638.1999800 107.85159302 1.0000000000 0.1844999939
 1638.2999800 41.497287750 1.0000000000 0.1607290208
 1638.3999800 6.4815278053 1.0000000000 0.1368999928
 1638.4999800 1.8820116520 1.0000000000 0.1130999997
 1638.5999800 0.0010000000 0.0000000000 0.1011999995
 1638.6999800 0.0010000000 0.0000000000 0.0952000022
 1638.7999800 0.0010000000 0.0000000000 0.0952000022
 1638.8999800 0.0010000000 0.0000000000 0.1011999995
 1638.9999800 0.9620977044 1.0000000000 0.1071000025
 1639.0999800 1.6694433689 1.0000000000 0.1130999997
 1639.1999800 2.6571519375 1.0000000000 0.1190999970
 1639.2999800 4.5214495659 1.0000000000 0.1309854835
 1639.3999800 7.1227326393 1.0000000000 0.1368999928
 1639.4999800 12.161184311 1.0000000000 0.1488000005
 1639.5999800 16.472854614 1.0000000000 0.1547999978
 1639.6999800 13.232209206 1.0000000000 0.1488000005
 1639.7999800 4.5214495659 1.0000000000 0.1310217083
 1639.8999800 0.6347061396 1.0000000000 0.1011999995
 1639.9999800 0.0010000000 0.0000000000 0.0714000016
 1640.0999800 0.0010000000 0.0000000000 0.0595000014
 1640.1999800 0.0010000000 0.0000000000 0.0654999986
 1640.2999800 0.0010000000 0.0000000000 0.0892709717
 1640.3999800 3.0771663189 1.0000000000 0.1190999970
 1640.4999800 10.844885826 1.0000000000 0.1429000050
 1640.5999800 34.309856415 1.0000000000 0.1547999978
 1640.6999800 38.672557831 1.0000000000 0.1606999934
 1640.7999800 42.474807739 1.0000000000 0.1606999934
 1640.8999800 47.644733429 1.0000000000 0.1606999934
 1640.9999800 50.981796265 1.0000000000 0.1667000055
 1641.0999800 55.720958710 1.0000000000 0.1667000055
 1641.1999800 60.808193207 1.0000000000 0.1726000011
 1641.2999800 58.220043182 1.0000000000 0.1667072028
 1641.3999800 52.134899139 1.0000000000 0.1667000055
 1641.4999800 21.413902283 1.0000000000 0.1606999934
 1641.5999800 14.779668808 1.0000000000 0.1488000005
 1641.6999800 9.3665170670 1.0000000000 0.1429000050
 1641.7999800 5.8885416985 1.0000000000 0.1310145110
 1641.8999800 4.5214495659 1.0000000000 0.1309999973
 1641.9999800 3.8082544804 1.0000000000 0.1250000000
 1642.0999800 4.0815162659 1.0000000000 0.1250000000
 1642.1999800 4.6764564514 1.0000000000 0.1309999973
 1642.2999800 5.1679425240 1.0000000000 0.1309999973
 1642.3999800 4.8358426094 1.0000000000 0.1309999973
 1642.4999800 4.2240529060 1.0000000000 0.1250000000
 1642.5999800 4.5214495659 1.0000000000 0.1309999973
 1642.6999800 7.3477368355 1.0000000000 0.1368999928
 1642.7999800 17.844720840 1.0000000000 0.1547781676
 1642.8999800 86.767463684 1.0000000000 0.1785999984
 1642.9999800 207.28819275 1.0000000000 0.2082999945
 1643.0999800 381.32836914 1.0000000000 0.2320999950
 1643.1999800 580.78277588 1.0000000000 0.2500000000
 1643.2999800 675.40661621 1.0000000000 0.2559926808
 1643.3999800 703.25421143 1.0000000000 0.2560000122
 1643.4999800 675.40661621 1.0000000000 0.2560000122
 1643.5999800 613.86816406 1.0000000000 0.2500000000
 1643.6999800 504.30468750 1.0000000000 0.2440000027
 1643.7999800 381.32836914 1.0000000000 0.2321145087
 1643.8999800 274.73941040 1.0000000000 0.2202000022
 1643.9999800 190.22494507 1.0000000000 0.2023999989
 1644.0999800 132.87316895 1.0000000000 0.1905000061
 1644.1999800 92.155761719 1.0000000000 0.1844999939
 1644.2999800 69.133628845 1.0000000000 0.1726145148
 1644.3999800 58.220043182 1.0000000000 0.1667000055
 1644.4999800 54.504333496 1.0000000000 0.1667000055
 1644.5999800 50.981796265 1.0000000000 0.1667000055
 1644.6999800 42.474807739 1.0000000000 0.1606999934
 1644.7999800 13.988315582 1.0000000000 0.1488145143
 1644.8999800 6.6897921562 1.0000000000 0.1368999928
 1644.9999800 2.5598871708 1.0000000000 0.1190999970
 1645.0999800 0.9620977044 1.0000000000 0.1071000025
 1645.1999800 0.0010000000 0.0000000000 0.0952000022
 1645.2999800 0.0010000000 0.0000000000 0.0893071964
 1645.3999800 0.0010000000 0.0000000000 0.0952000022
 1645.4999800 0.7665056586 1.0000000000 0.1011999995
 1645.5999800 1.9576139450 1.0000000000 0.1130999997
 1645.6999800 6.0810580254 1.0000000000 0.1309999973
 1645.7999800 33.486701965 1.0000000000 0.1547709703
 1645.8999800 67.685997009 1.0000000000 0.1726000011
 1645.9999800 94.010772705 1.0000000000 0.1844999939
 1646.0999800 103.73995972 1.0000000000 0.1844999939
 1646.1999800 97.809982300 1.0000000000 0.1844999939
 1646.2999800 95.895248413 1.0000000000 0.1844999939
 1646.3999800 112.09278870 1.0000000000 0.1905000061
 1646.4999800 162.36547852 1.0000000000 0.2023999989
 1646.5999800 241.09271240 1.0000000000 0.2143000066
 1646.6999800 332.19561768 1.0000000000 0.2261999995
 1646.7999800 358.81823730 1.0000000000 0.2261999995
 1646.8999800 312.06277466 1.0000000000 0.2202000022
 1646.9999800 221.80647278 1.0000000000 0.2082999945
 1647.0999800 151.08822632 1.0000000000 0.1964000016
 1647.1999800 118.70571136 1.0000000000 0.1905000061
 1647.2999800 123.28620148 1.0000000000 0.1905000061
 1647.3999800 171.25996399 1.0000000000 0.2023999989
 1647.4999800 261.70645142 1.0000000000 0.2143000066
 1647.5999800 398.94549561 1.0000000000 0.2320999950
 1647.6999800 504.30468750 1.0000000000 0.2440000027
 1647.7999800 541.45935059 1.0000000000 0.2440000027
 1647.8999800 476.08303833 1.0000000000 0.2381000072
 1647.9999800 364.34249878 1.0000000000 0.2261999995
 1648.0999800 257.47473145 1.0000000000 0.2143000066
 1648.1999800 180.54223633 1.0000000000 0.2023999989
 1648.2999800 130.42222595 1.0000000000 0.1905145198
 1648.3999800 95.895248413 1.0000000000 0.1844999939
 1648.4999800 72.103973389 1.0000000000 0.1726000011
 1648.5999800 50.981796265 1.0000000000 0.1667000055
 1648.6999800 40.537948608 1.0000000000 0.1606999934
 1648.7999800 33.486701965 1.0000000000 0.1548071951
 1648.8999800 31.888410568 1.0000000000 0.1547999978
 1648.9999800 33.486701965 1.0000000000 0.1547999978
 1649.0999800 37.766220093 1.0000000000 0.1547999978
 1649.1999800 41.497287750 1.0000000000 0.1606999934
 1649.2999800 46.572380066 1.0000000000 0.1606999934
 1649.3999800 58.220043182 1.0000000000 0.1667000055
 1649.4999800 83.318542480 1.0000000000 0.1785999984
 1649.5999800 123.28620148 1.0000000000 0.1905000061
 1649.6999800 153.84704590 1.0000000000 0.1964000016
 1649.7999800 151.08822632 1.0000000000 0.1964000016
 1649.8999800 123.28620148 1.0000000000 0.1905000061
 1649.9999800 90.330734253 1.0000000000 0.1785999984
 1650.0999800 67.685997009 1.0000000000 0.1726000011
 1650.1999800 50.981796265 1.0000000000 0.1667000055
 1650.2999800 39.596305847 1.0000000000 0.1607073098
