# LAS format log file from PETREL
# Project units are specified as depth units
#==================================================================
~Version information
VERS.   2.0:
WRAP.   NO:
#==================================================================
~Well
STRT .m      1580.0000000 :
STOP .m      1760.0000000 :
STEP .m     0.05000000 :
NULL .        -999.250000 :
COMP.           : COMPANY
WELL.  A_IPE   : WELL
FLD.            : FIELD
LOC.            : LOCATION
SRVC.           : SERVICE COMPANY
DATE.  Friday, March 30 2012 17:03:22   : DATE
PROV.           : PROVINCE
UWI.      : UNIQUE WELL ID
API.            : API NUMBER
#==================================================================
~Curve
DEPT .m                   : DEPTH
Permeability*** .mD       : Permeability ***
NTG*** .                  : NTG ***
PORDENS268*** .m3/m3      : POR DENS 268 ***
~Parameter
#==================================================================
~Ascii
# ...
 1625.3000000 689.84954834 1.0000000000 0.2320999950
 1625.3500000 879.39843750 1.0000000000 0.2440000027
 1625.4000000 1032.3751221 1.0000000000 0.2500000000
 1625.4500000 1206.0623779 1.0000000000 0.2560000122
 1625.5000000 1402.2539063 1.0000000000 0.2678999901
 1625.5500000 1514.0122070 1.0000000000 0.2737999856
 1625.6000000 1633.1224365 1.0000000000 0.2737999856
 1625.6500000 1759.3404541 1.0000000000 0.2797999978
 1625.7000000 1775.1770020 1.0000000000 0.2797999978
 1625.7500000 1791.4487305 1.0000000000 0.2797999978
 1625.8000000 1808.1622314 1.0000000000 0.2797999978
 1625.8500000 1753.3516846 1.0000000000 0.2797999978
 1625.9000000 1699.8864746 1.0000000000 0.2797999978
 1625.9500000 1647.7395020 1.0000000000 0.2797999978
 1626.0000000 1510.9381104 1.0000000000 0.2737999856
 1626.0500000 1383.4235840 1.0000000000 0.2678999901
 1626.1000000 1264.7124023 1.0000000000 0.2619000077
 1626.1500000 1060.6358643 1.0000000000 0.2560000122
 1626.2000000 885.55853271 1.0000000000 0.2500000000
 1626.2500000 750.60028076 1.0000000000 0.2381000072
 1626.3000000 599.72656250 1.0000000000 0.2261999995
 1626.3500000 474.26571655 1.0000000000 0.2202000022
 1626.4000000 370.83700562 1.0000000000 0.2082999945
 1626.4500000 308.11807251 1.0000000000 0.2023999989
 1626.5000000 254.29505920 1.0000000000 0.1964000016
 1626.5500000 208.25033569 1.0000000000 0.1905000061
 1626.6000000 211.10160828 1.0000000000 0.1905000061
 1626.6500000 228.93745422 1.0000000000 0.1964000016
 1626.7000000 247.96574402 1.0000000000 0.1964000016
 1626.7500000 330.09603882 1.0000000000 0.2082999945
 1626.8000000 432.91610718 1.0000000000 0.2202000022
 1626.8500000 559.93194580 1.0000000000 0.2261999995
 1626.9000000 732.01843262 1.0000000000 0.2381000072
 1626.9500000 944.29803467 1.0000000000 0.2500000000
 1627.0000000 1203.5023193 1.0000000000 0.2619000077
 1627.0500000 1405.9394531 1.0000000000 0.2678999901
 1627.1000000 1634.9064941 1.0000000000 0.2797999978
 1627.1500000 1892.9534912 1.0000000000 0.2856999934
 1627.2000000 1941.9932861 1.0000000000 0.2856999934
 1627.2500000 1992.3990479 1.0000000000 0.2856999934
 1627.3000000 2043.4953613 1.0000000000 0.2856999934
 1627.3500000 2095.6403809 1.0000000000 0.2917000055
 1627.4000000 2010.9552002 1.0000000000 0.2856999934
 1627.4500000 1929.3839111 1.0000000000 0.2856999934
 1627.5000000 1850.1672363 1.0000000000 0.2856999934
 1627.5500000 1780.5874023 1.0000000000 0.2797999978
 1627.6000000 1713.1279297 1.0000000000 0.2797999978
 1627.6500000 1647.7395020 1.0000000000 0.2797999978
 1627.7000000 1622.1530762 1.0000000000 0.2737999856
 1627.7500000 1596.8880615 1.0000000000 0.2737999856
 1627.8000000 1571.9395752 1.0000000000 0.2737999856
 1627.8500000 1463.5203857 1.0000000000 0.2737999856
 1627.9000000 1361.1987305 1.0000000000 0.2678999901
 1627.9500000 1264.7124023 1.0000000000 0.2619000077
 1628.0000000 1011.9837036 1.0000000000 0.2560000122
 1628.0500000 801.56549072 1.0000000000 0.2440000027
 1628.1000000 627.86437988 1.0000000000 0.2320999950
 1628.1500000 413.55477905 1.0000000000 0.2143000066
 1628.2000000 266.30502319 1.0000000000 0.1964000016
 1628.2500000 167.10946655 1.0000000000 0.1844999939
 1628.3000000 55.201503754 1.0000000000 0.1667000055
 1628.3500000 28.804826736 1.0000000000 0.1488000005
 1628.4000000 13.794519424 1.0000000000 0.1309999973
 1628.4500000 7.6611189842 1.0000000000 0.1190999970
 1628.5000000 0.0010000000 0.0000000000 0.1011999995
 1628.5500000 0.0010000000 0.0000000000 0.0892999992
 1628.6000000 0.0010000000 0.0000000000 0.0833000019
 1628.6500000 0.0010000000 0.0000000000 0.0773999989
 1628.7000000 0.0010000000 0.0000000000 0.0773999989
 1628.7500000 0.0010000000 0.0000000000 0.0773999989
 1628.8000000 0.0010000000 0.0000000000 0.0773999989
 1628.8500000 0.0010000000 0.0000000000 0.0833000019
 1628.9000000 0.0010000000 0.0000000000 0.0892999992
 1628.9500000 0.0010000000 0.0000000000 0.1011999995
 1629.0000000 0.0010000000 0.0000000000 0.1071000025
 1629.0500000 10.232130051 1.0000000000 0.1190999970
 1629.1000000 15.760356903 1.0000000000 0.1309999973
 1629.1500000 23.527669907 1.0000000000 0.1429000050
 1629.2000000 29.187841415 1.0000000000 0.1488000005
 1629.2500000 35.922103882 1.0000000000 0.1547999978
 1629.3000000 43.883941650 1.0000000000 0.1606999934
 1629.3500000 42.508445740 1.0000000000 0.1606999934
 1629.4000000 41.788455963 1.0000000000 0.1606999934
 1629.4500000 41.788455963 1.0000000000 0.1606999934
 1629.5000000 34.249019623 1.0000000000 0.1547999978
 1629.5500000 27.854419708 1.0000000000 0.1488000005
 1629.6000000 22.475471497 1.0000000000 0.1429000050
 1629.6500000 16.561531067 1.0000000000 0.1368999928
 1629.7000000 11.991153717 1.0000000000 0.1309999973
 1629.7500000 8.7581214905 1.0000000000 0.1250000000
 1629.8000000 7.4780712128 1.0000000000 0.1190999970
 1629.8500000 6.3559455872 1.0000000000 0.1190999970
 1629.9000000 5.3760638237 1.0000000000 0.1130999997
 1629.9500000 6.3624219894 1.0000000000 0.1190999970
 1630.0000000 7.4928760529 1.0000000000 0.1190999970
 1630.0500000 8.7792005539 1.0000000000 0.1250000000
 1630.1000000 14.253371239 1.0000000000 0.1368999928
 1630.1500000 23.679866791 1.0000000000 0.1488000005
 1630.2000000 38.012275696 1.0000000000 0.1547999978
 1630.2500000 57.535697937 1.0000000000 0.1667000055
 1630.3000000 84.611038208 1.0000000000 0.1785999984
 1630.3500000 121.37926483 1.0000000000 0.1905000061
 1630.4000000 274.27893066 1.0000000000 0.2023999989
 1630.4500000 365.09960938 1.0000000000 0.2082999945
 1630.5000000 478.68023682 1.0000000000 0.2202000022
 1630.5500000 619.09600830 1.0000000000 0.2320999950
 1630.6000000 689.55242920 1.0000000000 0.2381000072
 1630.6500000 766.15740967 1.0000000000 0.2440000027
 1630.7000000 849.63952637 1.0000000000 0.2440000027
 1630.7500000 880.30230713 1.0000000000 0.2500000000
 1630.8000000 911.84838867 1.0000000000 0.2500000000
 1630.8500000 944.29803467 1.0000000000 0.2500000000
 1630.9000000 994.70764160 1.0000000000 0.2500000000
 1630.9500000 1047.2600098 1.0000000000 0.2560000122
 1631.0000000 1102.0223389 1.0000000000 0.2560000122
 1631.0500000 1178.5986328 1.0000000000 0.2619000077
 1631.1000000 1259.3972168 1.0000000000 0.2619000077
 1631.1500000 1344.5926514 1.0000000000 0.2678999901
 1631.2000000 1417.3070068 1.0000000000 0.2678999901
 1631.2500000 1493.1520996 1.0000000000 0.2737999856
 1631.3000000 1571.9395752 1.0000000000 0.2737999856
 1631.3500000 1596.8880615 1.0000000000 0.2737999856
 1631.4000000 1622.1530762 1.0000000000 0.2737999856
 1631.4500000 1647.7395020 1.0000000000 0.2797999978
 1631.5000000 1615.6593018 1.0000000000 0.2737999856
 1631.5500000 1584.3739014 1.0000000000 0.2737999856
 1631.6000000 1553.2916260 1.0000000000 0.2737999856
 1631.6500000 1498.9691162 1.0000000000 0.2737999856
 1631.7000000 1445.9161377 1.0000000000 0.2678999901
 1631.7500000 1394.6453857 1.0000000000 0.2678999901
 1631.8000000 1322.8717041 1.0000000000 0.2678999901
 1631.8500000 1254.1000977 1.0000000000 0.2619000077
 1631.9000000 1188.4637451 1.0000000000 0.2619000077
 1631.9500000 1106.5795898 1.0000000000 0.2560000122
 1632.0000000 1029.5003662 1.0000000000 0.2560000122
 1632.0500000 956.60675049 1.0000000000 0.2500000000
 1632.1000000 888.10510254 1.0000000000 0.2500000000
 1632.1500000 823.43438721 1.0000000000 0.2440000027
 1632.2000000 762.76776123 1.0000000000 0.2381000072
 1632.2500000 728.75061035 1.0000000000 0.2381000072
 1632.3000000 695.81506348 1.0000000000 0.2381000072
 1632.3500000 664.23162842 1.0000000000 0.2320999950
 1632.4000000 676.72363281 1.0000000000 0.2381000072
 1632.4500000 689.55242920 1.0000000000 0.2381000072
 1632.5000000 702.27429199 1.0000000000 0.2381000072
 1632.5500000 755.70422363 1.0000000000 0.2381000072
 1632.6000000 812.52551270 1.0000000000 0.2440000027
 1632.6500000 872.55450439 1.0000000000 0.2440000027
 1632.7000000 973.34948730 1.0000000000 0.2500000000
 1632.7500000 1083.5187988 1.0000000000 0.2560000122
 1632.8000000 1203.5023193 1.0000000000 0.2619000077
