# LAS format log file from PETREL
# Project units are specified as depth units
#==================================================================
~Version information
VERS.   2.0:
WRAP.   NO:
#==================================================================
~Well
STRT .m      1605.0999800 :
STOP .m      1769.9999800 :
STEP .m     0.10000000 :
NULL .        -999.250000 :
COMP.           : COMPANY
WELL.  E_IPE   : WELL
FLD.            : FIELD
LOC.            : LOCATION
SRVC.           : SERVICE COMPANY
DATE.  Friday, March 30 2012 17:04:18   : DATE
PROV.           : PROVINCE
UWI.      : UNIQUE WELL ID
API.            : API NUMBER
#==================================================================
~Curve
DEPT .m                   : DEPTH
Permeability*** .mD       : Permeability ***
NTG*** .                  : NTG ***
PORDENS268*** .m3/m3      : POR DENS 268 ***
~Parameter
#==================================================================
~Ascii
# ...
 1620.1999800 52.134899139 1.0000000000 0.1667000055
 1620.2999800 42.474807739 1.0000000000 0.1607073098
 1620.3999800 16.920116425 1.0000000000 0.1547999978
 1620.4999800 14.379471779 1.0000000000 0.1488000005
 1620.5999800 17.844720840 1.0000000000 0.1547999978
 1620.6999800 31.811210632 1.0000000000 0.1667000055
 1620.7999800 47.079315186 1.0000000000 0.1785854846
 1620.8999800 52.568145752 1.0000000000 0.1844999939
 1620.9999800 43.035644531 1.0000000000 0.1785999984
 1621.0999800 30.321100235 1.0000000000 0.1667000055
 1621.1999800 14.779668808 1.0000000000 0.1488000005
 1621.2999800 5.3408875465 1.0000000000 0.1310217083
 1621.3999800 1.6694433689 1.0000000000 0.1130999997
 1621.4999800 0.0010000000 0.0000000000 0.0952000022
 1621.5999800 0.0010000000 0.0000000000 0.0833000019
 1621.6999800 0.0010000000 0.0000000000 0.0714000016
 1621.7999800 0.0010000000 0.0000000000 0.0655071959
 1621.8999800 0.0010000000 0.0000000000 0.0654999986
 1621.9999800 0.0010000000 0.0000000000 0.0654999986
 1622.0999800 0.0010000000 0.0000000000 0.0714000016
 1622.1999800 0.0010000000 0.0000000000 0.0714000016
 1622.2999800 0.0010000000 0.0000000000 0.0773926824
 1622.3999800 0.0010000000 0.0000000000 0.0773999989
 1622.4999800 0.0010000000 0.0000000000 0.0833000019
 1622.5999800 0.0010000000 0.0000000000 0.0833000019
 1622.6999800 0.0010000000 0.0000000000 0.0833000019
 1622.7999800 0.0010000000 0.0000000000 0.0833000019
 1622.8999800 0.0010000000 0.0000000000 0.0773999989
 1622.9999800 0.0010000000 0.0000000000 0.0773999989
 1623.0999800 0.0010000000 0.0000000000 0.0773999989
 1623.1999800 0.0010000000 0.0000000000 0.0773999989
 1623.2999800 0.0010000000 0.0000000000 0.0832928047
 1623.3999800 0.0010000000 0.0000000000 0.0892999992
 1623.4999800 0.5485984087 1.0000000000 0.0952000022
 1623.5999800 0.7316235900 1.0000000000 0.1011999995
 1623.6999800 0.7316235900 1.0000000000 0.1011999995
 1623.7999800 0.6657586694 1.0000000000 0.1011999995
 1623.8999800 0.4723323286 1.0000000000 0.0952000022
 1623.9999800 0.3276914060 1.0000000000 0.0892999992
 1624.0999800 0.0010000000 0.0000000000 0.0833000019
 1624.1999800 0.0010000000 0.0000000000 0.0833000019
 1624.2999800 0.0010000000 0.0000000000 0.0714145154
 1624.3999800 0.0010000000 0.0000000000 0.0654999986
 1624.4999800 0.0010000000 0.0000000000 0.0595000014
 1624.5999800 0.0010000000 0.0000000000 0.0535999984
 1624.6999800 0.0010000000 0.0000000000 0.0476000011
 1624.7999800 0.0010000000 0.0000000000 0.0476000011
 1624.8999800 0.0010000000 0.0000000000 0.0535999984
 1624.9999800 0.0010000000 0.0000000000 0.0654999986
 1625.0999800 0.0010000000 0.0000000000 0.0773999989
 1625.1999800 0.0010000000 0.0000000000 0.0833000019
 1625.2999800 0.1857949942 1.0000000000 0.0833000019
 1625.3999800 0.1283080727 1.0000000000 0.0833000019
 1625.4999800 0.0863208324 1.0000000000 0.0773999989
 1625.5999800 0.0988230929 1.0000000000 0.0773999989
 1625.6999800 0.1646675766 1.0000000000 0.0833000019
 1625.7999800 0.3103951514 1.0000000000 0.0892926827
 1625.8999800 0.5761587620 1.0000000000 0.0952000022
 1625.9999800 0.6657586694 1.0000000000 0.1011999995
 1626.0999800 0.0010000000 0.0000000000 0.0952000022
 1626.1999800 0.0010000000 0.0000000000 0.0833000019
 1626.2999800 0.0010000000 0.0000000000 0.0774071962
 1626.3999800 0.0010000000 0.0000000000 0.0773999989
 1626.4999800 0.0010000000 0.0000000000 0.0833000019
 1626.5999800 0.0010000000 0.0000000000 0.0952000022
 1626.6999800 0.9200105071 1.0000000000 0.1011999995
 1626.7999800 2.1163361073 1.0000000000 0.1130854860
 1626.8999800 4.5214495659 1.0000000000 0.1309999973
 1626.9999800 19.020990372 1.0000000000 0.1429000050
 1627.0999800 33.486701965 1.0000000000 0.1547999978
 1627.1999800 56.959327698 1.0000000000 0.1667000055
 1627.2999800 86.767463684 1.0000000000 0.1785854846
 1627.3999800 114.26363373 1.0000000000 0.1905000061
 1627.4999800 140.44972229 1.0000000000 0.1964000016
 1627.5999800 151.08822632 1.0000000000 0.1964000016
 1627.6999800 162.36547852 1.0000000000 0.2023999989
 1627.7999800 153.84704590 1.0000000000 0.1964073181
 1627.8999800 143.05084229 1.0000000000 0.1964000016
 1627.9999800 116.46764374 1.0000000000 0.1905000061
 1628.0999800 95.895248413 1.0000000000 0.1844999939
 1628.1999800 75.175750732 1.0000000000 0.1785999984
 1628.2999800 67.685997009 1.0000000000 0.1726073176
 1628.3999800 62.136840820 1.0000000000 0.1726000011
 1628.4999800 59.502799988 1.0000000000 0.1667000055
 1628.5999800 49.849029541 1.0000000000 0.1667000055
 1628.6999800 19.309120178 1.0000000000 0.1547999978
 1628.7999800 12.509935379 1.0000000000 0.1488073170
 1628.8999800 8.3068380356 1.0000000000 0.1368999928
 1628.9999800 6.2786693573 1.0000000000 0.1368999928
 1629.0999800 5.8885416985 1.0000000000 0.1309999973
 1629.1999800 6.6897921562 1.0000000000 0.1368999928
 1629.2999800 7.3477368355 1.0000000000 0.1368999928
 1629.3999800 8.8235797882 1.0000000000 0.1429000050
 1629.4999800 9.6480722427 1.0000000000 0.1429000050
 1629.5999800 11.820383072 1.0000000000 0.1488000005
 1629.6999800 24.789485931 1.0000000000 0.1488000005
 1629.7999800 26.769908905 1.0000000000 0.1488000005
 1629.8999800 25.436008453 1.0000000000 0.1488000005
 1629.9999800 22.928653717 1.0000000000 0.1429000050
 1630.0999800 18.009099960 1.0000000000 0.1429000050
 1630.1999800 15.667809486 1.0000000000 0.1368999928
 1630.2999800 14.802800179 1.0000000000 0.1368999928
 1630.3999800 14.384991646 1.0000000000 0.1368999928
 1630.4999800 15.667809486 1.0000000000 0.1368999928
 1630.5999800 20.077989578 1.0000000000 0.1429000050
 1630.6999800 26.096023560 1.0000000000 0.1488000005
 1630.7999800 35.149005890 1.0000000000 0.1547926813
 1630.8999800 52.134899139 1.0000000000 0.1667000055
 1630.9999800 94.010772705 1.0000000000 0.1844999939
 1631.0999800 183.72518921 1.0000000000 0.2023999989
 1631.1999800 347.97055054 1.0000000000 0.2261999995
 1631.2999800 580.78277588 1.0000000000 0.2499709725
 1631.3999800 834.80639648 1.0000000000 0.2619000077
 1631.4999800 985.46569824 1.0000000000 0.2737999856
 1631.5999800 1010.4685059 1.0000000000 0.2737999856
 1631.6999800 936.95544434 1.0000000000 0.2678999901
 1631.7999800 824.03436279 1.0000000000 0.2619073391
 1631.8999800 630.97100830 1.0000000000 0.2500000000
 1631.9999800 411.05007935 1.0000000000 0.2320999950
 1632.0999800 218.10276794 1.0000000000 0.2082999945
 1632.1999800 94.010772705 1.0000000000 0.1844999939
 1632.2999800 31.888410568 1.0000000000 0.1548362225
 1632.3999800 4.5214495659 1.0000000000 0.1309999973
 1632.4999800 1.8088083267 1.0000000000 0.1130999997
 1632.5999800 1.0057438612 1.0000000000 0.1071000025
 1632.6999800 0.0010000000 0.0000000000 0.1011999995
 1632.7999800 0.0010000000 0.0000000000 0.1011999995
 1632.8999800 0.0010000000 0.0000000000 0.0952000022
 1632.9999800 0.0010000000 0.0000000000 0.0892999992
 1633.0999800 0.0010000000 0.0000000000 0.0773999989
 1633.1999800 0.0010000000 0.0000000000 0.0654999986
 1633.2999800 0.0010000000 0.0000000000 0.0713928044
 1633.3999800 0.0010000000 0.0000000000 0.0952000022
 1633.4999800 4.6764564514 1.0000000000 0.1309999973
 1633.5999800 26.190961838 1.0000000000 0.1667000055
 1633.6999800 135.36100769 1.0000000000 0.1964000016
 1633.7999800 214.44808960 1.0000000000 0.2082854807
 1633.8999800 196.90919495 1.0000000000 0.2082999945
 1633.9999800 123.28620148 1.0000000000 0.1905000061
 1634.0999800 76.750991821 1.0000000000 0.1785999984
 1634.1999800 64.863533020 1.0000000000 0.1726000011
 1634.2999800 70.606063843 1.0000000000 0.1726000011
 1634.3999800 90.330734253 1.0000000000 0.1785999984
 1634.4999800 118.70571136 1.0000000000 0.1905000061
 1634.5999800 135.36100769 1.0000000000 0.1964000016
 1634.6999800 125.62887573 1.0000000000 0.1905000061
 1634.7999800 107.85159302 1.0000000000 0.1845073104
 1634.8999800 101.73220825 1.0000000000 0.1844999939
 1634.9999800 99.755828857 1.0000000000 0.1844999939
 1635.0999800 107.85159302 1.0000000000 0.1844999939
 1635.1999800 123.28620148 1.0000000000 0.1905000061
