# LAS format log file from PETREL
# Project units are specified as depth units
#==================================================================
~Version information
VERS.   2.0:
WRAP.   NO:
#==================================================================
~Well
STRT .m      1555.0999800 :
STOP .m      1749.8999800 :
STEP .m     0.10000000 :
NULL .        -999.250000 :
COMP.           : COMPANY
WELL.  F_IPE   : WELL
FLD.            : FIELD
LOC.            : LOCATION
SRVC.           : SERVICE COMPANY
DATE.  Friday, March 30 2012 17:04:30   : DATE
PROV.           : PROVINCE
UWI.      : UNIQUE WELL ID
API.            : API NUMBER
#==================================================================
~Curve
DEPT .m                   : DEPTH
Permeability*** .mD       : Permeability ***
NTG*** .                  : NTG ***
PORDENS268*** .m3/m3      : POR DENS 268 ***
~Parameter
#==================================================================
~Ascii
# ...
 1630.5999800 159.48489380 1.0000000000 0.1964000016
 1630.6999800 171.25996399 1.0000000000 0.2023999989
 1630.7999800 218.10276794 1.0000000000 0.2082927972
 1630.8999800 214.44808960 1.0000000000 0.2082999945
 1630.9999800 210.84370422 1.0000000000 0.2082999945
 1631.0999800 81.635528564 1.0000000000 0.1785999984
 1631.1999800 85.028938293 1.0000000000 0.1785999984
 1631.2999800 88.534896851 1.0000000000 0.1785999984
 1631.3999800 233.22314453 1.0000000000 0.2143000066
 1631.4999800 247.13488770 1.0000000000 0.2143000066
 1631.5999800 261.70645142 1.0000000000 0.2143000066
 1631.6999800 114.26363373 1.0000000000 0.1905000061
 1631.7999800 80.804534912 1.0000000000 0.1786145121
 1631.8999800 55.720958710 1.0000000000 0.1667000055
 1631.9999800 33.486701965 1.0000000000 0.1547999978
 1632.0999800 9.0917501450 1.0000000000 0.1429000050
 1632.1999800 36.877048492 1.0000000000 0.1547999978
 1632.2999800 48.188304901 1.0000000000 0.1666854918
 1632.3999800 62.136840820 1.0000000000 0.1726000011
 1632.4999800 132.87316895 1.0000000000 0.1905000061
 1632.5999800 209.05987549 1.0000000000 0.2082999945
 1632.6999800 317.00228882 1.0000000000 0.2261999995
 1632.7999800 476.08303833 1.0000000000 0.2380854934
 1632.8999800 407.99697876 1.0000000000 0.2320999950
 1632.9999800 347.97055054 1.0000000000 0.2261999995
 1633.0999800 221.80647278 1.0000000000 0.2082999945
 1633.1999800 119.83764648 1.0000000000 0.1905000061
 1633.2999800 59.502799988 1.0000000000 0.1667290330
 1633.3999800 12.161184311 1.0000000000 0.1488000005
 1633.4999800 25.436008453 1.0000000000 0.1488000005
 1633.5999800 26.096023560 1.0000000000 0.1488000005
 1633.6999800 27.457553864 1.0000000000 0.1488000005
 1633.7999800 27.457553864 1.0000000000 0.1488000005
 1633.8999800 27.457553864 1.0000000000 0.1488000005
 1633.9999800 32.679698944 1.0000000000 0.1547999978
 1634.0999800 50.981796265 1.0000000000 0.1667000055
 1634.1999800 76.750991821 1.0000000000 0.1785999984
 1634.2999800 162.36547852 1.0000000000 0.2023709714
 1634.3999800 202.04467773 1.0000000000 0.2082999945
 1634.4999800 249.17546082 1.0000000000 0.2143000066
 1634.5999800 449.14581299 1.0000000000 0.2381000072
 1634.6999800 545.29229736 1.0000000000 0.2440000027
 1634.7999800 657.34094238 1.0000000000 0.2559853792
 1634.8999800 879.03582764 1.0000000000 0.2678999901
 1634.9999800 845.69396973 1.0000000000 0.2619000077
 1635.0999800 813.37445068 1.0000000000 0.2619000077
 1635.1999800 732.01794434 1.0000000000 0.2560000122
 1635.2999800 549.14703369 1.0000000000 0.2440146357
 1635.3999800 404.96069336 1.0000000000 0.2320999950
 1635.4999800 541.45935059 1.0000000000 0.2440000027
 1635.5999800 712.74072266 1.0000000000 0.2560000122
 1635.6999800 913.42999268 1.0000000000 0.2678999901
 1635.7999800 901.84790039 1.0000000000 0.2678999901
 1635.8999800 890.38446045 1.0000000000 0.2678999901
 1635.9999800 622.37335205 1.0000000000 0.2500000000
 1636.0999800 483.01583862 1.0000000000 0.2381000072
 1636.1999800 369.93627930 1.0000000000 0.2320999950
 1636.2999800 112.09278870 1.0000000000 0.1905507445
 1636.3999800 92.155761719 1.0000000000 0.1844999939
 1636.4999800 75.175750732 1.0000000000 0.1785999984
 1636.5999800 118.70571136 1.0000000000 0.1905000061
 1636.6999800 91.239578247 1.0000000000 0.1844999939
 1636.7999800 69.133628845 1.0000000000 0.1726145148
 1636.8999800 16.035354614 1.0000000000 0.1547999978
 1636.9999800 14.779668808 1.0000000000 0.1488000005
 1637.0999800 13.605946541 1.0000000000 0.1488000005
 1637.1999800 40.537948608 1.0000000000 0.1606999934
 1637.2999800 59.502799988 1.0000000000 0.1666926891
 1637.3999800 85.028938293 1.0000000000 0.1785999984
 1637.4999800 101.73220825 1.0000000000 0.1844999939
 1637.5999800 144.36585999 1.0000000000 0.1964000016
 1637.6999800 200.32102966 1.0000000000 0.2082999945
 1637.7999800 207.28819275 1.0000000000 0.2082999945
 1637.8999800 214.44808960 1.0000000000 0.2082999945
 1637.9999800 221.80647278 1.0000000000 0.2082999945
 1638.0999800 214.44808960 1.0000000000 0.2082999945
 1638.1999800 207.28819275 1.0000000000 0.2082999945
 1638.2999800 180.54223633 1.0000000000 0.2024071962
 1638.3999800 105.77946472 1.0000000000 0.1844999939
 1638.4999800 102.73213959 1.0000000000 0.1844999939
 1638.5999800 99.755828857 1.0000000000 0.1844999939
 1638.6999800 118.70571136 1.0000000000 0.1905000061
 1638.7999800 140.44972229 1.0000000000 0.1963928044
 1638.8999800 174.31083679 1.0000000000 0.2023999989
 1638.9999800 183.72518921 1.0000000000 0.2023999989
 1639.0999800 193.54345703 1.0000000000 0.2082999945
 1639.1999800 237.13166809 1.0000000000 0.2143000066
 1639.2999800 251.22956848 1.0000000000 0.2143000066
 1639.3999800 265.99389648 1.0000000000 0.2143000066
 1639.4999800 648.45294189 1.0000000000 0.2500000000
 1639.5999800 679.98706055 1.0000000000 0.2560000122
 1639.6999800 712.74072266 1.0000000000 0.2560000122
 1639.7999800 856.69287109 1.0000000000 0.2678854764
 1639.8999800 856.69287109 1.0000000000 0.2678999901
 1639.9999800 856.69287109 1.0000000000 0.2678999901
 1640.0999800 856.69287109 1.0000000000 0.2678999901
 1640.1999800 845.69396973 1.0000000000 0.2619000077
 1640.2999800 834.80639648 1.0000000000 0.2619000077
 1640.3999800 867.80651855 1.0000000000 0.2678999901
 1640.4999800 867.80651855 1.0000000000 0.2678999901
 1640.5999800 867.80651855 1.0000000000 0.2678999901
 1640.6999800 771.83312988 1.0000000000 0.2619000077
 1640.7999800 597.14215088 1.0000000000 0.2500145137
 1640.8999800 455.76177979 1.0000000000 0.2381000072
 1640.9999800 347.97055054 1.0000000000 0.2261999995
 1641.0999800 268.15872192 1.0000000000 0.2202000022
 1641.1999800 203.78024292 1.0000000000 0.2082999945
 1641.2999800 274.73941040 1.0000000000 0.2201854885
 1641.3999800 270.33871460 1.0000000000 0.2202000022
 1641.4999800 265.99389648 1.0000000000 0.2143000066
 1641.5999800 309.61694336 1.0000000000 0.2202000022
 1641.6999800 358.81823730 1.0000000000 0.2261999995
 1641.7999800 381.32836914 1.0000000000 0.2320927978
 1641.8999800 411.05007935 1.0000000000 0.2320999950
 1641.9999800 442.60580444 1.0000000000 0.2381000072
 1642.0999800 549.14703369 1.0000000000 0.2440000027
 1642.1999800 541.45935059 1.0000000000 0.2440000027
 1642.2999800 533.85662842 1.0000000000 0.2440000027
 1642.3999800 518.91235352 1.0000000000 0.2440000027
 1642.4999800 395.96496582 1.0000000000 0.2320999950
 1642.5999800 297.61679077 1.0000000000 0.2202000022
 1642.6999800 229.36659241 1.0000000000 0.2143000066
 1642.7999800 175.85221863 1.0000000000 0.2024145126
 1642.8999800 132.87316895 1.0000000000 0.1905000061
 1642.9999800 165.28845215 1.0000000000 0.2023999989
 1643.0999800 185.33311462 1.0000000000 0.2023999989
 1643.1999800 207.28819275 1.0000000000 0.2082999945
 1643.2999800 288.28939819 1.0000000000 0.2201854885
 1643.3999800 350.65835571 1.0000000000 0.2261999995
 1643.4999800 423.44683838 1.0000000000 0.2320999950
 1643.5999800 605.45867920 1.0000000000 0.2500000000
 1643.6999800 626.66033936 1.0000000000 0.2500000000
 1643.7999800 648.45294189 1.0000000000 0.2500000000
 1643.8999800 605.45867920 1.0000000000 0.2500000000
 1643.9999800 455.76177979 1.0000000000 0.2381000072
 1644.0999800 337.38946533 1.0000000000 0.2261999995
 1644.1999800 288.28939819 1.0000000000 0.2202000022
 1644.2999800 245.10777283 1.0000000000 0.2143072039
 1644.3999800 207.28819275 1.0000000000 0.2082999945
 1644.4999800 132.87316895 1.0000000000 0.1905000061
 1644.5999800 81.635528564 1.0000000000 0.1785999984
 1644.6999800 73.626976013 1.0000000000 0.1726000011
 1644.7999800 81.635528564 1.0000000000 0.1785926819
 1644.8999800 90.330734253 1.0000000000 0.1785999984
 1644.9999800 99.755828857 1.0000000000 0.1844999939
 1645.0999800 99.755828857 1.0000000000 0.1844999939
 1645.1999800 99.755828857 1.0000000000 0.1844999939
 1645.2999800 288.28939819 1.0000000000 0.2201564610
 1645.3999800 209.05987549 1.0000000000 0.2082999945
 1645.4999800 148.36997986 1.0000000000 0.1964000016
 1645.5999800 159.48489380 1.0000000000 0.1964000016
