# LAS format log file from PETREL
# Project units are specified as depth units
#==================================================================
~Version information
VERS.   2.0:
WRAP.   NO:
#==================================================================
~Well
STRT .m      1555.0999800 :
STOP .m      1749.8999800 :
STEP .m     0.10000000 :
NULL .        -999.250000 :
COMP.           : COMPANY
WELL.  F_IPE   : WELL
FLD.            : FIELD
LOC.            : LOCATION
SRVC.           : SERVICE COMPANY
DATE.  Friday, March 30 2012 17:04:30   : DATE
PROV.           : PROVINCE
UWI.      : UNIQUE WELL ID
API.            : API NUMBER
#==================================================================
~Curve
DEPT .m                   : DEPTH
Permeability*** .mD       : Permeability ***
NTG*** .                  : NTG ***
PORDENS268*** .m3/m3      : POR DENS 268 ***
~Parameter
#==================================================================
~Ascii
# ...
 1645.6999800 166.76538086 1.0000000000 0.2023999989
 1645.7999800 174.31083679 1.0000000000 0.2023999989
 1645.8999800 47.644733429 1.0000000000 0.1606999934
 1645.9999800 69.866729736 1.0000000000 0.1726000011
 1646.0999800 99.755828857 1.0000000000 0.1844999939
 1646.1999800 132.87316895 1.0000000000 0.1905000061
 1646.2999800 139.16351318 1.0000000000 0.1963928044
 1646.3999800 145.69120789 1.0000000000 0.1964000016
 1646.4999800 288.28939819 1.0000000000 0.2202000022
 1646.5999800 265.99389648 1.0000000000 0.2143000066
 1646.6999800 245.10777283 1.0000000000 0.2143000066
 1646.7999800 207.28819275 1.0000000000 0.2083073109
 1646.8999800 174.31083679 1.0000000000 0.2023999989
 1646.9999800 145.69120789 1.0000000000 0.1964000016
 1647.0999800 53.308887482 1.0000000000 0.1667000055
 1647.1999800 40.065013885 1.0000000000 0.1606999934
 1647.2999800 29.606363297 1.0000000000 0.1488145143
 1647.3999800 20.077989578 1.0000000000 0.1429000050
 1647.4999800 26.096023560 1.0000000000 0.1488000005
 1647.5999800 33.486701965 1.0000000000 0.1547999978
 1647.6999800 120.97879028 1.0000000000 0.1905000061
 1647.7999800 159.48489380 1.0000000000 0.1963928044
 1647.8999800 207.28819275 1.0000000000 0.2082999945
 1647.9999800 268.15872192 1.0000000000 0.2202000022
 1648.0999800 342.64715576 1.0000000000 0.2261999995
 1648.1999800 455.76177979 1.0000000000 0.2381000072
 1648.2999800 393.00238037 1.0000000000 0.2321073115
 1648.3999800 337.38946533 1.0000000000 0.2261999995
 1648.4999800 288.28939819 1.0000000000 0.2202000022
 1648.5999800 312.06277466 1.0000000000 0.2202000022
 1648.6999800 337.38946533 1.0000000000 0.2261999995
 1648.7999800 423.44683838 1.0000000000 0.2320927978
 1648.8999800 407.99697876 1.0000000000 0.2320999950
 1648.9999800 393.00238037 1.0000000000 0.2320999950
 1649.0999800 288.28939819 1.0000000000 0.2202000022
 1649.1999800 255.37863159 1.0000000000 0.2143000066
 1649.2999800 225.56060791 1.0000000000 0.2083073109
 1649.3999800 174.31083679 1.0000000000 0.2023999989
 1649.4999800 152.46228027 1.0000000000 0.1964000016
 1649.5999800 132.87316895 1.0000000000 0.1905000061
 1649.6999800 103.73995972 1.0000000000 0.1844999939
 1649.7999800 92.155761719 1.0000000000 0.1844999939
 1649.8999800 81.635528564 1.0000000000 0.1785999984
 1649.9999800 42.474807739 1.0000000000 0.1606999934
 1650.0999800 20.077989578 1.0000000000 0.1429000050
 1650.1999800 3.6773884296 1.0000000000 0.1250000000
 1650.2999800 15.230314255 1.0000000000 0.1368854791
 1650.3999800 7.4623823166 1.0000000000 0.1368999928
 1650.4999800 7.8151741028 1.0000000000 0.1368999928
 1650.5999800 36.877048492 1.0000000000 0.1547999978
 1650.6999800 80.804534912 1.0000000000 0.1785999984
 1650.7999800 159.48489380 1.0000000000 0.1963782907
 1650.8999800 347.97055054 1.0000000000 0.2261999995
 1650.9999800 369.93627930 1.0000000000 0.2320999950
 1651.0999800 393.00238037 1.0000000000 0.2320999950
 1651.1999800 327.06750488 1.0000000000 0.2261999995
 1651.2999800 347.97055054 1.0000000000 0.2261999995
 1651.3999800 369.93627930 1.0000000000 0.2320999950
 1651.4999800 361.57186890 1.0000000000 0.2261999995
 1651.5999800 353.36157227 1.0000000000 0.2261999995
 1651.6999800 364.34249878 1.0000000000 0.2261999995
 1651.7999800 340.01013184 1.0000000000 0.2261999995
 1651.8999800 317.00228882 1.0000000000 0.2261999995
 1651.9999800 193.54345703 1.0000000000 0.2082999945
 1652.0999800 253.29727173 1.0000000000 0.2143000066
 1652.1999800 327.06750488 1.0000000000 0.2261999995
 1652.2999800 261.70645142 1.0000000000 0.2143145204
 1652.3999800 274.73941040 1.0000000000 0.2202000022
 1652.4999800 288.28939819 1.0000000000 0.2202000022
 1652.5999800 174.31083679 1.0000000000 0.2023999989
 1652.6999800 125.62887573 1.0000000000 0.1905000061
 1652.7999800 88.534896851 1.0000000000 0.1786145121
 1652.8999800 34.309856415 1.0000000000 0.1547999978
 1652.9999800 21.465282440 1.0000000000 0.1429000050
 1653.0999800 5.8885416985 1.0000000000 0.1309999973
 1653.1999800 16.572908401 1.0000000000 0.1368999928
 1653.2999800 16.115249634 1.0000000000 0.1368999928
 1653.3999800 15.667809486 1.0000000000 0.1368999928
 1653.4999800 21.751743317 1.0000000000 0.1429000050
 1653.5999800 28.159336090 1.0000000000 0.1488000005
 1653.6999800 36.004585266 1.0000000000 0.1547999978
 1653.7999800 48.736858368 1.0000000000 0.1666854918
 1653.8999800 55.720958710 1.0000000000 0.1667000055
 1653.9999800 63.488414764 1.0000000000 0.1726000011
 1654.0999800 66.262512207 1.0000000000 0.1726000011
 1654.1999800 69.133628845 1.0000000000 0.1726000011
 1654.2999800 85.028938293 1.0000000000 0.1785926819
 1654.3999800 203.78024292 1.0000000000 0.2082999945
 1654.4999800 239.10559082 1.0000000000 0.2143000066
 1654.5999800 279.19750977 1.0000000000 0.2202000022
 1654.6999800 263.84317017 1.0000000000 0.2143000066
 1654.7999800 249.17546082 1.0000000000 0.2143000066
 1654.8999800 245.10777283 1.0000000000 0.2143000066
 1654.9999800 233.22314453 1.0000000000 0.2143000066
 1655.0999800 221.80647278 1.0000000000 0.2082999945
 1655.1999800 270.33871460 1.0000000000 0.2202000022
 1655.2999800 342.64715576 1.0000000000 0.2261926830
 1655.3999800 429.75851440 1.0000000000 0.2381000072
 1655.4999800 490.02963257 1.0000000000 0.2381000072
 1655.5999800 500.70538330 1.0000000000 0.2440000027
 1655.6999800 511.56570435 1.0000000000 0.2440000027
 1655.7999800 533.85662842 1.0000000000 0.2440000027
 1655.8999800 511.56570435 1.0000000000 0.2440000027
 1655.9999800 490.02963257 1.0000000000 0.2381000072
 1656.0999800 436.14410400 1.0000000000 0.2381000072
 1656.1999800 490.02963257 1.0000000000 0.2381000072
 1656.2999800 549.14703369 1.0000000000 0.2439928055
 1656.3999800 613.86816406 1.0000000000 0.2500000000
 1656.4999800 679.98706055 1.0000000000 0.2560000122
 1656.5999800 751.71472168 1.0000000000 0.2619000077
 1656.6999800 751.71472168 1.0000000000 0.2619000077
 1656.7999800 644.04638672 1.0000000000 0.2500145137
 1656.8999800 549.14703369 1.0000000000 0.2440000027
 1656.9999800 442.60580444 1.0000000000 0.2381000072
 1657.0999800 353.36157227 1.0000000000 0.2261999995
 1657.1999800 241.09271240 1.0000000000 0.2143000066
 1657.2999800 249.17546082 1.0000000000 0.2143000066
 1657.3999800 307.18655396 1.0000000000 0.2202000022
 1657.4999800 375.59759521 1.0000000000 0.2320999950
 1657.5999800 407.99697876 1.0000000000 0.2320999950
 1657.6999800 442.60580444 1.0000000000 0.2381000072
 1657.7999800 526.34185791 1.0000000000 0.2439928055
 1657.8999800 657.34094238 1.0000000000 0.2560000122
 1657.9999800 813.37445068 1.0000000000 0.2619000077
 1658.0999800 771.83312988 1.0000000000 0.2619000077
 1658.1999800 722.32763672 1.0000000000 0.2560000122
 1658.2999800 675.40661621 1.0000000000 0.2560000122
 1658.3999800 417.21142578 1.0000000000 0.2320999950
 1658.4999800 342.64715576 1.0000000000 0.2261999995
 1658.5999800 279.19750977 1.0000000000 0.2202000022
 1658.6999800 177.40452576 1.0000000000 0.2023999989
 1658.7999800 94.949249268 1.0000000000 0.1845218241
 1658.8999800 46.572380066 1.0000000000 0.1606999934
 1658.9999800 50.981796265 1.0000000000 0.1667000055
 1659.0999800 65.560020447 1.0000000000 0.1726000011
 1659.1999800 83.318542480 1.0000000000 0.1785999984
 1659.2999800 214.44808960 1.0000000000 0.2082637697
 1659.3999800 265.99389648 1.0000000000 0.2143000066
 1659.4999800 327.06750488 1.0000000000 0.2261999995
 1659.5999800 193.54345703 1.0000000000 0.2082999945
 1659.6999800 193.54345703 1.0000000000 0.2082999945
 1659.7999800 193.54345703 1.0000000000 0.2082999945
 1659.8999800 214.44808960 1.0000000000 0.2082999945
 1659.9999800 221.80647278 1.0000000000 0.2082999945
 1660.0999800 229.36659241 1.0000000000 0.2143000066
 1660.1999800 214.44808960 1.0000000000 0.2082999945
 1660.2999800 193.54345703 1.0000000000 0.2082999945
 1660.3999800 174.31083679 1.0000000000 0.2023999989
 1660.4999800 148.36997986 1.0000000000 0.1964000016
 1660.5999800 125.62887573 1.0000000000 0.1905000061
 1660.6999800 107.85159302 1.0000000000 0.1844999939
