# LAS format log file from PETREL
# Project units are specified as depth units
#==================================================================
~Version information
VERS.   2.0:
WRAP.   NO:
#==================================================================
~Well
STRT .m      1610.0000000 :
STOP .m      1780.0000000 :
STEP .m     0.05000000 :
NULL .        -999.250000 :
COMP.           : COMPANY
WELL.  B_IPE   : WELL
FLD.            : FIELD
LOC.            : LOCATION
SRVC.           : SERVICE COMPANY
DATE.  Friday, March 30 2012 17:03:38   : DATE
PROV.           : PROVINCE
UWI.      : UNIQUE WELL ID
API.            : API NUMBER
#==================================================================
~Curve
DEPT .m                   : DEPTH
Permeability*** .mD       : Permeability ***
NTG*** .                  : NTG ***
PORDENS268*** .m3/m3      : POR DENS 268 ***
~Parameter
#==================================================================
~Ascii
# ...
 1753.4500000 327.14929199 1.0000000000 0.2143000066
 1753.5000000 374.09616089 1.0000000000 0.2202000022
 1753.5500000 430.67303467 1.0000000000 0.2261999995
 1753.6000000 493.93722534 1.0000000000 0.2320999950
 1753.6500000 564.47039795 1.0000000000 0.2381000072
 1753.7000000 584.09033203 1.0000000000 0.2381000072
 1753.7500000 604.25531006 1.0000000000 0.2381000072
 1753.8000000 624.83898926 1.0000000000 0.2440000027
 1753.8500000 575.56079102 1.0000000000 0.2381000072
 1753.9000000 529.57788086 1.0000000000 0.2320999950
 1753.9500000 486.59719849 1.0000000000 0.2320999950
 1754.0000000 439.59823608 1.0000000000 0.2261999995
 1754.0500000 396.41693115 1.0000000000 0.2261999995
 1754.1000000 356.62734985 1.0000000000 0.2202000022
 1754.1500000 350.89501953 1.0000000000 0.2202000022
 1754.2000000 345.32229614 1.0000000000 0.2202000022
 1754.2500000 339.82089233 1.0000000000 0.2202000022
 1754.3000000 334.30718994 1.0000000000 0.2143000066
 1754.3500000 343.45233154 1.0000000000 0.2202000022
 1754.4000000 352.79751587 1.0000000000 0.2202000022
 1754.4500000 362.34625244 1.0000000000 0.2202000022
 1754.5000000 339.82089233 1.0000000000 0.2202000022
 1754.5500000 318.35598755 1.0000000000 0.2143000066
 1754.6000000 298.07095337 1.0000000000 0.2143000066
 1754.6500000 233.62702942 1.0000000000 0.2023999989
 1754.7000000 180.89662170 1.0000000000 0.1964000016
 1754.7500000 116.64541626 1.0000000000 0.1844999939
 1754.8000000 60.346122742 1.0000000000 0.1726000011
 1754.8500000 14.072083473 1.0000000000 0.1606999934
 1754.9000000 7.0943617821 1.0000000000 0.1488000005
 1754.9500000 3.5452253819 1.0000000000 0.1368999928
 1755.0000000 1.6052242517 1.0000000000 0.1250000000
 1755.0500000 0.6383692026 1.0000000000  -999.250000
 1755.1000000 0.0010000000 0.0000000000  -999.250000
 1755.1500000 0.0010000000 0.0000000000  -999.250000
 1755.2000000 0.0010000000 0.0000000000  -999.250000
 1755.2500000 0.0010000000 0.0000000000  -999.250000
 1755.3000000 0.0010000000 0.0000000000  -999.250000
 1755.3500000 0.0010000000 0.0000000000  -999.250000
 1755.4000000 0.0010000000 0.0000000000  -999.250000
 1755.4500000 0.0010000000 0.0000000000  -999.250000
 1755.5000000 0.0010000000 0.0000000000  -999.250000
 1755.5500000 0.0010000000 0.0000000000  -999.250000
 1755.6000000 0.0010000000 0.0000000000  -999.250000
 1755.6500000 0.0010000000 0.0000000000  -999.250000
 1755.7000000 0.9552584291 1.0000000000  -999.250000
 1755.7500000 1.2188637257 1.0000000000  -999.250000
 1755.8000000 1.5385098457 1.0000000000  -999.250000
 1755.8500000 1.7716903687 1.0000000000  -999.250000
 1755.9000000 2.0331618786 1.0000000000  -999.250000
 1755.9500000 2.3255467415 1.0000000000  -999.250000
 1756.0000000 2.7558217049 1.0000000000  -999.250000
 1756.0500000 3.2494707108 1.0000000000  -999.250000
 1756.1000000 3.8135814667 1.0000000000  -999.250000
 1756.1500000 5.4298639297 1.0000000000  -999.250000
 1756.2000000 7.5710082054 1.0000000000  -999.250000
 1756.2500000 10.357188225 1.0000000000  -999.250000
 1756.3000000 17.007160187 1.0000000000  -999.250000
 1756.3500000 26.824110031 1.0000000000  -999.250000
 1756.4000000 40.883892059 1.0000000000  -999.250000
 1756.4500000 121.30871582 1.0000000000  -999.250000
 1756.5000000 188.77941895 1.0000000000  -999.250000
 1756.5500000 283.53234863 1.0000000000  -999.250000
 1756.6000000 419.69696045 1.0000000000  -999.250000
 1756.6500000 604.25531006 1.0000000000  -999.250000
 1756.7000000 848.93688965 1.0000000000  -999.250000
 1756.7500000 1067.5861816 1.0000000000  -999.250000
 1756.8000000 1329.4083252 1.0000000000  -999.250000
 1756.8500000 1640.5667725 1.0000000000  -999.250000
 1756.9000000 1666.6879883 1.0000000000  -999.250000
 1756.9500000 1693.1434326 1.0000000000  -999.250000
 1757.0000000 1719.9348145 1.0000000000  -999.250000
 1757.0500000 1402.2539063 1.0000000000  -999.250000
 1757.1000000 1133.5748291 1.0000000000  -999.250000
 1757.1500000 907.94903564 1.0000000000  -999.250000
 1757.2000000 655.34155273 1.0000000000  -999.250000
 1757.2500000 462.61788940 1.0000000000  -999.250000
 1757.3000000 318.35598755 1.0000000000  -999.250000
 1757.3500000 253.89566040 1.0000000000  -999.250000
 1757.4000000 200.37606812 1.0000000000  -999.250000
 1757.4500000 156.33000183 1.0000000000  -999.250000
 1757.5000000 120.42992401 1.0000000000  -999.250000
 1757.5500000 135.40135193 1.0000000000  -999.250000
 1757.6000000 151.83468628 1.0000000000  -999.250000
 1757.6500000 160.88566589 1.0000000000  -999.250000
 1757.7000000 174.35977173 1.0000000000  -999.250000
 1757.7500000 188.77941895 1.0000000000  -999.250000
 1757.8000000 204.08729553 1.0000000000  -999.250000
 1757.8500000 193.38351440 1.0000000000  -999.250000
 1757.9000000 183.13591003 1.0000000000  -999.250000
 1757.9500000 173.32977295 1.0000000000  -999.250000
 1758.0000000 80.825553894 1.0000000000  -999.250000
 1758.0500000 62.808368683 1.0000000000  -999.250000
 1758.1000000 48.214519501 1.0000000000  -999.250000
 1758.1500000 35.948993683 1.0000000000  -999.250000
 1758.2000000 26.372880936 1.0000000000  -999.250000
 1758.2500000 19.000637054 1.0000000000  -999.250000
 1758.3000000 16.855138779 1.0000000000  -999.250000
 1758.3500000 14.906344414 1.0000000000  -999.250000
 1758.4000000 13.152557373 1.0000000000  -999.250000
 1758.4500000 15.780841827 1.0000000000  -999.250000
 1758.5000000 18.826194763 1.0000000000  -999.250000
 1758.5500000 22.338745117 1.0000000000  -999.250000
 1758.6000000 30.726554871 1.0000000000  -999.250000
 1758.6500000 41.545635223 1.0000000000  -999.250000
 1758.7000000 98.475891113 1.0000000000  -999.250000
 1758.7500000 124.57497406 1.0000000000  -999.250000
 1758.8000000 155.92512512 1.0000000000  -999.250000
 1758.8500000 193.38351440 1.0000000000  -999.250000
 1758.9000000 213.98419189 1.0000000000  -999.250000
 1758.9500000 236.31443787 1.0000000000  -999.250000
 1759.0000000 260.54980469 1.0000000000  -999.250000
 1759.0500000 251.77430725 1.0000000000  -999.250000
 1759.1000000 243.23823547 1.0000000000  -999.250000
 1759.1500000 234.99888611 1.0000000000  -999.250000
 1759.2000000 207.74038696 1.0000000000  -999.250000
 1759.2500000 173.03634644 1.0000000000  -999.250000
 1759.3000000 130.88987732 1.0000000000  -999.250000
 1759.3500000 63.341770172 1.0000000000  -999.250000
 1759.4000000 52.742797852 1.0000000000  -999.250000
 1759.4500000 43.678474426 1.0000000000  -999.250000
 1759.5000000 39.834365845 1.0000000000  -999.250000
 1759.5500000 36.286327362 1.0000000000  -999.250000
 1759.6000000 32.989688873 1.0000000000  -999.250000
 1759.6500000 27.669645309 1.0000000000  -999.250000
 1759.7000000 23.085222244 1.0000000000  -999.250000
 1759.7500000 18.481256485 1.0000000000  -999.250000
 1759.8000000 14.215710640 1.0000000000  -999.250000
 1759.8500000 10.700134277 1.0000000000  -999.250000
 1759.9000000 7.8094296455 1.0000000000  -999.250000
 1759.9500000 5.1162919998 1.0000000000  -999.250000
 1760.0000000 3.2382996082 1.0000000000  -999.250000
 1760.0500000 1.9693211317 1.0000000000  -999.250000
 1760.1000000 0.0010000000 0.0000000000  -999.250000
 1760.1500000 0.0010000000 0.0000000000  -999.250000
 1760.2000000 0.0010000000 0.0000000000  -999.250000
 1760.2500000 0.0010000000 0.0000000000  -999.250000
 1760.3000000 0.0010000000 0.0000000000  -999.250000
 1760.3500000 0.0010000000 0.0000000000  -999.250000
 1760.4000000 0.0010000000 0.0000000000  -999.250000
 1760.4500000 0.0010000000 0.0000000000  -999.250000
 1760.5000000 0.0010000000 0.0000000000  -999.250000
 1760.5500000 0.0010000000 0.0000000000  -999.250000
 1760.6000000 0.0010000000 0.0000000000  -999.250000
 1760.6500000 0.0010000000 0.0000000000  -999.250000
 1760.7000000 0.0010000000 0.0000000000  -999.250000
 1760.7500000 0.0010000000 0.0000000000  -999.250000
 1760.8000000 0.0010000000 0.0000000000  -999.250000
 1760.8500000 0.0010000000 0.0000000000  -999.250000
 1760.9000000 0.0010000000 0.0000000000  -999.250000
 1760.9500000 0.0010000000 0.0000000000  -999.250000
