# LAS format log file from PETREL
# Project units are specified as depth units
#==================================================================
~Version information
VERS.   2.0:
WRAP.   NO:
#==================================================================
~Well
STRT .m      1550.0999800 :
STOP .m      1724.9999800 :
STEP .m     0.30000000 :
NULL .        -999.250000 :
COMP.           : COMPANY
WELL.  C_IPE   : WELL
FLD.            : FIELD
LOC.            : LOCATION
SRVC.           : SERVICE COMPANY
DATE.  Friday, March 30 2012 17:03:54   : DATE
PROV.           : PROVINCE
UWI.      : UNIQUE WELL ID
API.            : API NUMBER
#==================================================================
~Curve
DEPT .m                   : DEPTH
Permeability*** .mD       : Permeability ***
NTG*** .                  : NTG ***
PORDENS268*** .m3/m3      : POR DENS 268 ***
~Parameter
#==================================================================
~Ascii
# ...
 1640.6999800 50.236450195 1.0000000000 0.1726000011
 1640.9999800 42.569702148 1.0000000000 0.1667000055
 1641.2999800 0.1461396366 1.0000000000 0.1429096907
 1641.5999800 0.0001633136 1.0000000000 0.1309999973
 1641.8999800 0.0065476238 1.0000000000 0.1250000000
 1642.1999800 0.0010000000 0.0000000000 0.1011999995
 1642.4999800 0.0010000000 0.0000000000 0.0892999992
 1642.7999800 0.0010000000 0.0000000000 0.0892999992
 1643.0999800 0.0000001220 1.0000000000 0.1250000000
 1643.3999800 0.3121575117 1.0000000000 0.1488000005
 1643.6999800 0.1779473275 1.0000000000 0.1429000050
 1643.9999800 62.405158997 1.0000000000 0.1726000011
 1644.2999800 194.56196594 1.0000000000 0.2082854658
 1644.5999800 278.76715088 1.0000000000 0.2202000022
 1644.8999800 379.02783203 1.0000000000 0.2320999950
 1645.1999800 148.08947754 1.0000000000 0.1964000016
 1645.4999800 164.70043945 1.0000000000 0.2023999989
 1645.7999800 270.75827026 1.0000000000 0.2201927602
 1646.0999800 202.03106689 1.0000000000 0.2082999945
 1646.3999800 95.198165894 1.0000000000 0.2143000066
 1646.6999800 3.5229845047 1.0000000000 0.1785999984
 1646.9999800 0.0369524769 1.0000000000 0.1547999978
 1647.2999800 164.70043945 1.0000000000 0.2023806274
 1647.5999800 254.16189575 1.0000000000 0.2143000066
 1647.8999800 718.55694580 1.0000000000 0.2560000122
 1648.1999800 1297.4770508 1.0000000000 0.2856999934
 1648.4999800 936.66992188 1.0000000000 0.2797999978
 1648.7999800 489.74810791 1.0000000000 0.2619072795
 1649.0999800 414.73803711 1.0000000000 0.2381000072
 1649.3999800 262.11560059 1.0000000000 0.2143000066
 1649.6999800 52.836853027 1.0000000000 0.1964000016
 1649.9999800 0.1446883827 1.0000000000 0.1785999984
 1650.2999800 222.94239807 1.0000000000 0.2082879096
 1650.5999800 306.25729370 1.0000000000 0.2202000022
 1650.8999800 401.39132690 1.0000000000 0.2320999950
 1651.1999800 170.07626343 1.0000000000 0.2023999989
 1651.4999800 33.174976349 1.0000000000 0.1844999939
 1651.7999800 98.382736206 1.0000000000 0.1844999939
 1652.0999800 0.6195123792 1.0000000000 0.1011999995
 1652.3999800 1.8820053339 1.0000000000 0.1130999997
 1652.6999800 153.29187012 1.0000000000 0.1964000016
 1652.9999800 158.64019775 1.0000000000 0.1964000016
 1653.2999800 5.3274397850 1.0000000000 0.1607145220
 1653.5999800 16.790323257 1.0000000000 0.1606999934
 1653.8999800 98.382736206 1.0000000000 0.1844999939
 1654.1999800 58.956123352 1.0000000000 0.1726000011
 1654.4999800 0.2225476056 1.0000000000 0.1488000005
 1654.7999800 19.793910980 1.0000000000 0.1844854653
 1655.0999800 548.34301758 1.0000000000 0.2440000027
 1655.3999800 579.94226074 1.0000000000 0.2500000000
 1655.6999800 476.79998779 1.0000000000 0.2381000072
 1655.9999800 16.399618149 1.0000000000 0.1905000061
 1656.2999800 53.044185638 1.0000000000 0.1845024377
 1656.5999800 176.18647766 1.0000000000 0.2023999989
 1656.8999800 3.6879920959 1.0000000000 0.1844999939
 1657.1999800 5.7949442863 1.0000000000 0.1785999984
 1657.4999800 367.69039917 1.0000000000 0.2320999950
 1657.7999800 31.427196503 1.0000000000 0.1964145303
 1658.0999800 0.3646677434 1.0000000000 0.1547999978
 1658.3999800 22.381069183 1.0000000000 0.1844999939
 1658.6999800 36.108436584 1.0000000000 0.1726000011
 1658.9999800 114.49113464 1.0000000000 0.1905000061
 1659.2999800 253.69619751 1.0000000000 0.2142903209
 1659.5999800 208.70439148 1.0000000000 0.2082999945
 1659.8999800 158.64019775 1.0000000000 0.1964000016
 1660.1999800 306.25729370 1.0000000000 0.2202000022
 1660.4999800 332.07247925 1.0000000000 0.2261999995
 1660.7999800 450.46231079 1.0000000000 0.2380951643
 1661.0999800 401.39132690 1.0000000000 0.2320999950
 1661.3999800 110.38056183 1.0000000000 0.1905000061
 1661.6999800 378.47735596 1.0000000000 0.2320999950
 1661.9999800 381.23641968 1.0000000000 0.2381000072
 1662.2999800 672.05352783 1.0000000000 0.2559927404
 1662.5999800 779.51043701 1.0000000000 0.2737999856
 1662.8999800 947.74700928 1.0000000000 0.2678999901
 1663.1999800 518.97082520 1.0000000000 0.2440000027
 1663.4999800 389.51727295 1.0000000000 0.2320999950
 1663.7999800 28.507059097 1.0000000000 0.2083096802
 1664.0999800 17.985361099 1.0000000000 0.1844999939
 1664.3999800 215.20429993 1.0000000000 0.2082999945
 1664.6999800 278.76715088 1.0000000000 0.2202000022
 1664.9999800 424.70349121 1.0000000000 0.2381000072
 1665.2999800 315.49380493 1.0000000000 0.2262048423
 1665.5999800 74.255798340 1.0000000000 0.1785999984
 1665.8999800 0.6388587952 1.0000000000 0.1368999928
 1666.1999800 0.2799050212 1.0000000000 0.1429000050
 1666.4999800 0.0000000000 1.0000000000 0.1368999928
 1666.7999800 3.2532021999 1.0000000000 0.1368999928
 1667.0999800 52.836853027 1.0000000000 0.1667000055
 1667.3999800 19.337444305 1.0000000000 0.1429000050
 1667.6999800 6.0607881546 1.0000000000 0.1309999973
 1667.9999800 105.56605530 1.0000000000 0.1844999939
 1668.2999800 244.33258057 1.0000000000 0.2142878771
 1668.5999800 207.28794861 1.0000000000 0.2082999945
 1668.8999800 22.904592514 1.0000000000 0.1667000055
 1669.1999800 16.209583282 1.0000000000 0.1726000011
 1669.4999800 0.7289416790 1.0000000000 0.1488000005
 1669.7999800 0.6452521086 1.0000000000 0.1429024041
 1670.0999800 19.564538956 1.0000000000 0.1606999934
 1670.3999800 18.088424683 1.0000000000 0.1547999978
 1670.6999800 1.0175359249 1.0000000000 0.1250000000
 1670.9999800 1.4547216892 1.0000000000 0.1130999997
 1671.2999800 0.0087267458 1.0000000000 0.0952072814
 1671.5999800 20.078020096 1.0000000000 0.1429000050
 1671.8999800 31.813213348 1.0000000000 0.1547999978
 1672.1999800 2.9158327579 1.0000000000 0.1547999978
 1672.4999800 3.5315172672 1.0000000000 0.1667000055
 1672.7999800 12.631798744 1.0000000000 0.1785951555
 1673.0999800 546.12261963 1.0000000000 0.2440000027
 1673.3999800 64.035621643 1.0000000000 0.2023999989
 1673.6999800 303.79031372 1.0000000000 0.2202000022
 1673.9999800 101.14381409 1.0000000000 0.1844999939
 1674.2999800 0.2899947464 1.0000000000 0.1071314886
 1674.5999800 0.0006087207 1.0000000000 0.0892999992
 1674.8999800 0.0000204339 1.0000000000 0.1011999995
 1675.1999800 0.8272776604 1.0000000000 0.1368999928
 1675.4999800 0.0000000000 1.0000000000 0.1250000000
 1675.7999800 0.0010000000 0.0000000000 0.0952121243
 1676.0999800 0.0000000000 1.0000000000 0.1130999997
 1676.3999800 0.0000000000 1.0000000000 0.1130999997
 1676.6999800 0.0031727019 1.0000000000 0.1190999970
 1676.9999800 98.196739197 1.0000000000 0.1844999939
 1677.2999800 706.05175781 1.0000000000 0.2559709251
 1677.5999800 673.65594482 1.0000000000 0.2560000122
 1677.8999800 180.54246521 1.0000000000 0.2023999989
 1678.1999800 259.60040283 1.0000000000 0.2143000066
 1678.4999800 575.94628906 1.0000000000 0.2500000000
 1678.7999800 416.02279663 1.0000000000 0.2381048501
 1679.0999800 295.28152466 1.0000000000 0.2202000022
 1679.3999800 16.882564545 1.0000000000 0.1785999984
 1679.6999800 87.146919250 1.0000000000 0.1964000016
 1679.9999800 168.87495422 1.0000000000 0.2023999989
 1680.2999800 30.279685974 1.0000000000 0.1548193693
 1680.5999800 6.1634311676 1.0000000000 0.1190999970
 1680.8999800 22.221216202 1.0000000000 0.1429000050
 1681.1999800 0.0010000000 0.0000000000 0.0833000019
 1681.4999800 0.0010000000 0.0000000000 0.0535999984
 1681.7999800 0.0010000000 0.0000000000 0.0594976023
 1682.0999800 0.0010000000 0.0000000000 0.0595000014
 1682.3999800 0.0010000000 0.0000000000 0.0535999984
 1682.6999800 0.0010000000 0.0000000000 0.0535999984
 1682.9999800 0.0010000000 0.0000000000 0.0535999984
 1683.2999800 0.0010000000 0.0000000000 0.0654951558
 1683.5999800 0.0010000000 0.0000000000 0.0773999989
 1683.8999800 0.0010000000 0.0000000000 0.0833000019
 1684.1999800 0.6238225698 1.0000000000 0.1606999934
 1684.4999800 182.31909180 1.0000000000 0.2082999945
 1684.7999800 0.0566170886 1.0000000000 0.1726145297
 1685.0999800 0.0029479477 1.0000000000 0.1667000055
 1685.3999800 30.581527710 1.0000000000 0.2143000066
 1685.6999800 250.52159119 1.0000000000 0.2440000027
