# LAS format log file from PETREL
# Project units are specified as depth units
#==================================================================
~Version information
VERS.   2.0:
WRAP.   NO:
#==================================================================
~Well
STRT .m      1605.0999800 :
STOP .m      1769.9999800 :
STEP .m     0.10000000 :
NULL .        -999.250000 :
COMP.           : COMPANY
WELL.  E_IPE   : WELL
FLD.            : FIELD
LOC.            : LOCATION
SRVC.           : SERVICE COMPANY
DATE.  Friday, March 30 2012 17:04:18   : DATE
PROV.           : PROVINCE
UWI.      : UNIQUE WELL ID
API.            : API NUMBER
#==================================================================
~Curve
DEPT .m                   : DEPTH
Permeability*** .mD       : Permeability ***
NTG*** .                  : NTG ***
PORDENS268*** .m3/m3      : POR DENS 268 ***
~Parameter
#==================================================================
~Ascii
# ...
 1710.7999800 107.85159302 1.0000000000 0.1845218241
 1710.8999800 50.981796265 1.0000000000 0.1667000055
 1710.9999800 19.543743134 1.0000000000 0.1429000050
 1711.0999800 7.0925049782 1.0000000000 0.1190999970
 1711.1999800 2.0864212513 1.0000000000 0.1011999995
 1711.2999800 0.7551224232 1.0000000000 0.0893145129
 1711.3999800 0.2263537347 1.0000000000 0.0773999989
 1711.4999800 0.1408780813 1.0000000000 0.0714000016
 1711.5999800 0.0277754255 1.0000000000 0.0714000016
 1711.6999800 0.0485164970 1.0000000000 0.0714000016
 1711.7999800 0.0563506335 1.0000000000 0.0773926824
 1711.8999800 0.0923990458 1.0000000000 0.0773999989
 1711.9999800 0.1548707336 1.0000000000 0.0833000019
 1712.0999800 0.4723323286 1.0000000000 0.0952000022
 1712.1999800 1.7379781008 1.0000000000 0.1130999997
 1712.2999800 6.6897921562 1.0000000000 0.1368709654
 1712.3999800 35.149005890 1.0000000000 0.1547999978
 1712.4999800 55.720958710 1.0000000000 0.1667000055
 1712.5999800 64.863533020 1.0000000000 0.1726000011
 1712.6999800 63.488414764 1.0000000000 0.1726000011
 1712.7999800 63.488414764 1.0000000000 0.1726000011
 1712.8999800 63.488414764 1.0000000000 0.1726000011
 1712.9999800 64.863533020 1.0000000000 0.1726000011
 1713.0999800 72.103973389 1.0000000000 0.1726000011
 1713.1999800 76.750991821 1.0000000000 0.1785999984
 1713.2999800 81.635528564 1.0000000000 0.1785999984
 1713.3999800 78.352294922 1.0000000000 0.1785999984
 1713.4999800 76.750991821 1.0000000000 0.1785999984
 1713.5999800 62.136840820 1.0000000000 0.1726000011
 1713.6999800 48.736858368 1.0000000000 0.1667000055
 1713.7999800 34.309856415 1.0000000000 0.1548145115
 1713.8999800 28.159336090 1.0000000000 0.1488000005
 1713.9999800 26.769908905 1.0000000000 0.1488000005
 1714.0999800 31.112424850 1.0000000000 0.1547999978
 1714.1999800 37.766220093 1.0000000000 0.1547999978
 1714.2999800 44.485656738 1.0000000000 0.1606927961
 1714.3999800 53.308887482 1.0000000000 0.1667000055
 1714.4999800 58.220043182 1.0000000000 0.1667000055
 1714.5999800 63.488414764 1.0000000000 0.1726000011
 1714.6999800 67.685997009 1.0000000000 0.1726000011
 1714.7999800 85.028938293 1.0000000000 0.1785926819
 1714.8999800 112.09278870 1.0000000000 0.1905000061
 1714.9999800 159.48489380 1.0000000000 0.1964000016
 1715.0999800 196.90919495 1.0000000000 0.2082999945
 1715.1999800 193.54345703 1.0000000000 0.2082999945
 1715.2999800 143.05084229 1.0000000000 0.1964145154
 1715.3999800 88.534896851 1.0000000000 0.1785999984
 1715.4999800 53.308887482 1.0000000000 0.1667000055
 1715.5999800 20.870870590 1.0000000000 0.1606999934
 1715.6999800 23.703681946 1.0000000000 0.1606999934
 1715.7999800 75.175750732 1.0000000000 0.1785781682
 1715.8999800 137.88679504 1.0000000000 0.1964000016
 1715.9999800 225.56060791 1.0000000000 0.2082999945
 1716.0999800 279.19750977 1.0000000000 0.2202000022
 1716.1999800 237.13166809 1.0000000000 0.2143000066
 1716.2999800 118.70571136 1.0000000000 0.1905290335
 1716.3999800 33.486701965 1.0000000000 0.1547999978
 1716.4999800 1.9576139450 1.0000000000 0.1130999997
 1716.5999800 0.0010000000 0.0000000000 0.0773999989
 1716.6999800 0.0010000000 0.0000000000 0.0595000014
 1716.7999800 0.0010000000 0.0000000000 0.0536071919
 1716.8999800 0.0010000000 0.0000000000 0.0595000014
 1716.9999800 0.0010000000 0.0000000000 0.0714000016
 1717.0999800 0.0384599157 1.0000000000 0.0714000016
 1717.1999800 0.0277754255 1.0000000000 0.0714000016
 1717.2999800 0.0010000000 0.0000000000 0.0595145151
 1717.3999800 0.0010000000 0.0000000000 0.0595000014
 1717.4999800 0.0010000000 0.0000000000 0.0595000014
 1717.5999800 0.0010000000 0.0000000000 0.0654999986
 1717.6999800 0.0651946440 1.0000000000 0.0773999989
 1717.7999800 0.1283080727 1.0000000000 0.0832928047
 1717.8999800 0.1367106289 1.0000000000 0.0833000019
 1717.9999800 0.1127765849 1.0000000000 0.0833000019
 1718.0999800 0.0010000000 0.0000000000 0.0773999989
 1718.1999800 0.0010000000 0.0000000000 0.0714000016
 1718.2999800 0.0010000000 0.0000000000 0.0773926824
 1718.3999800 0.1056097448 1.0000000000 0.0773999989
 1718.4999800 0.1749706119 1.0000000000 0.0833000019
 1718.5999800 0.2629432678 1.0000000000 0.0892999992
 1718.6999800 0.3103951514 1.0000000000 0.0892999992
 1718.7999800 0.2629432678 1.0000000000 0.0892999992
 1718.8999800 0.2091009766 1.0000000000 0.0892999992
 1718.9999800 0.1283080727 1.0000000000 0.0833000019
 1719.0999800 0.1203365251 1.0000000000 0.0833000019
 1719.1999800 0.1455580741 1.0000000000 0.0833000019
 1719.2999800 0.2485222965 1.0000000000 0.0892926827
 1719.3999800 0.4265105128 1.0000000000 0.0952000022
 1719.4999800 0.8403857946 1.0000000000 0.1011999995
 1719.5999800 1.0979368687 1.0000000000 0.1071000025
 1719.6999800 0.9620977044 1.0000000000 0.1071000025
 1719.7999800 0.4723323286 1.0000000000 0.0952145159
 1719.8999800 0.1283080727 1.0000000000 0.0833000019
 1719.9999800 0.0010000000 0.0000000000 0.0654999986
 1720.0999800 0.0010000000 0.0000000000 0.0535999984
 1720.1999800 0.0010000000 0.0000000000 0.0417000018
 1720.2999800 0.0010000000 0.0000000000 0.0417000018
 1720.3999800 0.0010000000 0.0000000000 0.0476000011
 1720.4999800 0.0010000000 0.0000000000 0.0654999986
 1720.5999800 0.4967218637 1.0000000000 0.0952000022
 1720.6999800 4.5214495659 1.0000000000 0.1309999973
 1720.7999800 38.672557831 1.0000000000 0.1606637686
 1720.8999800 72.103973389 1.0000000000 0.1726000011
 1720.9999800 76.750991821 1.0000000000 0.1785999984
 1721.0999800 54.504333496 1.0000000000 0.1667000055
 1721.1999800 29.606363297 1.0000000000 0.1488000005
 1721.2999800 17.519712448 1.0000000000 0.1369145066
 1721.3999800 11.718008995 1.0000000000 0.1309999973
 1721.4999800 10.382822990 1.0000000000 0.1309999973
 1721.5999800 9.1728286743 1.0000000000 0.1250000000
 1721.6999800 8.8888320923 1.0000000000 0.1250000000
 1721.7999800 6.2053036690 1.0000000000 0.1191071942
 1721.8999800 1.7379781008 1.0000000000 0.1130999997
 1721.9999800 0.8027518392 1.0000000000 0.1011999995
 1722.0999800 0.4967218637 1.0000000000 0.0952000022
 1722.1999800 0.2629432678 1.0000000000 0.0892999992
 1722.2999800 0.1857949942 1.0000000000 0.0833073184
 1722.3999800 0.1283080727 1.0000000000 0.0833000019
 1722.4999800 0.1455580741 1.0000000000 0.0833000019
 1722.5999800 0.1455580741 1.0000000000 0.0833000019
 1722.6999800 0.1548707336 1.0000000000 0.0833000019
 1722.7999800 0.1455580741 1.0000000000 0.0833000019
 1722.8999800 0.1857949942 1.0000000000 0.0833000019
 1722.9999800 0.2216228247 1.0000000000 0.0892999992
 1723.0999800 0.2780450583 1.0000000000 0.0892999992
 1723.1999800 1.0170820951 1.0000000000 0.0952000022
 1723.2999800 1.2872430086 1.0000000000 0.0952000022
 1723.3999800 1.4752162695 1.0000000000 0.0952000022
 1723.4999800 0.5485984087 1.0000000000 0.0952000022
 1723.5999800 0.4967218637 1.0000000000 0.0952000022
 1723.6999800 0.4489411712 1.0000000000 0.0952000022
 1723.7999800 0.5485984087 1.0000000000 0.0952000022
 1723.8999800 0.8027518392 1.0000000000 0.1011999995
 1723.9999800 2.8865492344 1.0000000000 0.1071000025
 1724.0999800 3.6352322102 1.0000000000 0.1130999997
 1724.1999800 2.8865492344 1.0000000000 0.1071000025
 1724.2999800 0.7665056586 1.0000000000 0.1012071967
 1724.3999800 0.3646691144 1.0000000000 0.0952000022
 1724.4999800 0.2216228247 1.0000000000 0.0892999992
 1724.5999800 0.1203365251 1.0000000000 0.0833000019
 1724.6999800 0.0988230929 1.0000000000 0.0773999989
 1724.7999800 0.0751500651 1.0000000000 0.0773999989
 1724.8999800 0.0805764720 1.0000000000 0.0773999989
 1724.9999800 0.0751500651 1.0000000000 0.0773999989
 1725.0999800 0.0923990458 1.0000000000 0.0773999989
 1725.1999800 0.1203365251 1.0000000000 0.0833000019
 1725.2999800 0.1971637309 1.0000000000 0.0833000019
 1725.3999800 0.3103951514 1.0000000000 0.0892999992
 1725.4999800 0.4723323286 1.0000000000 0.0952000022
 1725.5999800 0.6347061396 1.0000000000 0.1011999995
 1725.6999800 0.8403857946 1.0000000000 0.1011999995
 1725.7999800 0.8794577718 1.0000000000 0.1011999995
