# LAS format log file from PETREL
# Project units are specified as depth units
#==================================================================
~Version information
VERS.   2.0:
WRAP.   NO:
#==================================================================
~Well
STRT .m      1555.0999800 :
STOP .m      1749.8999800 :
STEP .m     0.10000000 :
NULL .        -999.250000 :
COMP.           : COMPANY
WELL.  F_IPE   : WELL
FLD.            : FIELD
LOC.            : LOCATION
SRVC.           : SERVICE COMPANY
DATE.  Friday, March 30 2012 17:04:30   : DATE
PROV.           : PROVINCE
UWI.      : UNIQUE WELL ID
API.            : API NUMBER
#==================================================================
~Curve
DEPT .m                   : DEPTH
Permeability*** .mD       : Permeability ***
NTG*** .                  : NTG ***
PORDENS268*** .m3/m3      : POR DENS 268 ***
~Parameter
#==================================================================
~Ascii
# ...
 1706.0999800 174.31083679 1.0000000000 0.2023999989
 1706.1999800 168.25289917 1.0000000000 0.2023999989
 1706.2999800 162.36547852 1.0000000000 0.2023999989
 1706.3999800 120.97879028 1.0000000000 0.1905000061
 1706.4999800 85.028938293 1.0000000000 0.1785999984
 1706.5999800 31.058900833 1.0000000000 0.1667000055
 1706.6999800 31.058900833 1.0000000000 0.1667000055
 1706.7999800 36.646781921 1.0000000000 0.1725928038
 1706.8999800 78.352294922 1.0000000000 0.1785999984
 1706.9999800 99.755828857 1.0000000000 0.1844999939
 1707.0999800 112.09278870 1.0000000000 0.1905000061
 1707.1999800 125.62887573 1.0000000000 0.1905000061
 1707.2999800 153.84704590 1.0000000000 0.1963928044
 1707.3999800 171.25996399 1.0000000000 0.2023999989
 1707.4999800 190.22494507 1.0000000000 0.2023999989
 1707.5999800 292.92321777 1.0000000000 0.2202000022
 1707.6999800 274.73941040 1.0000000000 0.2202000022
 1707.7999800 257.47473145 1.0000000000 0.2143072039
 1707.8999800 297.61679077 1.0000000000 0.2202000022
 1707.9999800 195.22088623 1.0000000000 0.2082999945
 1708.0999800 123.28620148 1.0000000000 0.1905000061
 1708.1999800 21.181861877 1.0000000000 0.1429000050
 1708.2999800 12.252970695 1.0000000000 0.1310145110
 1708.3999800 2.8608293533 1.0000000000 0.1190999970
 1708.4999800 0.8995463252 1.0000000000 0.1011999995
 1708.5999800 0.2091009766 1.0000000000 0.0892999992
 1708.6999800 0.1283080727 1.0000000000 0.0833000019
 1708.7999800 0.3945926428 1.0000000000 0.0951854885
 1708.8999800 1.0057438612 1.0000000000 0.1071000025
 1708.9999800 4.8358426094 1.0000000000 0.1309999973
 1709.0999800 16.115249634 1.0000000000 0.1368999928
 1709.1999800 23.535940170 1.0000000000 0.1488000005
 1709.2999800 31.888410568 1.0000000000 0.1547926813
 1709.3999800 41.015361786 1.0000000000 0.1606999934
 1709.4999800 52.134899139 1.0000000000 0.1667000055
 1709.5999800 109.95574188 1.0000000000 0.1844999939
 1709.6999800 139.16351318 1.0000000000 0.1964000016
 1709.7999800 174.31083679 1.0000000000 0.2023926824
 1709.8999800 292.92321777 1.0000000000 0.2202000022
 1709.9999800 332.19561768 1.0000000000 0.2261999995
 1710.0999800 375.59759521 1.0000000000 0.2320999950
 1710.1999800 241.09271240 1.0000000000 0.2143000066
 1710.2999800 191.87843323 1.0000000000 0.2083073109
 1710.3999800 151.08822632 1.0000000000 0.1964000016
 1710.4999800 75.175750732 1.0000000000 0.1785999984
 1710.5999800 50.412986755 1.0000000000 0.1667000055
 1710.6999800 32.679698944 1.0000000000 0.1547999978
 1710.7999800 22.928653717 1.0000000000 0.1429145187
 1710.8999800 19.543743134 1.0000000000 0.1429000050
 1710.9999800 16.572908401 1.0000000000 0.1368999928
 1711.0999800 12.072541237 1.0000000000 0.1309999973
 1711.1999800 8.6118869781 1.0000000000 0.1250000000
 1711.2999800 2.1995646954 1.0000000000 0.1191071942
 1711.3999800 0.9620977044 1.0000000000 0.1071000025
 1711.4999800 0.8403857946 1.0000000000 0.1011999995
 1711.5999800 0.7316235900 1.0000000000 0.1011999995
 1711.6999800 0.8794577718 1.0000000000 0.1011999995
 1711.7999800 1.0510044098 1.0000000000 0.1070928052
 1711.8999800 3.3067421913 1.0000000000 0.1250000000
 1711.9999800 4.3706903458 1.0000000000 0.1250000000
 1712.0999800 5.7011070251 1.0000000000 0.1309999973
 1712.1999800 10.844885826 1.0000000000 0.1429000050
 1712.2999800 11.162454605 1.0000000000 0.1429000050
 1712.3999800 11.487547874 1.0000000000 0.1488000005
 1712.4999800 11.487547874 1.0000000000 0.1488000005
 1712.5999800 33.486701965 1.0000000000 0.1547999978
 1712.6999800 46.572380066 1.0000000000 0.1606999934
 1712.7999800 33.486701965 1.0000000000 0.1548071951
 1712.8999800 26.096023560 1.0000000000 0.1488000005
 1712.9999800 20.077989578 1.0000000000 0.1429000050
 1713.0999800 14.384991646 1.0000000000 0.1368999928
 1713.1999800 5.1679425240 1.0000000000 0.1309999973
 1713.2999800 3.9429564476 1.0000000000 0.1250073165
 1713.3999800 4.5214495659 1.0000000000 0.1309999973
 1713.4999800 5.8885416985 1.0000000000 0.1309999973
 1713.5999800 16.115249634 1.0000000000 0.1368999928
 1713.6999800 16.115249634 1.0000000000 0.1368999928
 1713.7999800 6.0810580254 1.0000000000 0.1310071945
 1713.8999800 4.8358426094 1.0000000000 0.1309999973
 1713.9999800 2.3741021156 1.0000000000 0.1190999970
 1714.0999800 0.9837218523 1.0000000000 0.1071000025
 1714.1999800 0.3457719982 1.0000000000 0.0892999992
 1714.2999800 0.6980568171 1.0000000000 0.1011854857
 1714.3999800 0.8213917017 1.0000000000 0.1011999995
 1714.4999800 0.9620977044 1.0000000000 0.1071000025
 1714.5999800 1.5390118361 1.0000000000 0.1130999997
 1714.6999800 2.3741021156 1.0000000000 0.1190999970
 1714.7999800 14.802800179 1.0000000000 0.1368782818
 1714.8999800 17.519712448 1.0000000000 0.1368999928
 1714.9999800 20.624052048 1.0000000000 0.1429000050
 1715.0999800 29.606363297 1.0000000000 0.1488000005
 1715.1999800 34.309856415 1.0000000000 0.1547999978
 1715.2999800 39.596305847 1.0000000000 0.1606927961
 1715.3999800 36.877048492 1.0000000000 0.1547999978
 1715.4999800 54.504333496 1.0000000000 0.1667000055
 1715.5999800 78.352294922 1.0000000000 0.1785999984
 1715.6999800 48.736858368 1.0000000000 0.1667000055
 1715.7999800 48.736858368 1.0000000000 0.1667000055
 1715.8999800 48.736858368 1.0000000000 0.1667000055
 1715.9999800 88.534896851 1.0000000000 0.1785999984
 1716.0999800 98.778823853 1.0000000000 0.1844999939
 1716.1999800 109.95574188 1.0000000000 0.1844999939
 1716.2999800 97.809982300 1.0000000000 0.1844999939
 1716.3999800 94.010772705 1.0000000000 0.1844999939
 1716.4999800 90.330734253 1.0000000000 0.1785999984
 1716.5999800 70.606063843 1.0000000000 0.1726000011
 1716.6999800 72.103973389 1.0000000000 0.1726000011
 1716.7999800 73.626976013 1.0000000000 0.1726000011
 1716.8999800 90.330734253 1.0000000000 0.1785999984
 1716.9999800 95.895248413 1.0000000000 0.1844999939
 1717.0999800 101.73220825 1.0000000000 0.1844999939
 1717.1999800 90.330734253 1.0000000000 0.1785999984
 1717.2999800 62.136840820 1.0000000000 0.1726073176
 1717.3999800 41.497287750 1.0000000000 0.1606999934
 1717.4999800 31.498588562 1.0000000000 0.1547999978
 1717.5999800 23.535940170 1.0000000000 0.1488000005
 1717.6999800 2.9673650265 1.0000000000 0.1190999970
 1717.7999800 3.1902573109 1.0000000000 0.1249928027
 1717.8999800 5.8885416985 1.0000000000 0.1309999973
 1717.9999800 21.181861877 1.0000000000 0.1429000050
 1718.0999800 25.764316559 1.0000000000 0.1488000005
 1718.1999800 31.112424850 1.0000000000 0.1547999978
 1718.2999800 43.471000671 1.0000000000 0.1606927961
 1718.3999800 53.308887482 1.0000000000 0.1667000055
 1718.4999800 64.863533020 1.0000000000 0.1726000011
 1718.5999800 88.534896851 1.0000000000 0.1785999984
 1718.6999800 101.73220825 1.0000000000 0.1844999939
 1718.7999800 116.46764374 1.0000000000 0.1904926896
 1718.8999800 156.64556885 1.0000000000 0.1964000016
 1718.9999800 185.33311462 1.0000000000 0.2023999989
 1719.0999800 218.10276794 1.0000000000 0.2082999945
 1719.1999800 196.90919495 1.0000000000 0.2082999945
 1719.2999800 171.25996399 1.0000000000 0.2024071962
 1719.3999800 148.36997986 1.0000000000 0.1964000016
 1719.4999800 81.635528564 1.0000000000 0.1785999984
 1719.5999800 58.220043182 1.0000000000 0.1667000055
 1719.6999800 40.537948608 1.0000000000 0.1606999934
 1719.7999800 26.769908905 1.0000000000 0.1488145143
 1719.8999800 9.6480722427 1.0000000000 0.1429000050
 1719.9999800 6.9034733772 1.0000000000 0.1368999928
 1720.0999800 4.0815162659 1.0000000000 0.1250000000
 1720.1999800 2.7574574947 1.0000000000 0.1190999970
 1720.2999800 1.8088083267 1.0000000000 0.1131073162
 1720.3999800 0.4050042331 1.0000000000 0.0952000022
 1720.4999800 0.0010000000 0.0000000000 0.0892999992
 1720.5999800 0.0010000000 0.0000000000 0.0833000019
 1720.6999800 0.0010000000 0.0000000000 0.0714000016
 1720.7999800 0.0010000000 0.0000000000 0.0714000016
 1720.8999800 0.0010000000 0.0000000000 0.0654999986
 1720.9999800 0.0010000000 0.0000000000 0.0773999989
 1721.0999800 0.0010000000 0.0000000000 0.0833000019
