# LAS format log file from PETREL
# Project units are specified as depth units
#==================================================================
~Version information
VERS.   2.0:
WRAP.   NO:
#==================================================================
~Well
STRT .m      1550.0000000 :
STOP .m      1779.8000000 :
STEP .m     0.30000000 :
NULL .        -999.250000 :
COMP.           : COMPANY
WELL.  D_IPE   : WELL
FLD.            : FIELD
LOC.            : LOCATION
SRVC.           : SERVICE COMPANY
DATE.  Friday, March 30 2012 17:04:05   : DATE
PROV.           : PROVINCE
UWI.      : UNIQUE WELL ID
API.            : API NUMBER
#==================================================================
~Curve
DEPT .m                   : DEPTH
Permeability*** .mD       : Permeability ***
NTG*** .                  : NTG ***
PORDENS268*** .m3/m3      : POR DENS 268 ***
~Parameter
#==================================================================
~Ascii
 1550.0000000 0.0010000000 1.0000000000  -999.250000
 1550.3000000 0.0010000000 1.0000000000  -999.250000
 1550.6000000 0.0010000000 1.0000000000  -999.250000
 1550.9000000 0.0010000000 1.0000000000  -999.250000
 1551.2000000 0.0010000000 1.0000000000  -999.250000
 1551.5000000 0.0010000000 1.0000000000  -999.250000
 1551.8000000 0.0010000000 1.0000000000  -999.250000
 1552.1000000 0.0010000000 1.0000000000  -999.250000
 1552.4000000 0.0010000000 1.0000000000  -999.250000
 1552.7000000 0.0010000000 1.0000000000  -999.250000
 1553.0000000 0.0010000000 1.0000000000  -999.250000
 1553.3000000 0.0010000000 1.0000000000  -999.250000
 1553.6000000 0.0010000000 1.0000000000  -999.250000
 1553.9000000 0.0010000000 1.0000000000  -999.250000
 1554.2000000 0.0010000000 1.0000000000  -999.250000
 1554.5000000 0.0010000000 0.0000000000 0.0654999986
 1554.8000000 0.0010000000 0.0000000000 0.0773999989
 1555.1000000 0.0010000000 0.0000000000 0.0892999992
 1555.4000000 0.0010000000 0.0000000000 0.0892999992
 1555.7000000 0.0010000000 0.0000000000 0.0892999992
 1556.0000000 0.0010000000 0.0000000000 0.0654999986
 1556.3000000 0.0010000000 0.0000000000 0.0714000016
 1556.6000000 0.0010000000 0.0000000000 0.0892999992
 1556.9000000 0.0010000000 0.0000000000 0.0892999992
 1557.2000000 0.0010000000 0.0000000000 0.0773999989
 1557.5000000 0.0010000000 0.0000000000 0.0714000016
 1557.8000000 0.0010000000 0.0000000000 0.0833000019
 1558.1000000 0.0010000000 0.0000000000 0.0833000019
 1558.4000000 0.0010000000 0.0000000000 0.0952000022
 1558.7000000 0.0010000000 0.0000000000 0.0892999992
 1559.0000000 0.0010000000 0.0000000000 0.0773999989
 1559.3000000 0.0010000000 0.0000000000 0.0714000016
 1559.6000000 0.0010000000 0.0000000000 0.0773999989
 1559.9000000 0.0010000000 0.0000000000 0.0892999992
 1560.2000000 0.0010000000 0.0000000000 0.0952000022
 1560.5000000 0.0010000000 0.0000000000 0.1011999995
 1560.8000000 0.0010000000 0.0000000000 0.1011999995
 1561.1000000 0.0010000000 0.0000000000 0.0892999992
 1561.4000000 0.0010000000 0.0000000000 0.0773999989
 1561.7000000 0.0010000000 0.0000000000 0.0833000019
 1562.0000000 0.0010000000 0.0000000000 0.0773999989
 1562.3000000 0.0010000000 0.0000000000 0.0535999984
 1562.6000000 0.0010000000 0.0000000000 0.0714000016
 1562.9000000 0.0010000000 0.0000000000 0.0833000019
 1563.2000000 0.0010000000 0.0000000000 0.0833000019
 1563.5000000 0.0010000000 0.0000000000 0.0714000016
 1563.8000000 0.0010000000 0.0000000000 0.0773999989
 1564.1000000 0.0010000000 0.0000000000 0.0773999989
 1564.4000000 0.0010000000 0.0000000000 0.0773999989
 1564.7000000 0.0010000000 0.0000000000 0.0714000016
 1565.0000000 0.0010000000 0.0000000000 0.0833000019
 1565.3000000 0.0010000000 0.0000000000 0.0892999992
 1565.6000000 0.0010000000 0.0000000000 0.0833000019
 1565.9000000 0.0010000000 0.0000000000 0.0892999992
 1566.2000000 0.0010000000 0.0000000000 0.0833000019
 1566.5000000 0.0010000000 0.0000000000 0.0952000022
 1566.8000000 0.0010000000 0.0000000000 0.0833000019
 1567.1000000 0.0010000000 0.0000000000 0.0952000022
 1567.4000000 0.0010000000 0.0000000000 0.0714000016
 1567.7000000 0.0010000000 0.0000000000 0.0654999986
 1568.0000000 0.0010000000 0.0000000000 0.0773999989
 1568.3000000 0.0010000000 0.0000000000 0.0892999992
 1568.6000000 0.0010000000 0.0000000000 0.0833000019
 1568.9000000 0.0010000000 0.0000000000 0.0833000019
 1569.2000000 0.0010000000 0.0000000000 0.0833000019
 1569.5000000 0.0010000000 0.0000000000 0.0892999992
 1569.8000000 0.0010000000 0.0000000000 0.0833000019
 1570.1000000 0.0010000000 0.0000000000 0.0892999992
 1570.4000000 0.0010000000 0.0000000000 0.0952000022
 1570.7000000 0.0010000000 0.0000000000 0.0833000019
 1571.0000000 0.0010000000 0.0000000000 0.0714000016
 1571.3000000 0.0010000000 0.0000000000 0.0833000019
 1571.6000000 0.0010000000 0.0000000000 0.0833000019
 1571.9000000 0.0010000000 0.0000000000 0.0833000019
 1572.2000000 0.0010000000 0.0000000000 0.0833000019
 1572.5000000 0.0010000000 0.0000000000 0.0892999992
 1572.8000000 0.0010000000 0.0000000000 0.0892999992
 1573.1000000 0.0010000000 0.0000000000 0.0773999989
 1573.4000000 0.0010000000 0.0000000000 0.0773999989
 1573.7000000 0.0010000000 0.0000000000 0.0773999989
 1574.0000000 0.0010000000 0.0000000000 0.0833000019
 1574.3000000 0.0010000000 0.0000000000 0.0773999989
 1574.6000000 0.0010000000 0.0000000000 0.0833000019
 1574.9000000 0.0010000000 0.0000000000 0.0892999992
 1575.2000000 0.0010000000 0.0000000000 0.0892999992
 1575.5000000 0.0010000000 0.0000000000 0.0773999989
 1575.8000000 0.0010000000 0.0000000000 0.0952000022
 1576.1000000 0.0010000000 0.0000000000 0.0952000022
 1576.4000000 0.0010000000 0.0000000000 0.0892999992
 1576.7000000 0.0010000000 0.0000000000 0.0892999992
 1577.0000000 0.0010000000 0.0000000000 0.0773999989
 1577.3000000 0.0010000000 0.0000000000 0.0773999989
 1577.6000000 0.0010000000 0.0000000000 0.0714000016
 1577.9000000 0.0010000000 0.0000000000 0.0714000016
 1578.2000000 0.0010000000 0.0000000000 0.0833000019
 1578.5000000 0.0010000000 0.0000000000 0.0892999992
 1578.8000000 0.0010000000 0.0000000000 0.0833000019
 1579.1000000 0.0010000000 0.0000000000 0.0833000019
 1579.4000000 0.0010000000 0.0000000000 0.0892999992
 1579.7000000 0.0010000000 0.0000000000 0.0952000022
 1580.0000000 0.0010000000 0.0000000000 0.0952000022
 1580.3000000 0.2659091055 1.0000000000 0.0892999992
 1580.6000000 0.0010000000 0.0000000000 0.0773999989
 1580.9000000 0.0010000000 0.0000000000 0.0833000019
 1581.2000000 0.0010000000 0.0000000000 0.0773999989
 1581.5000000 0.0010000000 0.0000000000 0.0773999989
 1581.8000000 0.0010000000 0.0000000000 0.0773999989
 1582.1000000 0.0010000000 0.0000000000 0.0773999989
 1582.4000000 0.0010000000 0.0000000000 0.0773999989
 1582.7000000 0.0010000000 0.0000000000 0.0833000019
 1583.0000000 0.0010000000 0.0000000000 0.0714000016
 1583.3000000 0.0010000000 0.0000000000 0.0714000016
 1583.6000000 0.0010000000 0.0000000000 0.0833000019
 1583.9000000 0.0010000000 0.0000000000 0.0773999989
 1584.2000000 0.0010000000 0.0000000000 0.0773999989
 1584.5000000 0.0010000000 0.0000000000 0.0654999986
 1584.8000000 0.0010000000 0.0000000000 0.0535999984
 1585.1000000 0.0010000000 0.0000000000 0.0595000014
 1585.4000000 0.5513085723 1.0000000000 0.0952000022
 1585.7000000 1.0057438612 1.0000000000 0.1071000025
 1586.0000000 0.0010000000 0.0000000000 0.1011999995
 1586.3000000 0.0010000000 0.0000000000 0.1011999995
 1586.6000000 0.8480856419 1.0000000000 0.1011999995
 1586.9000000 0.8874503970 1.0000000000 0.1011999995
 1587.2000000 0.4628619254 1.0000000000 0.0952000022
 1587.5000000 0.5540232062 1.0000000000 0.0952000022
 1587.8000000 0.0010000000 0.0000000000 0.0952000022
 1588.1000000 0.0010000000 0.0000000000 0.0833000019
 1588.4000000 0.0010000000 0.0000000000 0.1011999995
 1588.7000000 0.0010000000 0.0000000000 0.0833000019
 1589.0000000 0.0010000000 0.0000000000 0.1011999995
 1589.3000000 0.0010000000 0.0000000000 0.0892999992
 1589.6000000 0.0010000000 0.0000000000 0.0892999992
 1589.9000000 0.0010000000 0.0000000000 0.0833000019
 1590.2000000 0.0010000000 0.0000000000 0.0833000019
 1590.5000000 0.4917629659 1.0000000000 0.0952000022
 1590.8000000 0.9076885581 1.0000000000 0.1011999995
 1591.1000000 0.0010000000 0.0000000000 0.0892999992
 1591.4000000 0.0010000000 0.0000000000 0.0833000019
 1591.7000000 0.0010000000 0.0000000000 0.0892999992
 1592.0000000 0.0010000000 0.0000000000 0.0892999992
 1592.3000000 0.0010000000 0.0000000000 0.0714000016
 1592.6000000 0.0010000000 0.0000000000 0.0714000016
 1592.9000000 0.0010000000 0.0000000000 0.0833000019
 1593.2000000 0.0010000000 0.0000000000 0.0833000019
 1593.5000000 0.0010000000 0.0000000000 0.0892999992
 1593.8000000 0.9076885581 1.0000000000 0.1011999995
 1594.1000000 1.7944523096 1.0000000000 0.1130999997
 1594.4000000 0.0010000000 0.0000000000 0.1011999995
 1594.7000000 0.0010000000 0.0000000000 0.1011999995
 1595.0000000 1.6829726696 1.0000000000 0.1130999997
