# LAS format log file from PETREL
# Project units are specified as depth units
#==================================================================
~Version information
VERS.   2.0:
WRAP.   NO:
#==================================================================
~Well
STRT .m      1550.0999800 :
STOP .m      1724.9999800 :
STEP .m     0.30000000 :
NULL .        -999.250000 :
COMP.           : COMPANY
WELL.  C_IPE   : WELL
FLD.            : FIELD
LOC.            : LOCATION
SRVC.           : SERVICE COMPANY
DATE.  Friday, March 30 2012 17:03:54   : DATE
PROV.           : PROVINCE
UWI.      : UNIQUE WELL ID
API.            : API NUMBER
#==================================================================
~Curve
DEPT .m                   : DEPTH
Permeability*** .mD       : Permeability ***
NTG*** .                  : NTG ***
PORDENS268*** .m3/m3      : POR DENS 268 ***
~Parameter
#==================================================================
~Ascii
# ...
 1685.9999800 309.83175659 1.0000000000 0.2381000072
 1686.2999800 369.93576050 1.0000000000 0.2321024388
 1686.5999800 88.363899231 1.0000000000 0.1785999984
 1686.8999800 0.0000000000 1.0000000000 0.1190999970
 1687.1999800 0.0000000000 1.0000000000 0.0952000022
 1687.4999800 0.0010000000 0.0000000000 0.0773999989
 1687.7999800 0.0010000000 0.0000000000 0.0892951563
 1688.0999800 0.0000000000 1.0000000000 0.1071000025
 1688.3999800 0.0000013120 1.0000000000 0.1130999997
 1688.6999800 0.0010000000 0.0000000000 0.0892999992
 1688.9999800 0.0048370715 1.0000000000 0.1250000000
 1689.2999800 0.0000000000 1.0000000000 0.1131048426
 1689.5999800 0.0000000000 1.0000000000 0.1130999997
 1689.8999800 0.0000497634 1.0000000000 0.1250000000
 1690.1999800 19.228693008 1.0000000000 0.1606999934
 1690.4999800 23.213691711 1.0000000000 0.1964000016
 1690.7999800 92.953506470 1.0000000000 0.2439806312
 1691.0999800 755.38421631 1.0000000000 0.2797999978
 1691.3999800 1644.7481689 1.0000000000 0.2976000011
 1691.6999800 395.94116211 1.0000000000 0.2320999950
 1691.9999800 41.011497498 1.0000000000 0.2082999945
 1692.2999800 476.13790894 1.0000000000 0.2380878776
 1692.5999800 324.06185913 1.0000000000 0.2261999995
 1692.8999800 140.98762512 1.0000000000 0.1964000016
 1693.1999800 22.856595993 1.0000000000 0.1547999978
 1693.4999800 56.829597473 1.0000000000 0.1667000055
 1693.7999800 33.486759186 1.0000000000 0.1667000055
 1694.0999800 136.60914612 1.0000000000 0.1964000016
 1694.3999800 86.753631592 1.0000000000 0.1785999984
 1694.6999800 7.2987885475 1.0000000000 0.1667000055
 1694.9999800 221.80639648 1.0000000000 0.2082999945
 1695.2999800 277.83621216 1.0000000000 0.2201951593
 1695.5999800 252.89953613 1.0000000000 0.2143000066
 1695.8999800 0.5223373771 1.0000000000 0.1606999934
 1696.1999800 0.0056694215 1.0000000000 0.1547999978
 1696.4999800 9.2536506653 1.0000000000 0.1667000055
 1696.7999800 9.2582855225 1.0000000000 0.1667000055
 1697.0999800 103.74001312 1.0000000000 0.1844999939
 1697.3999800 10.434768677 1.0000000000 0.1488000005
 1697.6999800 0.0000000000 1.0000000000 0.1130999997
 1697.9999800 0.0010000000 0.0000000000 0.0892999992
 1698.2999800 0.0010000000 0.0000000000 0.0833024457
 1698.5999800 0.0010000000 0.0000000000 0.0654999986
 1698.8999800 0.0010000000 0.0000000000 0.1071000025
 1699.1999800 0.0006366296 1.0000000000 0.1250000000
 1699.4999800 43.963760376 1.0000000000 0.1667000055
 1699.7999800 0.5763867497 1.0000000000 0.1607024372
 1700.0999800 114.56124115 1.0000000000 0.2023999989
 1700.3999800 354.44726563 1.0000000000 0.2261999995
 1700.6999800 102.25913239 1.0000000000 0.1844999939
 1700.9999800 52.368072510 1.0000000000 0.1667000055
 1701.2999800 0.0000000524 1.0000000000 0.1012266502
 1701.5999800 19.598762512 1.0000000000 0.1429000050
 1701.8999800 0.0000000000 1.0000000000 0.1011999995
 1702.1999800 36.708152771 1.0000000000 0.1547999978
 1702.4999800 0.0000077814 1.0000000000 0.1250000000
 1702.7999800 0.0000000000 1.0000000000 0.1487903148
 1703.0999800 21.371980667 1.0000000000 0.1726000011
 1703.3999800 0.5499156117 1.0000000000 0.1368999928
 1703.6999800 0.0032805880 1.0000000000 0.1368999928
 1703.9999800 3.4763443470 1.0000000000 0.1429000050
 1704.2999800 0.0290843900 1.0000000000 0.1487976015
 1704.5999800 3.5229845047 1.0000000000 0.1667000055
 1704.8999800 102.13118744 1.0000000000 0.1844999939
 1705.1999800 53.195388794 1.0000000000 0.1667000055
 1705.4999800 0.3328179717 1.0000000000 0.1368999928
 1705.7999800 0.0000000000 1.0000000000 0.1191072389
 1706.0999800 0.0000000000 1.0000000000 0.1309999973
 1706.3999800 0.3251534104 1.0000000000 0.1726000011
 1706.6999800 377.28674316 1.0000000000 0.2320999950
 1706.9999800 131.63328552 1.0000000000 0.1905000061
 1707.2999800 32.418422699 1.0000000000 0.1726072878
 1707.5999800 42.696392059 1.0000000000 0.1667000055
 1707.8999800 1.6549308300 1.0000000000 0.1309999973
 1708.1999800 0.0000000000 1.0000000000 0.1190999970
 1708.4999800 0.3403382003 1.0000000000 0.1488000005
 1708.7999800 15.432065010 1.0000000000 0.1666927189
 1709.0999800 0.0000000000 1.0000000000 0.1190999970
 1709.3999800 0.0015219924 1.0000000000 0.1429000050
 1709.6999800 0.0002148626 1.0000000000 0.1488000005
 1709.9999800 0.7062588334 1.0000000000 0.1667000055
 1710.2999800 15.295140266 1.0000000000 0.1904903203
 1710.5999800 185.03613281 1.0000000000 0.2023999989
 1710.8999800 71.094642639 1.0000000000 0.1785999984
 1711.1999800 1.7425559759 1.0000000000 0.1547999978
 1711.4999800 0.8058390021 1.0000000000 0.1667000055
 1711.7999800 0.0006135713 1.0000000000 0.1607024372
 1712.0999800 1.0283534527 1.0000000000 0.1667000055
 1712.3999800 0.0000000000 1.0000000000 0.1250000000
 1712.6999800 0.0010000000 0.0000000000 0.1011999995
 1712.9999800 0.0000000000 1.0000000000 0.1250000000
 1713.2999800 0.0004279453 1.0000000000 0.1368951499
 1713.5999800 0.0000188989 1.0000000000 0.1368999928
 1713.8999800 0.2371315360 1.0000000000 0.1488000005
 1714.1999800 0.0037355837 1.0000000000 0.1429000050
 1714.4999800 7.4766488075 1.0000000000 0.1726000011
 1714.7999800 13.915416718 1.0000000000 0.1785975546
 1715.0999800 0.0000000000 1.0000000000 0.1309999973
 1715.3999800 0.0000000000 1.0000000000 0.1190999970
 1715.6999800 0.0010000000 0.0000000000 0.0654999986
 1715.9999800 0.0010000000 0.0000000000 0.0773999989
 1716.2999800 0.7817058563 1.0000000000 0.1547685117
 1716.5999800 110.92625427 1.0000000000 0.1964000016
 1716.8999800 77.554618835 1.0000000000 0.1844999939
 1717.1999800 0.0000000000 1.0000000000 0.0952000022
 1717.4999800 0.0010000000 0.0000000000 0.0714000016
 1717.7999800 0.0000000000 1.0000000000 0.1011878774
 1718.0999800 0.0010000000 0.0000000000 0.0952000022
 1718.3999800 0.0010000000 0.0000000000 0.0892999992
 1718.6999800 0.0000000000 1.0000000000 0.1071000025
 1718.9999800 0.0000000000 1.0000000000 0.1250000000
 1719.2999800 0.0431280844 1.0000000000 0.1547878683
 1719.5999800 5.4899125099 1.0000000000 0.1785999984
 1719.8999800 1.4451158047 1.0000000000 0.1606999934
 1720.1999800 4.1716074944 1.0000000000 0.1429000050
 1720.4999800 0.1189148650 1.0000000000 0.1309999973
 1720.7999800 0.0000000000 1.0000000000 0.1012121215
 1721.0999800 0.0010000000 0.0000000000 0.0773999989
 1721.3999800 0.0010000000 0.0000000000 0.0773999989
 1721.6999800 0.0000000000 1.0000000000 0.0952000022
 1721.9999800 0.0006007065 1.0000000000 0.1130999997
 1722.2999800 0.0000000295 1.0000000000 0.1249951571
 1722.5999800 1.7681138515 1.0000000000 0.1368999928
 1722.8999800 0.0010000000 0.0000000000 0.0773999989
 1723.1999800 0.0000475412 1.0000000000 0.1368999928
 1723.4999800 9.1200323105 1.0000000000 0.1488000005
 1723.7999800 0.0000000000 1.0000000000 0.1012193635
 1724.0999800 0.0010000000 0.0000000000 0.0535999984
 1724.3999800 0.0000000005 1.0000000000 0.0238000005
 1724.6999800 0.0010000000 0.0000000000 0.0357000008
 1724.9999800 0.0010000000 1.0000000000  -999.250000
