# LAS format log file from PETREL
# Project units are specified as depth units
#==================================================================
~Version information
VERS.   2.0:
WRAP.   NO:
#==================================================================
~Well
STRT .m      1580.0000000 :
STOP .m      1760.0000000 :
STEP .m     0.05000000 :
NULL .        -999.250000 :
COMP.           : COMPANY
WELL.  A_IPE   : WELL
FLD.            : FIELD
LOC.            : LOCATION
SRVC.           : SERVICE COMPANY
DATE.  Friday, March 30 2012 17:03:22   : DATE
PROV.           : PROVINCE
UWI.      : UNIQUE WELL ID
API.            : API NUMBER
#==================================================================
~Curve
DEPT .m                   : DEPTH
Permeability*** .mD       : Permeability ***
NTG*** .                  : NTG ***
PORDENS268*** .m3/m3      : POR DENS 268 ***
~Parameter
#==================================================================
~Ascii
# ...
 1663.0500000 15.076668739 1.0000000000 0.1368999928
 1663.1000000 16.433961868 1.0000000000 0.1368999928
 1663.1500000 17.882543564 1.0000000000 0.1368999928
 1663.2000000 19.859855652 1.0000000000 0.1429000050
 1663.2500000 22.284257889 1.0000000000 0.1429000050
 1663.3000000 24.946771622 1.0000000000 0.1488000005
 1663.3500000 25.590620041 1.0000000000 0.1488000005
 1663.4000000 26.258459091 1.0000000000 0.1488000005
 1663.4500000 26.929952621 1.0000000000 0.1488000005
 1663.5000000 27.626317978 1.0000000000 0.1488000005
 1663.5500000 28.326347351 1.0000000000 0.1488000005
 1663.6000000 29.052185059 1.0000000000 0.1488000005
 1663.6500000 31.817279816 1.0000000000 0.1547999978
 1663.7000000 64.586647034 1.0000000000 0.1547999978
 1663.7500000 69.978790283 1.0000000000 0.1547999978
 1663.8000000 73.075683594 1.0000000000 0.1606999934
 1663.8500000 76.281913757 1.0000000000 0.1606999934
 1663.9000000 79.600296021 1.0000000000 0.1606999934
 1663.9500000 77.401016235 1.0000000000 0.1606999934
 1664.0000000 75.200851440 1.0000000000 0.1606999934
 1664.0500000 73.075683594 1.0000000000 0.1606999934
 1664.1000000 75.200851440 1.0000000000 0.1606999934
 1664.1500000 77.401016235 1.0000000000 0.1606999934
 1664.2000000 79.600296021 1.0000000000 0.1606999934
 1664.2500000 95.379631042 1.0000000000 0.1667000055
 1664.3000000 113.51302338 1.0000000000 0.1726000011
 1664.3500000 134.40145874 1.0000000000 0.1785999984
 1664.4000000 164.18450928 1.0000000000 0.1844999939
 1664.4500000 199.05998230 1.0000000000 0.1905000061
 1664.5000000 239.66098022 1.0000000000 0.1964000016
 1664.5500000 257.97933960 1.0000000000 0.1964000016
 1664.6000000 277.40744019 1.0000000000 0.2023999989
 1664.6500000 297.91964722 1.0000000000 0.2023999989
 1664.7000000 272.79580688 1.0000000000 0.2023999989
 1664.7500000 249.40487671 1.0000000000 0.1964000016
 1664.8000000 227.65505981 1.0000000000 0.1964000016
 1664.8500000 182.01350403 1.0000000000 0.1844999939
 1664.9000000 144.12344360 1.0000000000 0.1785999984
 1664.9500000 112.78386688 1.0000000000 0.1726000011
 1665.0000000 46.594871521 1.0000000000 0.1606999934
 1665.0500000 33.140274048 1.0000000000 0.1547999978
 1665.1000000 23.075883865 1.0000000000 0.1429000050
 1665.1500000 17.507202148 1.0000000000 0.1368999928
 1665.2000000 13.082120895 1.0000000000 0.1309999973
 1665.2500000 9.6298618317 1.0000000000 0.1250000000
 1665.3000000 8.4469003677 1.0000000000 0.1250000000
 1665.3500000 7.3860707283 1.0000000000 0.1250000000
 1665.4000000 6.4340038300 1.0000000000 0.1190999970
 1665.4500000 5.5881042480 1.0000000000 0.1190999970
 1665.5000000 5.1652193069 1.0000000000 0.1130999997
 1665.5500000 4.7664446831 1.0000000000 0.1130999997
 1665.6000000 4.5067911148 1.0000000000 0.1130999997
 1665.6500000 4.7997474670 1.0000000000 0.1130999997
 1665.7000000 5.1135854721 1.0000000000 0.1130999997
 1665.7500000 5.4412469864 1.0000000000 0.1130999997
 1665.8000000 6.8602871895 1.0000000000 0.1190999970
 1665.8500000 8.5744161606 1.0000000000 0.1250000000
 1665.9000000 10.625873566 1.0000000000 0.1309999973
 1665.9500000 15.388605118 1.0000000000 0.1368999928
 1666.0000000 22.085376740 1.0000000000 0.1429000050
 1666.0500000 31.297981262 1.0000000000 0.1547999978
 1666.1000000 46.945270538 1.0000000000 0.1606999934
 1666.1500000 68.517486572 1.0000000000 0.1726000011
 1666.2000000 97.612976074 1.0000000000 0.1844999939
 1666.2500000 216.07928467 1.0000000000 0.1905000061
 1666.3000000 278.91058350 1.0000000000 0.2023999989
 1666.3500000 355.66677856 1.0000000000 0.2082999945
 1666.4000000 413.55477905 1.0000000000 0.2143000066
 1666.4500000 478.68023682 1.0000000000 0.2202000022
 1666.5000000 551.93591309 1.0000000000 0.2261999995
 1666.5500000 579.16705322 1.0000000000 0.2320999950
 1666.6000000 607.46856689 1.0000000000 0.2320999950
 1666.6500000 636.87194824 1.0000000000 0.2320999950
 1666.7000000 624.97644043 1.0000000000 0.2320999950
 1666.7500000 613.26013184 1.0000000000 0.2320999950
 1666.8000000 601.72106934 1.0000000000 0.2320999950
 1666.8500000 562.57586670 1.0000000000 0.2261999995
 1666.9000000 525.74420166 1.0000000000 0.2261999995
 1666.9500000 490.76443481 1.0000000000 0.2202000022
 1667.0000000 459.92974854 1.0000000000 0.2202000022
 1667.0500000 430.67303467 1.0000000000 0.2202000022
 1667.1000000 403.02850342 1.0000000000 0.2143000066
 1667.1500000 390.73880005 1.0000000000 0.2143000066
 1667.2000000 378.75250244 1.0000000000 0.2143000066
 1667.2500000 367.06375122 1.0000000000 0.2082999945
 1667.3000000 367.06375122 1.0000000000 0.2082999945
 1667.3500000 367.06375122 1.0000000000 0.2082999945
 1667.4000000 367.06375122 1.0000000000 0.2082999945
 1667.4500000 365.09960938 1.0000000000 0.2082999945
 1667.5000000 363.23260498 1.0000000000 0.2082999945
 1667.5500000 389.14205933 1.0000000000 0.2082999945
 1667.6000000 389.61111450 1.0000000000 0.2082999945
 1667.6500000 389.98681641 1.0000000000 0.2082999945
 1667.7000000 390.36267090 1.0000000000 0.2023999989
 1667.7500000 350.37765503 1.0000000000 0.1964000016
 1667.8000000 313.75494385 1.0000000000 0.1964000016
 1667.8500000 174.41578674 1.0000000000 0.1905000061
 1667.9000000 161.72039795 1.0000000000 0.1844999939
 1667.9500000 149.75112915 1.0000000000 0.1844999939
 1668.0000000 138.51965332 1.0000000000 0.1785999984
 1668.0500000 158.37251282 1.0000000000 0.1844999939
 1668.1000000 180.45573425 1.0000000000 0.1844999939
 1668.1500000 205.00894165 1.0000000000 0.1905000061
 1668.2000000 390.36267090 1.0000000000 0.1964000016
 1668.2500000 466.29388428 1.0000000000 0.2023999989
 1668.3000000 553.67706299 1.0000000000 0.2143000066
 1668.3500000 586.95605469 1.0000000000 0.2202000022
 1668.4000000 621.82556152 1.0000000000 0.2202000022
 1668.4500000 658.34197998 1.0000000000 0.2261999995
 1668.5000000 696.56378174 1.0000000000 0.2320999950
 1668.5500000 720.40173340 1.0000000000 0.2381000072
 1668.6000000 776.56335449 1.0000000000 0.2440000027
 1668.6500000 849.63952637 1.0000000000 0.2440000027
 1668.7000000 853.33648682 1.0000000000 0.2440000027
 1668.7500000 857.22338867 1.0000000000 0.2440000027
 1668.8000000 860.94689941 1.0000000000 0.2440000027
 1668.8500000 794.38085938 1.0000000000 0.2440000027
 1668.9000000 732.01843262 1.0000000000 0.2381000072
 1668.9500000 673.65594482 1.0000000000 0.2381000072
 1669.0000000 583.70050049 1.0000000000 0.2261999995
 1669.0500000 537.92071533 1.0000000000 0.2143000066
 1669.1000000 495.07431030 1.0000000000 0.2082999945
 1669.1500000 411.29473877 1.0000000000 0.1905000061
 1669.2000000 203.99922180 1.0000000000 0.1785999984
 1669.2500000 128.64012146 1.0000000000 0.1606999934
 1669.3000000 76.753204346 1.0000000000 0.1488000005
 1669.3500000 43.458068848 1.0000000000 0.1309999973
 1669.4000000 0.0010000000 0.0000000000 0.1130999997
 1669.4500000 0.0010000000 0.0000000000 0.1071000025
 1669.5000000 0.0010000000 0.0000000000 0.0952000022
 1669.5500000 0.0010000000 0.0000000000 0.0892999992
 1669.6000000 0.0010000000 0.0000000000 0.0833000019
 1669.6500000 0.0010000000 0.0000000000 0.0833000019
 1669.7000000 0.0010000000 0.0000000000 0.0833000019
 1669.7500000 0.0010000000 0.0000000000 0.0952000022
 1669.8000000 0.0010000000 0.0000000000 0.1011999995
 1669.8500000 0.0010000000 0.0000000000 0.1071000025
 1669.9000000 17.671545029 1.0000000000 0.1250000000
 1669.9500000 26.919355392 1.0000000000 0.1368999928
 1670.0000000 39.819744110 1.0000000000 0.1488000005
 1670.0500000 61.376144409 1.0000000000 0.1606999934
 1670.1000000 91.745445251 1.0000000000 0.1785999984
 1670.1500000 219.66679382 1.0000000000 0.1905000061
 1670.2000000 286.45211792 1.0000000000 0.2023999989
 1670.2500000 368.67703247 1.0000000000 0.2082999945
 1670.3000000 468.79385376 1.0000000000 0.2202000022
 1670.3500000 549.45605469 1.0000000000 0.2261999995
 1670.4000000 640.92419434 1.0000000000 0.2320999950
 1670.4500000 744.10131836 1.0000000000 0.2381000072
 1670.5000000 796.54748535 1.0000000000 0.2440000027
 1670.5500000 852.10290527 1.0000000000 0.2440000027
