# LAS format log file from PETREL
# Project units are specified as depth units
#==================================================================
~Version information
VERS.   2.0:
WRAP.   NO:
#==================================================================
~Well
STRT .m      1555.0999800 :
STOP .m      1749.8999800 :
STEP .m     0.10000000 :
NULL .        -999.250000 :
COMP.           : COMPANY
WELL.  F_IPE   : WELL
FLD.            : FIELD
LOC.            : LOCATION
SRVC.           : SERVICE COMPANY
DATE.  Friday, March 30 2012 17:04:30   : DATE
PROV.           : PROVINCE
UWI.      : UNIQUE WELL ID
API.            : API NUMBER
#==================================================================
~Curve
DEPT .m                   : DEPTH
Permeability*** .mD       : Permeability ***
NTG*** .                  : NTG ***
PORDENS268*** .m3/m3      : POR DENS 268 ***
~Parameter
#==================================================================
~Ascii
# ...
 1660.7999800 120.97879028 1.0000000000 0.1904926896
 1660.8999800 135.36100769 1.0000000000 0.1964000016
 1660.9999800 151.08822632 1.0000000000 0.1964000016
 1661.0999800 162.36547852 1.0000000000 0.2023999989
 1661.1999800 174.31083679 1.0000000000 0.2023999989
 1661.2999800 196.90919495 1.0000000000 0.2082927972
 1661.3999800 210.84370422 1.0000000000 0.2082999945
 1661.4999800 225.56060791 1.0000000000 0.2082999945
 1661.5999800 292.92321777 1.0000000000 0.2202000022
 1661.6999800 353.36157227 1.0000000000 0.2261999995
 1661.7999800 423.44683838 1.0000000000 0.2320927978
 1661.8999800 572.74029541 1.0000000000 0.2500000000
 1661.9999800 703.25421143 1.0000000000 0.2560000122
 1662.0999800 856.69287109 1.0000000000 0.2678999901
 1662.1999800 1035.9759521 1.0000000000 0.2737999856
 1662.2999800 997.90563965 1.0000000000 0.2737999856
 1662.3999800 960.96582031 1.0000000000 0.2678999901
 1662.4999800 782.05590820 1.0000000000 0.2619000077
 1662.5999800 670.85321045 1.0000000000 0.2560000122
 1662.6999800 572.74029541 1.0000000000 0.2500000000
 1662.7999800 327.06750488 1.0000000000 0.2262290269
 1662.8999800 259.58364868 1.0000000000 0.2143000066
 1662.9999800 203.78024292 1.0000000000 0.2082999945
 1663.0999800 177.40452576 1.0000000000 0.2023999989
 1663.1999800 185.33311462 1.0000000000 0.2023999989
 1663.2999800 193.54345703 1.0000000000 0.2082927972
 1663.3999800 200.32102966 1.0000000000 0.2082999945
 1663.4999800 185.33311462 1.0000000000 0.2023999989
 1663.5999800 171.25996399 1.0000000000 0.2023999989
 1663.6999800 109.95574188 1.0000000000 0.1844999939
 1663.7999800 88.534896851 1.0000000000 0.1786071956
 1663.8999800 70.606063843 1.0000000000 0.1726000011
 1663.9999800 70.606063843 1.0000000000 0.1726000011
 1664.0999800 70.606063843 1.0000000000 0.1726000011
 1664.1999800 83.318542480 1.0000000000 0.1785999984
 1664.2999800 86.767463684 1.0000000000 0.1785999984
 1664.3999800 90.330734253 1.0000000000 0.1785999984
 1664.4999800 112.09278870 1.0000000000 0.1905000061
 1664.5999800 125.62887573 1.0000000000 0.1905000061
 1664.6999800 140.44972229 1.0000000000 0.1964000016
 1664.7999800 162.36547852 1.0000000000 0.2023926824
 1664.8999800 196.90919495 1.0000000000 0.2082999945
 1664.9999800 237.13166809 1.0000000000 0.2143000066
 1665.0999800 229.36659241 1.0000000000 0.2143000066
 1665.1999800 214.44808960 1.0000000000 0.2082999945
 1665.2999800 200.32102966 1.0000000000 0.2082999945
 1665.3999800 156.64556885 1.0000000000 0.1964000016
 1665.4999800 132.87316895 1.0000000000 0.1905000061
 1665.5999800 112.09278870 1.0000000000 0.1905000061
 1665.6999800 85.028938293 1.0000000000 0.1785999984
 1665.7999800 83.318542480 1.0000000000 0.1785999984
 1665.8999800 81.635528564 1.0000000000 0.1785999984
 1665.9999800 103.73995972 1.0000000000 0.1844999939
 1666.0999800 109.95574188 1.0000000000 0.1844999939
 1666.1999800 116.46764374 1.0000000000 0.1905000061
 1666.2999800 116.46764374 1.0000000000 0.1905000061
 1666.3999800 122.12811279 1.0000000000 0.1905000061
 1666.4999800 128.00721741 1.0000000000 0.1905000061
 1666.5999800 143.05084229 1.0000000000 0.1964000016
 1666.6999800 159.48489380 1.0000000000 0.1964000016
 1666.7999800 171.25996399 1.0000000000 0.2023926824
 1666.8999800 183.72518921 1.0000000000 0.2023999989
 1666.9999800 171.25996399 1.0000000000 0.2023999989
 1667.0999800 159.48489380 1.0000000000 0.1964000016
 1667.1999800 143.05084229 1.0000000000 0.1964000016
 1667.2999800 128.00721741 1.0000000000 0.1905072033
 1667.3999800 165.28845215 1.0000000000 0.2023999989
 1667.4999800 162.36547852 1.0000000000 0.2023999989
 1667.5999800 159.48489380 1.0000000000 0.1964000016
 1667.6999800 137.88679504 1.0000000000 0.1964000016
 1667.7999800 137.88679504 1.0000000000 0.1964000016
 1667.8999800 137.88679504 1.0000000000 0.1964000016
 1667.9999800 143.05084229 1.0000000000 0.1964000016
 1668.0999800 163.82206726 1.0000000000 0.2023999989
 1668.1999800 186.95234680 1.0000000000 0.2023999989
 1668.2999800 229.36659241 1.0000000000 0.2142854929
 1668.3999800 253.29727173 1.0000000000 0.2143000066
 1668.4999800 279.19750977 1.0000000000 0.2202000022
 1668.5999800 237.13166809 1.0000000000 0.2143000066
 1668.6999800 193.54345703 1.0000000000 0.2082999945
 1668.7999800 156.64556885 1.0000000000 0.1964145154
 1668.8999800 162.36547852 1.0000000000 0.2023999989
 1668.9999800 186.95234680 1.0000000000 0.2023999989
 1669.0999800 214.44808960 1.0000000000 0.2082999945
 1669.1999800 241.09271240 1.0000000000 0.2143000066
 1669.2999800 257.47473145 1.0000000000 0.2143000066
 1669.3999800 274.73941040 1.0000000000 0.2202000022
 1669.4999800 265.99389648 1.0000000000 0.2143000066
 1669.5999800 265.99389648 1.0000000000 0.2143000066
 1669.6999800 265.99389648 1.0000000000 0.2143000066
 1669.7999800 265.99389648 1.0000000000 0.2143000066
 1669.8999800 322.00326538 1.0000000000 0.2261999995
 1669.9999800 387.13067627 1.0000000000 0.2320999950
 1670.0999800 568.75280762 1.0000000000 0.2500000000
 1670.1999800 813.37445068 1.0000000000 0.2619000077
 1670.2999800 751.71472168 1.0000000000 0.2619000077
 1670.3999800 666.32452393 1.0000000000 0.2560000122
 1670.4999800 588.91577148 1.0000000000 0.2500000000
 1670.5999800 302.37179565 1.0000000000 0.2202000022
 1670.6999800 175.85221863 1.0000000000 0.2023999989
 1670.7999800 95.895248413 1.0000000000 0.1845218241
 1670.8999800 22.928653717 1.0000000000 0.1429000050
 1670.9999800 7.5784940720 1.0000000000 0.1368999928
 1671.0999800 4.9996266365 1.0000000000 0.1309999973
 1671.1999800 46.572380066 1.0000000000 0.1606999934
 1671.2999800 58.858612061 1.0000000000 0.1666926891
 1671.3999800 73.626976013 1.0000000000 0.1726000011
 1671.4999800 123.28620148 1.0000000000 0.1905000061
 1671.5999800 130.42222595 1.0000000000 0.1905000061
 1671.6999800 137.88679504 1.0000000000 0.1964000016
 1671.7999800 114.26363373 1.0000000000 0.1905072033
 1671.8999800 105.77946472 1.0000000000 0.1844999939
 1671.9999800 97.809982300 1.0000000000 0.1844999939
 1672.0999800 86.767463684 1.0000000000 0.1785999984
 1672.1999800 76.750991821 1.0000000000 0.1785999984
 1672.2999800 67.685997009 1.0000000000 0.1726073176
 1672.3999800 52.134899139 1.0000000000 0.1667000055
 1672.4999800 52.134899139 1.0000000000 0.1667000055
 1672.5999800 52.134899139 1.0000000000 0.1667000055
 1672.6999800 125.62887573 1.0000000000 0.1905000061
 1672.7999800 148.36997986 1.0000000000 0.1963928044
 1672.8999800 174.31083679 1.0000000000 0.2023999989
 1672.9999800 218.10276794 1.0000000000 0.2082999945
 1673.0999800 270.33871460 1.0000000000 0.2202000022
 1673.1999800 549.14703369 1.0000000000 0.2440000027
 1673.2999800 462.45587158 1.0000000000 0.2381072044
 1673.3999800 398.94549561 1.0000000000 0.2320999950
 1673.4999800 342.64715576 1.0000000000 0.2261999995
 1673.5999800 302.37179565 1.0000000000 0.2202000022
 1673.6999800 265.99389648 1.0000000000 0.2143000066
 1673.7999800 265.99389648 1.0000000000 0.2143000066
 1673.8999800 249.17546082 1.0000000000 0.2143000066
 1673.9999800 233.22314453 1.0000000000 0.2143000066
 1674.0999800 283.71362305 1.0000000000 0.2202000022
 1674.1999800 279.19750977 1.0000000000 0.2202000022
 1674.2999800 274.73941040 1.0000000000 0.2202000022
 1674.3999800 120.97879028 1.0000000000 0.1905000061
 1674.4999800 99.755828857 1.0000000000 0.1844999939
 1674.5999800 81.635528564 1.0000000000 0.1785999984
 1674.6999800 46.572380066 1.0000000000 0.1606999934
 1674.7999800 25.764316559 1.0000000000 0.1488145143
 1674.8999800 13.188043594 1.0000000000 0.1309999973
 1674.9999800 0.4050042331 1.0000000000 0.0952000022
 1675.0999800 0.4050042331 1.0000000000 0.0952000022
 1675.1999800 0.4050042331 1.0000000000 0.0952000022
 1675.2999800 3.3067421913 1.0000000000 0.1249636561
 1675.3999800 6.1792144775 1.0000000000 0.1368999928
 1675.4999800 22.333892822 1.0000000000 0.1429000050
 1675.5999800 70.606063843 1.0000000000 0.1726000011
 1675.6999800 88.534896851 1.0000000000 0.1785999984
 1675.7999800 109.95574188 1.0000000000 0.1844927967
