# LAS format log file from PETREL
# Project units are specified as depth units
#==================================================================
~Version information
VERS.   2.0:
WRAP.   NO:
#==================================================================
~Well
STRT .m      1555.0999800 :
STOP .m      1749.8999800 :
STEP .m     0.10000000 :
NULL .        -999.250000 :
COMP.           : COMPANY
WELL.  F_IPE   : WELL
FLD.            : FIELD
LOC.            : LOCATION
SRVC.           : SERVICE COMPANY
DATE.  Friday, March 30 2012 17:04:30   : DATE
PROV.           : PROVINCE
UWI.      : UNIQUE WELL ID
API.            : API NUMBER
#==================================================================
~Curve
DEPT .m                   : DEPTH
Permeability*** .mD       : Permeability ***
NTG*** .                  : NTG ***
PORDENS268*** .m3/m3      : POR DENS 268 ***
~Parameter
#==================================================================
~Ascii
# ...
 1570.1999800 0.7551224232 1.0000000000 0.0892999992
 1570.2999800 0.4407092929 1.0000000000 0.0833073184
 1570.3999800 0.3493349850 1.0000000000 0.0833000019
 1570.4999800 0.2738536894 1.0000000000 0.0773999989
 1570.5999800 0.2413865477 1.0000000000 0.0773999989
 1570.6999800 0.1857207566 1.0000000000 0.0773999989
 1570.7999800 0.1408780813 1.0000000000 0.0714073181
 1570.8999800 0.1219882146 1.0000000000 0.0714000016
 1570.9999800 0.1408780813 1.0000000000 0.0714000016
 1571.0999800 0.1620552093 1.0000000000 0.0714000016
 1571.1999800 0.2413865477 1.0000000000 0.0773999989
 1571.2999800 0.3493349850 1.0000000000 0.0832928047
 1571.3999800 0.4930995703 1.0000000000 0.0833000019
 1571.4999800 0.5809792876 1.0000000000 0.0833000019
 1571.5999800 0.6810390949 1.0000000000 0.0892999992
 1571.6999800 0.5503938198 1.0000000000 0.0833000019
 1571.7999800 0.4407092929 1.0000000000 0.0833000019
 1571.8999800 0.2738536894 1.0000000000 0.0773999989
 1571.9999800 0.1620552093 1.0000000000 0.0714000016
 1572.0999800 0.1219882146 1.0000000000 0.0714000016
 1572.1999800 0.0903052911 1.0000000000 0.0714000016
 1572.2999800 0.1051894352 1.0000000000 0.0714000016
 1572.3999800 0.1735623479 1.0000000000 0.0714000016
 1572.4999800 0.2738536894 1.0000000000 0.0773999989
 1572.5999800 1.1730180979 1.0000000000 0.0952000022
 1572.6999800 0.9227271676 1.0000000000 0.0892999992
 1572.7999800 0.7173163295 1.0000000000 0.0892999992
 1572.8999800 0.7173163295 1.0000000000 0.0892999992
 1572.9999800 0.7945152521 1.0000000000 0.0892999992
 1573.0999800 0.8782711625 1.0000000000 0.0892999992
 1573.1999800 0.7173163295 1.0000000000 0.0892999992
 1573.2999800 0.5211170316 1.0000000000 0.0833073184
 1573.3999800 0.3705965877 1.0000000000 0.0833000019
 1573.4999800 0.1735623479 1.0000000000 0.0714000016
 1573.5999800 0.1133376807 1.0000000000 0.0714000016
 1573.6999800 0.0711956620 1.0000000000 0.0654999986
 1573.7999800 0.1735623479 1.0000000000 0.0713928044
 1573.8999800 0.1219882146 1.0000000000 0.0714000016
 1573.9999800 0.0835254565 1.0000000000 0.0654999986
 1574.0999800 0.0509146042 1.0000000000 0.0654999986
 1574.1999800 0.0294306912 1.0000000000 0.0595000014
 1574.2999800 0.0159264226 1.0000000000 0.0595000014
 1574.3999800 0.0975191444 1.0000000000 0.0714000016
 1574.4999800 0.1408780813 1.0000000000 0.0714000016
 1574.5999800 0.1985518932 1.0000000000 0.0773999989
 1574.6999800 0.3290610015 1.0000000000 0.0773999989
 1574.7999800 0.4044293761 1.0000000000 0.0832928047
 1574.8999800 0.4930995703 1.0000000000 0.0833000019
 1574.9999800 0.6129250526 1.0000000000 0.0892999992
 1575.0999800 0.7551224232 1.0000000000 0.0892999992
 1575.1999800 1.3476320505 1.0000000000 0.0952000022
 1575.2999800 1.6846632957 1.0000000000 0.1011926830
 1575.3999800 2.0864212513 1.0000000000 0.1011999995
 1575.4999800 2.1753070354 1.0000000000 0.1011999995
 1575.5999800 1.6481916904 1.0000000000 0.1011999995
 1575.6999800 1.2290635109 1.0000000000 0.0952000022
 1575.7999800 0.4489411712 1.0000000000 0.0952000022
 1575.8999800 0.2938524783 1.0000000000 0.0892999992
 1575.9999800 0.1857949942 1.0000000000 0.0833000019
 1576.0999800 0.0010000000 0.0000000000 0.0476000011
 1576.1999800 0.0010000000 0.0000000000 0.0535999984
 1576.2999800 0.0010000000 0.0000000000 0.0594928078
 1576.3999800 0.0010000000 0.0000000000 0.0714000016
 1576.4999800 0.0010000000 0.0000000000 0.0773999989
 1576.5999800 0.0010000000 0.0000000000 0.0892999992
 1576.6999800 1.6694433689 1.0000000000 0.1130999997
 1576.7999800 2.4194908142 1.0000000000 0.1190926805
 1576.8999800 3.4267289639 1.0000000000 0.1250000000
 1576.9999800 3.1902573109 1.0000000000 0.1250000000
 1577.0999800 4.6764564514 1.0000000000 0.1309999973
 1577.1999800 6.6897921562 1.0000000000 0.1368999928
 1577.2999800 32.679698944 1.0000000000 0.1547781676
 1577.3999800 36.877048492 1.0000000000 0.1547999978
 1577.4999800 41.497287750 1.0000000000 0.1606999934
 1577.5999800 52.134899139 1.0000000000 0.1667000055
 1577.6999800 62.136840820 1.0000000000 0.1726000011
 1577.7999800 73.626976013 1.0000000000 0.1726000011
 1577.8999800 70.606063843 1.0000000000 0.1726000011
 1577.9999800 56.959327698 1.0000000000 0.1667000055
 1578.0999800 45.519275665 1.0000000000 0.1606999934
 1578.1999800 18.509422302 1.0000000000 0.1429000050
 1578.2999800 21.751743317 1.0000000000 0.1429000050
 1578.3999800 25.436008453 1.0000000000 0.1488000005
 1578.4999800 30.351881027 1.0000000000 0.1547999978
 1578.5999800 36.004585266 1.0000000000 0.1547999978
 1578.6999800 45.519275665 1.0000000000 0.1606999934
 1578.7999800 50.412986755 1.0000000000 0.1666926891
 1578.8999800 55.720958710 1.0000000000 0.1667000055
 1578.9999800 50.981796265 1.0000000000 0.1667000055
 1579.0999800 50.981796265 1.0000000000 0.1667000055
 1579.1999800 50.981796265 1.0000000000 0.1667000055
 1579.2999800 81.635528564 1.0000000000 0.1785854846
 1579.3999800 79.980361938 1.0000000000 0.1785999984
 1579.4999800 78.352294922 1.0000000000 0.1785999984
 1579.5999800 114.26363373 1.0000000000 0.1905000061
 1579.6999800 96.848808289 1.0000000000 0.1844999939
 1579.7999800 81.635528564 1.0000000000 0.1786071956
 1579.8999800 105.77946472 1.0000000000 0.1844999939
 1579.9999800 120.97879028 1.0000000000 0.1905000061
 1580.0999800 137.88679504 1.0000000000 0.1964000016
 1580.1999800 153.84704590 1.0000000000 0.1964000016
 1580.2999800 148.36997986 1.0000000000 0.1964000016
 1580.3999800 143.05084229 1.0000000000 0.1964000016
 1580.4999800 118.70571136 1.0000000000 0.1905000061
 1580.5999800 97.809982300 1.0000000000 0.1844999939
 1580.6999800 79.980361938 1.0000000000 0.1785999984
 1580.7999800 46.572380066 1.0000000000 0.1607218236
 1580.8999800 28.875473022 1.0000000000 0.1488000005
 1580.9999800 8.0578956604 1.0000000000 0.1368999928
 1581.0999800 3.2480707169 1.0000000000 0.1250000000
 1581.1999800 1.0979368687 1.0000000000 0.1071000025
 1581.2999800 0.0010000000 0.0000000000 0.0893217102
 1581.3999800 0.0010000000 0.0000000000 0.0892999992
 1581.4999800 0.5092961192 1.0000000000 0.0952000022
 1581.5999800 0.7665056586 1.0000000000 0.1011999995
 1581.6999800 1.4770164490 1.0000000000 0.1130999997
 1581.7999800 2.6571519375 1.0000000000 0.1190926805
 1581.8999800 5.5186038017 1.0000000000 0.1309999973
 1581.9999800 6.4815278053 1.0000000000 0.1368999928
 1582.0999800 7.5784940720 1.0000000000 0.1368999928
 1582.1999800 9.6480722427 1.0000000000 0.1429000050
 1582.2999800 4.9996266365 1.0000000000 0.1310145110
 1582.3999800 2.3741021156 1.0000000000 0.1190999970
 1582.4999800 3.5006761551 1.0000000000 0.1071000025
 1582.5999800 0.0700264797 1.0000000000 0.0773999989
 1582.6999800 0.0010000000 0.0000000000 0.0417000018
 1582.7999800 0.0010000000 0.0000000000 0.0357073173
 1582.8999800 0.0010000000 0.0000000000 0.0417000018
 1582.9999800 0.0010000000 0.0000000000 0.0417000018
 1583.0999800 0.0010000000 0.0000000000 0.0476000011
 1583.1999800 0.0010000000 0.0000000000 0.0535999984
 1583.2999800 0.0010000000 0.0000000000 0.0654854849
 1583.3999800 0.1971637309 1.0000000000 0.0833000019
 1583.4999800 1.1220351458 1.0000000000 0.1071000025
 1583.5999800 9.4640779495 1.0000000000 0.1250000000
 1583.6999800 25.436008453 1.0000000000 0.1488000005
 1583.7999800 32.679698944 1.0000000000 0.1547926813
 1583.8999800 41.497287750 1.0000000000 0.1606999934
 1583.9999800 42.970699310 1.0000000000 0.1606999934
 1584.0999800 44.485656738 1.0000000000 0.1606999934
 1584.1999800 25.549957275 1.0000000000 0.1667000055
 1584.2999800 29.597934723 1.0000000000 0.1667000055
 1584.3999800 31.058900833 1.0000000000 0.1667000055
 1584.4999800 32.578433990 1.0000000000 0.1726000011
 1584.5999800 31.811210632 1.0000000000 0.1667000055
 1584.6999800 31.058900833 1.0000000000 0.1667000055
 1584.7999800 26.845279694 1.0000000000 0.1667000055
 1584.8999800 24.306592941 1.0000000000 0.1606999934
 1584.9999800 21.968490601 1.0000000000 0.1606999934
 1585.0999800 16.035354614 1.0000000000 0.1547999978
 1585.1999800 13.418008804 1.0000000000 0.1488000005
