# LAS format log file from PETREL
# Project units are specified as depth units
#==================================================================
~Version information
VERS.   2.0:
WRAP.   NO:
#==================================================================
~Well
STRT .m      1605.0999800 :
STOP .m      1769.9999800 :
STEP .m     0.10000000 :
NULL .        -999.250000 :
COMP.           : COMPANY
WELL.  E_IPE   : WELL
FLD.            : FIELD
LOC.            : LOCATION
SRVC.           : SERVICE COMPANY
DATE.  Friday, March 30 2012 17:04:18   : DATE
PROV.           : PROVINCE
UWI.      : UNIQUE WELL ID
API.            : API NUMBER
#==================================================================
~Curve
DEPT .m                   : DEPTH
Permeability*** .mD       : Permeability ***
NTG*** .                  : NTG ***
PORDENS268*** .m3/m3      : POR DENS 268 ***
~Parameter
#==================================================================
~Ascii
# ...
 1740.9999800 13.188043594 1.0000000000 0.1309999973
 1741.0999800 22.333892822 1.0000000000 0.1429000050
 1741.1999800 28.875473022 1.0000000000 0.1488000005
 1741.2999800 28.875473022 1.0000000000 0.1488000005
 1741.3999800 20.077989578 1.0000000000 0.1429000050
 1741.4999800 12.807313919 1.0000000000 0.1309999973
 1741.5999800 5.4096817970 1.0000000000 0.1190999970
 1741.6999800 2.2672133446 1.0000000000 0.1011999995
 1741.7999800 0.2938524783 1.0000000000 0.0893145129
 1741.8999800 0.1646675766 1.0000000000 0.0833000019
 1741.9999800 0.1367106289 1.0000000000 0.0833000019
 1742.0999800 0.1971637309 1.0000000000 0.0833000019
 1742.1999800 0.3276914060 1.0000000000 0.0892999992
 1742.2999800 0.4723323286 1.0000000000 0.0951928049
 1742.3999800 0.6980568171 1.0000000000 0.1011999995
 1742.4999800 1.1465663910 1.0000000000 0.1071000025
 1742.5999800 2.2854642868 1.0000000000 0.1190999970
 1742.6999800 9.4640779495 1.0000000000 0.1250000000
 1742.7999800 15.230314255 1.0000000000 0.1368854791
 1742.8999800 20.077989578 1.0000000000 0.1429000050
 1742.9999800 22.928653717 1.0000000000 0.1429000050
 1743.0999800 24.789485931 1.0000000000 0.1488000005
 1743.1999800 27.457553864 1.0000000000 0.1488000005
 1743.2999800 31.112424850 1.0000000000 0.1547926813
 1743.3999800 32.679698944 1.0000000000 0.1547999978
 1743.4999800 29.606363297 1.0000000000 0.1488000005
 1743.5999800 19.020990372 1.0000000000 0.1429000050
 1743.6999800 8.6118869781 1.0000000000 0.1250000000
 1743.7999800 1.0057438612 1.0000000000 0.1071218327
 1743.8999800 0.2347544730 1.0000000000 0.0892999992
 1743.9999800 0.0010000000 0.0000000000 0.0773999989
 1744.0999800 0.0010000000 0.0000000000 0.0714000016
 1744.1999800 0.0010000000 0.0000000000 0.0714000016
 1744.2999800 0.0010000000 0.0000000000 0.0773926824
 1744.3999800 0.0010000000 0.0000000000 0.0773999989
 1744.4999800 0.1056097448 1.0000000000 0.0773999989
 1744.5999800 0.1367106289 1.0000000000 0.0833000019
 1744.6999800 0.1367106289 1.0000000000 0.0833000019
 1744.7999800 0.1367106289 1.0000000000 0.0833000019
 1744.8999800 0.0863208324 1.0000000000 0.0773999989
 1744.9999800 0.0485164970 1.0000000000 0.0714000016
 1745.0999800 0.0010000000 0.0000000000 0.0714000016
 1745.1999800 0.0010000000 0.0000000000 0.0714000016
 1745.2999800 0.0010000000 0.0000000000 0.0714000016
 1745.3999800 0.1127765849 1.0000000000 0.0833000019
 1745.4999800 0.2347544730 1.0000000000 0.0892999992
 1745.5999800 0.3276914060 1.0000000000 0.0892999992
 1745.6999800 0.3276914060 1.0000000000 0.0892999992
 1745.7999800 0.2780450583 1.0000000000 0.0892999992
 1745.8999800 0.3276914060 1.0000000000 0.0892999992
 1745.9999800 0.6347061396 1.0000000000 0.1011999995
 1746.0999800 2.1163361073 1.0000000000 0.1130999997
 1746.1999800 6.9034733772 1.0000000000 0.1368999928
 1746.2999800 38.672557831 1.0000000000 0.1606709659
 1746.3999800 73.626976013 1.0000000000 0.1726000011
 1746.4999800 109.95574188 1.0000000000 0.1844999939
 1746.5999800 130.42222595 1.0000000000 0.1905000061
 1746.6999800 151.08822632 1.0000000000 0.1964000016
 1746.7999800 186.95234680 1.0000000000 0.2023926824
 1746.8999800 249.17546082 1.0000000000 0.2143000066
 1746.9999800 332.19561768 1.0000000000 0.2261999995
 1747.0999800 436.14410400 1.0000000000 0.2381000072
 1747.1999800 526.34185791 1.0000000000 0.2440000027
 1747.2999800 572.74029541 1.0000000000 0.2499926835
 1747.3999800 541.45935059 1.0000000000 0.2440000027
 1747.4999800 462.45587158 1.0000000000 0.2381000072
 1747.5999800 358.81823730 1.0000000000 0.2261999995
 1747.6999800 257.47473145 1.0000000000 0.2143000066
 1747.7999800 162.36547852 1.0000000000 0.2024145126
 1747.8999800 101.73220825 1.0000000000 0.1844999939
 1747.9999800 66.262512207 1.0000000000 0.1726000011
 1748.0999800 48.736858368 1.0000000000 0.1667000055
 1748.1999800 35.149005890 1.0000000000 0.1547999978
 1748.2999800 23.535940170 1.0000000000 0.1488073170
 1748.3999800 15.230314255 1.0000000000 0.1368999928
 1748.4999800 10.704575539 1.0000000000 0.1309999973
 1748.5999800 9.7627916336 1.0000000000 0.1250000000
 1748.6999800 12.072541237 1.0000000000 0.1309999973
 1748.7999800 21.181861877 1.0000000000 0.1428854913
 1748.8999800 37.766220093 1.0000000000 0.1547999978
 1748.9999800 63.488414764 1.0000000000 0.1726000011
 1749.0999800 76.750991821 1.0000000000 0.1785999984
 1749.1999800 86.767463684 1.0000000000 0.1785999984
 1749.2999800 88.534896851 1.0000000000 0.1785999984
 1749.3999800 101.73220825 1.0000000000 0.1844999939
 1749.4999800 120.97879028 1.0000000000 0.1905000061
 1749.5999800 153.84704590 1.0000000000 0.1964000016
 1749.6999800 190.22494507 1.0000000000 0.2023999989
 1749.7999800 221.80647278 1.0000000000 0.2082927972
 1749.8999800 229.36659241 1.0000000000 0.2143000066
 1749.9999800 200.32102966 1.0000000000 0.2082999945
 1750.0999800 159.48489380 1.0000000000 0.1964000016
 1750.1999800 123.28620148 1.0000000000 0.1905000061
 1750.2999800 105.77946472 1.0000000000 0.1845073104
 1750.3999800 88.534896851 1.0000000000 0.1785999984
 1750.4999800 78.352294922 1.0000000000 0.1785999984
 1750.5999800 75.175750732 1.0000000000 0.1785999984
 1750.6999800 75.175750732 1.0000000000 0.1785999984
 1750.7999800 76.750991821 1.0000000000 0.1785999984
 1750.8999800 81.635528564 1.0000000000 0.1785999984
 1750.9999800 94.010772705 1.0000000000 0.1844999939
 1751.0999800 105.77946472 1.0000000000 0.1844999939
 1751.1999800 105.77946472 1.0000000000 0.1844999939
 1751.2999800 99.755828857 1.0000000000 0.1844999939
 1751.3999800 86.767463684 1.0000000000 0.1785999984
 1751.4999800 67.685997009 1.0000000000 0.1726000011
 1751.5999800 37.766220093 1.0000000000 0.1547999978
 1751.6999800 15.667809486 1.0000000000 0.1368999928
 1751.7999800 1.6031299829 1.0000000000 0.1131290272
 1751.8999800 0.2216228247 1.0000000000 0.0892999992
 1751.9999800 0.0010000000 0.0000000000 0.0714000016
 1752.0999800 0.0010000000 0.0000000000 0.0654999986
 1752.1999800 0.0010000000 0.0000000000 0.0654999986
 1752.2999800 0.0010000000 0.0000000000 0.0713928044
 1752.3999800 0.0010000000 0.0000000000 0.0773999989
 1752.4999800 0.0010000000 0.0000000000 0.0773999989
 1752.5999800 0.0010000000 0.0000000000 0.0714000016
 1752.6999800 0.0010000000 0.0000000000 0.0714000016
 1752.7999800 0.0010000000 0.0000000000 0.0714000016
 1752.8999800 0.0010000000 0.0000000000 0.0714000016
 1752.9999800 0.0010000000 0.0000000000 0.0773999989
 1753.0999800 0.0010000000 0.0000000000 0.0773999989
 1753.1999800 0.2629432678 1.0000000000 0.0892999992
 1753.2999800 0.8794577718 1.0000000000 0.1011854857
 1753.3999800 2.9673650265 1.0000000000 0.1190999970
 1753.4999800 18.009099960 1.0000000000 0.1429000050
 1753.5999800 36.877048492 1.0000000000 0.1547999978
 1753.6999800 41.497287750 1.0000000000 0.1606999934
 1753.7999800 29.606363297 1.0000000000 0.1488145143
 1753.8999800 13.976625443 1.0000000000 0.1368999928
 1753.9999800 5.9981236458 1.0000000000 0.1190999970
 1754.0999800 2.2672133446 1.0000000000 0.1011999995
 1754.1999800 2.0004603863 1.0000000000 0.1011999995
 1754.2999800 1.3032044172 1.0000000000 0.1070928052
 1754.3999800 7.3294782639 1.0000000000 0.1250000000
 1754.4999800 10.382822990 1.0000000000 0.1309999973
 1754.5999800 13.188043594 1.0000000000 0.1309999973
 1754.6999800 12.807313919 1.0000000000 0.1309999973
 1754.7999800 12.807313919 1.0000000000 0.1309999973
 1754.8999800 13.976625443 1.0000000000 0.1368999928
 1754.9999800 21.181861877 1.0000000000 0.1429000050
 1755.0999800 30.351881027 1.0000000000 0.1547999978
 1755.1999800 38.672557831 1.0000000000 0.1606999934
 1755.2999800 42.474807739 1.0000000000 0.1606999934
 1755.3999800 42.474807739 1.0000000000 0.1606999934
 1755.4999800 44.485656738 1.0000000000 0.1606999934
 1755.5999800 54.504333496 1.0000000000 0.1667000055
 1755.6999800 75.175750732 1.0000000000 0.1785999984
 1755.7999800 103.73995972 1.0000000000 0.1844927967
 1755.8999800 125.62887573 1.0000000000 0.1905000061
 1755.9999800 137.88679504 1.0000000000 0.1964000016
