# LAS format log file from PETREL
# Project units are specified as depth units
#==================================================================
~Version information
VERS.   2.0:
WRAP.   NO:
#==================================================================
~Well
STRT .m      1610.0000000 :
STOP .m      1780.0000000 :
STEP .m     0.05000000 :
NULL .        -999.250000 :
COMP.           : COMPANY
WELL.  B_IPE   : WELL
FLD.            : FIELD
LOC.            : LOCATION
SRVC.           : SERVICE COMPANY
DATE.  Friday, March 30 2012 17:03:38   : DATE
PROV.           : PROVINCE
UWI.      : UNIQUE WELL ID
API.            : API NUMBER
#==================================================================
~Curve
DEPT .m                   : DEPTH
Permeability*** .mD       : Permeability ***
NTG*** .                  : NTG ***
PORDENS268*** .m3/m3      : POR DENS 268 ***
~Parameter
#==================================================================
~Ascii
# ...
 1723.2500000 852.63140869 1.0000000000 0.2560000122
 1723.3000000 868.25408936 1.0000000000 0.2560000122
 1723.3500000 883.92449951 1.0000000000 0.2560000122
 1723.4000000 907.94903564 1.0000000000 0.2560000122
 1723.4500000 932.30664063 1.0000000000 0.2560000122
 1723.5000000 957.38018799 1.0000000000 0.2619000077
 1723.5500000 978.65380859 1.0000000000 0.2619000077
 1723.6000000 1000.3065796 1.0000000000 0.2619000077
 1723.6500000 1022.3424072 1.0000000000 0.2619000077
 1723.7000000 1058.3271484 1.0000000000 0.2619000077
 1723.7500000 1095.3231201 1.0000000000 0.2678999901
 1723.8000000 1133.5748291 1.0000000000 0.2678999901
 1723.8500000 1192.6132813 1.0000000000 0.2678999901
 1723.9000000 1254.3400879 1.0000000000 0.2737999856
 1723.9500000 1318.3612061 1.0000000000 0.2737999856
 1724.0000000 1379.5264893 1.0000000000 0.2797999978
 1724.0500000 1442.6843262 1.0000000000 0.2797999978
 1724.1000000 1508.4266357 1.0000000000 0.2797999978
 1724.1500000 1551.2947998 1.0000000000 0.2856999934
 1724.2000000 1595.4285889 1.0000000000 0.2856999934
 1724.2500000 1640.5667725 1.0000000000 0.2856999934
 1724.3000000 1634.0137939 1.0000000000 0.2856999934
 1724.3500000 1627.4819336 1.0000000000 0.2856999934
 1724.4000000 1620.9709473 1.0000000000 0.2856999934
 1724.4500000 1570.2100830 1.0000000000 0.2856999934
 1724.5000000 1520.7365723 1.0000000000 0.2797999978
 1724.5500000 1472.2508545 1.0000000000 0.2797999978
 1724.6000000 1407.7851563 1.0000000000 0.2797999978
 1724.6500000 1345.8643799 1.0000000000 0.2737999856
 1724.7000000 1285.9078369 1.0000000000 0.2737999856
 1724.7500000 1259.3972168 1.0000000000 0.2737999856
 1724.8000000 1233.5648193 1.0000000000 0.2737999856
 1724.8500000 1207.9274902 1.0000000000 0.2678999901
 1724.9000000 1233.5648193 1.0000000000 0.2737999856
 1724.9500000 1259.3972168 1.0000000000 0.2737999856
 1725.0000000 1285.9078369 1.0000000000 0.2737999856
 1725.0500000 1296.7358398 1.0000000000 0.2737999856
 1725.1000000 1307.3881836 1.0000000000 0.2737999856
 1725.1500000 1318.3612061 1.0000000000 0.2737999856
 1725.2000000 1270.0455322 1.0000000000 0.2737999856
 1725.2500000 1223.1635742 1.0000000000 0.2737999856
 1725.3000000 1177.6838379 1.0000000000 0.2678999901
 1725.3500000 1104.8414307 1.0000000000 0.2678999901
 1725.4000000 1035.6676025 1.0000000000 0.2619000077
 1725.4500000 970.02093506 1.0000000000 0.2619000077
 1725.5000000 941.62237549 1.0000000000 0.2619000077
 1725.5500000 913.89642334 1.0000000000 0.2560000122
 1725.6000000 886.83123779 1.0000000000 0.2560000122
 1725.6500000 860.41424561 1.0000000000 0.2560000122
 1725.7000000 860.41424561 1.0000000000 0.2560000122
 1725.7500000 860.41424561 1.0000000000 0.2560000122
 1725.8000000 860.41424561 1.0000000000 0.2560000122
 1725.8500000 868.25408936 1.0000000000 0.2560000122
 1725.9000000 875.97094727 1.0000000000 0.2560000122
 1725.9500000 883.92449951 1.0000000000 0.2560000122
 1726.0000000 899.82189941 1.0000000000 0.2560000122
 1726.0500000 915.94818115 1.0000000000 0.2560000122
 1726.1000000 932.30664063 1.0000000000 0.2560000122
 1726.1500000 944.87237549 1.0000000000 0.2619000077
 1726.2000000 957.38018799 1.0000000000 0.2619000077
 1726.2500000 970.02093506 1.0000000000 0.2619000077
 1726.3000000 957.38018799 1.0000000000 0.2619000077
 1726.3500000 944.87237549 1.0000000000 0.2619000077
 1726.4000000 932.30664063 1.0000000000 0.2560000122
 1726.4500000 887.92303467 1.0000000000 0.2560000122
 1726.5000000 845.08026123 1.0000000000 0.2560000122
 1726.5500000 803.91619873 1.0000000000 0.2500000000
 1726.6000000 778.69079590 1.0000000000 0.2500000000
 1726.6500000 753.94665527 1.0000000000 0.2500000000
 1726.7000000 729.99414063 1.0000000000 0.2500000000
 1726.7500000 753.94665527 1.0000000000 0.2500000000
 1726.8000000 778.69079590 1.0000000000 0.2500000000
 1726.8500000 803.91619873 1.0000000000 0.2500000000
 1726.9000000 872.19549561 1.0000000000 0.2560000122
 1726.9500000 944.87237549 1.0000000000 0.2619000077
 1727.0000000 1022.3424072 1.0000000000 0.2619000077
 1727.0500000 1081.3831787 1.0000000000 0.2678999901
 1727.1000000 1143.3593750 1.0000000000 0.2678999901
 1727.1500000 1207.9274902 1.0000000000 0.2678999901
 1727.2000000 1197.7005615 1.0000000000 0.2678999901
 1727.2500000 1187.7730713 1.0000000000 0.2678999901
 1727.3000000 1177.6838379 1.0000000000 0.2678999901
 1727.3500000 1067.5861816 1.0000000000 0.2678999901
 1727.4000000 965.92260742 1.0000000000 0.2619000077
 1727.4500000 872.19549561 1.0000000000 0.2560000122
 1727.5000000 729.99414063 1.0000000000 0.2500000000
 1727.5500000 607.06622314 1.0000000000 0.2381000072
 1727.6000000 501.48098755 1.0000000000 0.2320999950
 1727.6500000 419.69696045 1.0000000000 0.2261999995
 1727.7000000 349.08670044 1.0000000000 0.2202000022
 1727.7500000 288.28915405 1.0000000000 0.2143000066
 1727.8000000 272.58438110 1.0000000000 0.2082999945
 1727.8500000 257.57528687 1.0000000000 0.2082999945
 1727.9000000 243.23823547 1.0000000000 0.2082999945
 1727.9500000 266.51251221 1.0000000000 0.2082999945
 1728.0000000 291.54544067 1.0000000000 0.2143000066
 1728.0500000 318.35598755 1.0000000000 0.2143000066
 1728.1000000 378.11059570 1.0000000000 0.2202000022
 1728.1500000 446.36325073 1.0000000000 0.2261999995
 1728.2000000 524.43157959 1.0000000000 0.2320999950
 1728.2500000 607.06622314 1.0000000000 0.2381000072
 1728.3000000 700.01568604 1.0000000000 0.2440000027
 1728.3500000 803.91619873 1.0000000000 0.2500000000
 1728.4000000 852.63140869 1.0000000000 0.2560000122
 1728.4500000 903.87811279 1.0000000000 0.2560000122
 1728.5000000 957.38018799 1.0000000000 0.2619000077
 1728.5500000 915.94818115 1.0000000000 0.2560000122
 1728.6000000 875.97094727 1.0000000000 0.2560000122
 1728.6500000 837.58300781 1.0000000000 0.2560000122
 1728.7000000 782.30187988 1.0000000000 0.2500000000
 1728.7500000 729.99414063 1.0000000000 0.2500000000
 1728.8000000 680.53710938 1.0000000000 0.2440000027
 1728.8500000 633.81170654 1.0000000000 0.2440000027
 1728.9000000 598.39971924 1.0000000000 0.2381000072
 1728.9500000 564.47039795 1.0000000000 0.2381000072
 1729.0000000 532.22656250 1.0000000000 0.2320999950
 1729.0500000 509.00064087 1.0000000000 0.2320999950
 1729.1000000 486.59719849 1.0000000000 0.2320999950
 1729.1500000 464.99380493 1.0000000000 0.2320999950
 1729.2000000 394.23257446 1.0000000000 0.2261999995
 1729.2500000 332.56799316 1.0000000000 0.2143000066
 1729.3000000 278.76715088 1.0000000000 0.2082999945
 1729.3500000 192.21083069 1.0000000000 0.1964000016
 1729.4000000 128.67993164 1.0000000000 0.1844999939
 1729.4500000 46.015586853 1.0000000000 0.1726000011
 1729.5000000 25.692445755 1.0000000000 0.1606999934
 1729.5500000 13.413499832 1.0000000000 0.1429000050
 1729.6000000 6.4274678230 1.0000000000 0.1309999973
 1729.6500000 3.5874917507 1.0000000000 0.1190999970
 1729.7000000 1.8725037575 1.0000000000 0.1130999997
 1729.7500000 0.0010000000 0.0000000000 0.1011999995
 1729.8000000 0.0010000000 0.0000000000 0.0952000022
 1729.8500000 0.0010000000 0.0000000000 0.0892999992
 1729.9000000 0.0010000000 0.0000000000 0.0892999992
 1729.9500000 0.0010000000 0.0000000000 0.0833000019
 1730.0000000 0.0010000000 0.0000000000 0.0833000019
 1730.0500000 0.0010000000 0.0000000000 0.0833000019
 1730.1000000 0.0010000000 0.0000000000 0.0833000019
 1730.1500000 0.0010000000 0.0000000000 0.0833000019
 1730.2000000 0.0010000000 0.0000000000 0.0833000019
 1730.2500000 0.0010000000 0.0000000000 0.0833000019
 1730.3000000 0.0010000000 0.0000000000 0.0833000019
 1730.3500000 0.0010000000 0.0000000000 0.0892999992
 1730.4000000 0.0010000000 0.0000000000 0.0892999992
 1730.4500000 0.0010000000 0.0000000000 0.0892999992
 1730.5000000 0.0010000000 0.0000000000 0.0952000022
 1730.5500000 0.0010000000 0.0000000000 0.0952000022
 1730.6000000 0.0010000000 0.0000000000 0.0952000022
 1730.6500000 0.6071972847 1.0000000000 0.0952000022
 1730.7000000 0.0010000000 0.0000000000 0.0952000022
 1730.7500000 0.0010000000 0.0000000000 0.0952000022
