# LAS format log file from PETREL
# Project units are specified as depth units
#==================================================================
~Version information
VERS.   2.0:
WRAP.   NO:
#==================================================================
~Well
STRT .m      1610.0000000 :
STOP .m      1780.0000000 :
STEP .m     0.05000000 :
NULL .        -999.250000 :
COMP.           : COMPANY
WELL.  B_IPE   : WELL
FLD.            : FIELD
LOC.            : LOCATION
SRVC.           : SERVICE COMPANY
DATE.  Friday, March 30 2012 17:03:38   : DATE
PROV.           : PROVINCE
UWI.      : UNIQUE WELL ID
API.            : API NUMBER
#==================================================================
~Curve
DEPT .m                   : DEPTH
Permeability*** .mD       : Permeability ***
NTG*** .                  : NTG ***
PORDENS268*** .m3/m3      : POR DENS 268 ***
~Parameter
#==================================================================
~Ascii
# ...
 1745.9000000 7.8171005249 1.0000000000 0.1309999973
 1745.9500000 9.1570653915 1.0000000000 0.1368999928
 1746.0000000 10.680292130 1.0000000000 0.1368999928
 1746.0500000 12.400244713 1.0000000000 0.1429000050
 1746.1000000 14.347901344 1.0000000000 0.1429000050
 1746.1500000 16.540216446 1.0000000000 0.1488000005
 1746.2000000 19.000637054 1.0000000000 0.1488000005
 1746.2500000 19.884626389 1.0000000000 0.1547999978
 1746.3000000 20.793581009 1.0000000000 0.1547999978
 1746.3500000 21.745296478 1.0000000000 0.1547999978
 1746.4000000 22.139463425 1.0000000000 0.1547999978
 1746.4500000 22.530342102 1.0000000000 0.1547999978
 1746.5000000 22.936162949 1.0000000000 0.1547999978
 1746.5500000 23.347970963 1.0000000000 0.1547999978
 1746.6000000 23.756273270 1.0000000000 0.1547999978
 1746.6500000 24.180126190 1.0000000000 0.1547999978
 1746.7000000 21.745296478 1.0000000000 0.1547999978
 1746.7500000 19.523801804 1.0000000000 0.1547999978
 1746.8000000 17.492326736 1.0000000000 0.1488000005
 1746.8500000 12.161159515 1.0000000000 0.1429000050
 1746.9000000 7.3167767525 1.0000000000 0.1368999928
 1746.9500000 3.6670844555 1.0000000000 0.1250000000
 1747.0000000 1.4956406355 1.0000000000 0.1190999970
 1747.0500000 0.0010000000 0.0000000000 0.1130999997
 1747.1000000 0.0010000000 0.0000000000 0.1011999995
 1747.1500000 0.0010000000 0.0000000000 0.1011999995
 1747.2000000 0.0010000000 0.0000000000 0.1011999995
 1747.2500000 0.0010000000 0.0000000000 0.1011999995
 1747.3000000 0.0010000000 0.0000000000 0.1071000025
 1747.3500000 2.1169836521 1.0000000000 0.1190999970
 1747.4000000 5.4298639297 1.0000000000 0.1250000000
 1747.4500000 11.920446396 1.0000000000 0.1429000050
 1747.5000000 23.756273270 1.0000000000 0.1547999978
 1747.5500000 43.915618896 1.0000000000 0.1726000011
 1747.6000000 122.93309021 1.0000000000 0.1844999939
 1747.6500000 183.13591003 1.0000000000 0.1964000016
 1747.7000000 264.99444580 1.0000000000 0.2082999945
 1747.7500000 308.04034424 1.0000000000 0.2143000066
 1747.8000000 356.62734985 1.0000000000 0.2202000022
 1747.8500000 411.09872437 1.0000000000 0.2261999995
 1747.9000000 472.07077026 1.0000000000 0.2320999950
 1747.9500000 506.44540405 1.0000000000 0.2320999950
 1748.0000000 542.80523682 1.0000000000 0.2381000072
 1748.0500000 581.23590088 1.0000000000 0.2381000072
 1748.1000000 586.95605469 1.0000000000 0.2381000072
 1748.1500000 592.58990479 1.0000000000 0.2381000072
 1748.2000000 598.39971924 1.0000000000 0.2381000072
 1748.2500000 584.09033203 1.0000000000 0.2381000072
 1748.3000000 570.05761719 1.0000000000 0.2381000072
 1748.3500000 556.29724121 1.0000000000 0.2381000072
 1748.4000000 516.61090088 1.0000000000 0.2320999950
 1748.4500000 479.34515381 1.0000000000 0.2320999950
 1748.5000000 444.16851807 1.0000000000 0.2261999995
 1748.5500000 386.05731201 1.0000000000 0.2202000022
 1748.6000000 334.30718994 1.0000000000 0.2143000066
 1748.6500000 288.28915405 1.0000000000 0.2143000066
 1748.7000000 241.89175415 1.0000000000 0.2082999945
 1748.7500000 201.64390564 1.0000000000 0.2023999989
 1748.8000000 167.01448059 1.0000000000 0.1905000061
 1748.8500000 150.12692261 1.0000000000 0.1905000061
 1748.9000000 134.68084717 1.0000000000 0.1844999939
 1748.9500000 120.53952789 1.0000000000 0.1844999939
 1749.0000000 124.57497406 1.0000000000 0.1844999939
 1749.0500000 128.67993164 1.0000000000 0.1844999939
 1749.1000000 132.97204590 1.0000000000 0.1844999939
 1749.1500000 151.08834839 1.0000000000 0.1905000061
 1749.2000000 171.18754578 1.0000000000 0.1964000016
 1749.2500000 193.38351440 1.0000000000 0.1964000016
 1749.3000000 219.07539368 1.0000000000 0.2023999989
 1749.3500000 247.50929260 1.0000000000 0.2082999945
 1749.4000000 278.76715088 1.0000000000 0.2082999945
 1749.4500000 294.75622559 1.0000000000 0.2143000066
 1749.5000000 311.47470093 1.0000000000 0.2143000066
 1749.5500000 328.94757080 1.0000000000 0.2143000066
 1749.6000000 325.35891724 1.0000000000 0.2143000066
 1749.6500000 321.88232422 1.0000000000 0.2143000066
 1749.7000000 318.35598755 1.0000000000 0.2143000066
 1749.7500000 316.68389893 1.0000000000 0.2143000066
 1749.8000000 314.86068726 1.0000000000 0.2143000066
 1749.8500000 313.20336914 1.0000000000 0.2143000066
 1749.9000000 325.35891724 1.0000000000 0.2143000066
 1749.9500000 337.97491455 1.0000000000 0.2202000022
 1750.0000000 350.89501953 1.0000000000 0.2202000022
 1750.0500000 358.46701050 1.0000000000 0.2202000022
 1750.1000000 366.25918579 1.0000000000 0.2202000022
 1750.1500000 374.09616089 1.0000000000 0.2202000022
 1750.2000000 370.11596680 1.0000000000 0.2202000022
 1750.2500000 366.25918579 1.0000000000 0.2202000022
 1750.3000000 362.34625244 1.0000000000 0.2202000022
 1750.3500000 364.29849243 1.0000000000 0.2202000022
 1750.4000000 366.25918579 1.0000000000 0.2202000022
 1750.4500000 368.13867188 1.0000000000 0.2202000022
 1750.5000000 380.03881836 1.0000000000 0.2202000022
 1750.5500000 392.24661255 1.0000000000 0.2202000022
 1750.6000000 404.76782227 1.0000000000 0.2261999995
 1750.6500000 406.80447388 1.0000000000 0.2261999995
 1750.7000000 408.94705200 1.0000000000 0.2261999995
 1750.7500000 411.09872437 1.0000000000 0.2261999995
 1750.8000000 384.10455322 1.0000000000 0.2202000022
 1750.8500000 358.46701050 1.0000000000 0.2202000022
 1750.9000000 334.30718994 1.0000000000 0.2143000066
 1750.9500000 299.28381348 1.0000000000 0.2143000066
 1751.0000000 267.27416992 1.0000000000 0.2082999945
 1751.0500000 238.07774353 1.0000000000 0.2023999989
 1751.1000000 211.50331116 1.0000000000 0.2023999989
 1751.1500000 173.32977295 1.0000000000 0.1964000016
 1751.2000000 140.90476990 1.0000000000 0.1905000061
 1751.2500000 113.54782867 1.0000000000 0.1785999984
 1751.3000000 91.920661926 1.0000000000 0.1726000011
 1751.3500000 40.245597839 1.0000000000 0.1667000055
 1751.4000000 29.724182129 1.0000000000 0.1606999934
 1751.4500000 23.746713638 1.0000000000 0.1606999934
 1751.5000000 18.802501678 1.0000000000 0.1547999978
 1751.5500000 14.731158257 1.0000000000 0.1488000005
 1751.6000000 14.763467789 1.0000000000 0.1488000005
 1751.6500000 13.152557373 1.0000000000 0.1429000050
 1751.7000000 11.689000130 1.0000000000 0.1429000050
 1751.7500000 12.895801544 1.0000000000 0.1429000050
 1751.8000000 14.215710640 1.0000000000 0.1429000050
 1751.8500000 15.631105423 1.0000000000 0.1488000005
 1751.9000000 20.991493225 1.0000000000 0.1547999978
 1751.9500000 52.555187225 1.0000000000 0.1606999934
 1752.0000000 67.011123657 1.0000000000 0.1667000055
 1752.0500000 85.665512085 1.0000000000 0.1726000011
 1752.1000000 108.32000732 1.0000000000 0.1785999984
 1752.1500000 135.56187439 1.0000000000 0.1844999939
 1752.2000000 151.08834839 1.0000000000 0.1905000061
 1752.2500000 168.01420593 1.0000000000 0.1964000016
 1752.3000000 186.48471069 1.0000000000 0.1964000016
 1752.3500000 188.77941895 1.0000000000 0.1964000016
 1752.4000000 191.04385376 1.0000000000 0.1964000016
 1752.4500000 193.38351440 1.0000000000 0.1964000016
 1752.5000000 191.04385376 1.0000000000 0.1964000016
 1752.5500000 188.77941895 1.0000000000 0.1964000016
 1752.6000000 186.48471069 1.0000000000 0.1964000016
 1752.6500000 191.04385376 1.0000000000 0.1964000016
 1752.7000000 195.74609375 1.0000000000 0.1964000016
 1752.7500000 200.43106079 1.0000000000 0.1964000016
 1752.8000000 211.50331116 1.0000000000 0.2023999989
 1752.8500000 223.00230408 1.0000000000 0.2023999989
 1752.9000000 234.99888611 1.0000000000 0.2023999989
 1752.9500000 236.31443787 1.0000000000 0.2023999989
 1753.0000000 237.69897461 1.0000000000 0.2023999989
 1753.0500000 239.09001160 1.0000000000 0.2023999989
 1753.1000000 233.62702942 1.0000000000 0.2023999989
 1753.1500000 228.26499939 1.0000000000 0.2023999989
 1753.2000000 223.00230408 1.0000000000 0.2023999989
 1753.2500000 230.90264893 1.0000000000 0.2023999989
 1753.3000000 239.09001160 1.0000000000 0.2023999989
 1753.3500000 247.50929260 1.0000000000 0.2082999945
 1753.4000000 285.06222534 1.0000000000 0.2143000066
