# LAS format log file from PETREL
# Project units are specified as depth units
#==================================================================
~Version information
VERS.   2.0:
WRAP.   NO:
#==================================================================
~Well
STRT .m      1610.0000000 :
STOP .m      1780.0000000 :
STEP .m     0.05000000 :
NULL .        -999.250000 :
COMP.           : COMPANY
WELL.  B_IPE   : WELL
FLD.            : FIELD
LOC.            : LOCATION
SRVC.           : SERVICE COMPANY
DATE.  Friday, March 30 2012 17:03:38   : DATE
PROV.           : PROVINCE
UWI.      : UNIQUE WELL ID
API.            : API NUMBER
#==================================================================
~Curve
DEPT .m                   : DEPTH
Permeability*** .mD       : Permeability ***
NTG*** .                  : NTG ***
PORDENS268*** .m3/m3      : POR DENS 268 ***
~Parameter
#==================================================================
~Ascii
# ...
 1677.9500000 1087.1564941 1.0000000000 0.2678999901
 1678.0000000 1042.4862061 1.0000000000 0.2619000077
 1678.0500000 999.30480957 1.0000000000 0.2619000077
 1678.1000000 957.38018799 1.0000000000 0.2619000077
 1678.1500000 811.33959961 1.0000000000 0.2500000000
 1678.2000000 683.77752686 1.0000000000 0.2440000027
 1678.2500000 572.86791992 1.0000000000 0.2381000072
 1678.3000000 439.59823608 1.0000000000 0.2261999995
 1678.3500000 332.56799316 1.0000000000 0.2143000066
 1678.4000000 247.50929260 1.0000000000 0.2082999945
 1678.4500000 179.78526306 1.0000000000 0.1964000016
 1678.5000000 127.87334442 1.0000000000 0.1844999939
 1678.5500000 49.337219238 1.0000000000 0.1726000011
 1678.6000000 38.040424347 1.0000000000 0.1667000055
 1678.6500000 28.962030411 1.0000000000 0.1606999934
 1678.7000000 21.745296478 1.0000000000 0.1547999978
 1678.7500000 22.139463425 1.0000000000 0.1547999978
 1678.8000000 22.530342102 1.0000000000 0.1547999978
 1678.8500000 22.936162949 1.0000000000 0.1547999978
 1678.9000000 29.712688446 1.0000000000 0.1606999934
 1678.9500000 38.040424347 1.0000000000 0.1667000055
 1679.0000000 86.893913269 1.0000000000 0.1726000011
 1679.0500000 106.15847015 1.0000000000 0.1785999984
 1679.1000000 128.67993164 1.0000000000 0.1844999939
 1679.1500000 154.93901062 1.0000000000 0.1905000061
 1679.2000000 162.92369080 1.0000000000 0.1905000061
 1679.2500000 171.18754578 1.0000000000 0.1964000016
 1679.3000000 179.78526306 1.0000000000 0.1964000016
 1679.3500000 167.01448059 1.0000000000 0.1905000061
 1679.4000000 154.93901062 1.0000000000 0.1905000061
 1679.4500000 143.61798096 1.0000000000 0.1905000061
 1679.5000000 139.99586487 1.0000000000 0.1905000061
 1679.5500000 136.40722656 1.0000000000 0.1844999939
 1679.6000000 132.97204590 1.0000000000 0.1844999939
 1679.6500000 149.21379089 1.0000000000 0.1905000061
 1679.7000000 167.01448059 1.0000000000 0.1905000061
 1679.7500000 186.48471069 1.0000000000 0.1964000016
 1679.8000000 212.71195984 1.0000000000 0.2023999989
 1679.8500000 241.89175415 1.0000000000 0.2082999945
 1679.9000000 274.13732910 1.0000000000 0.2082999945
 1679.9500000 280.34832764 1.0000000000 0.2082999945
 1680.0000000 286.67202759 1.0000000000 0.2143000066
 1680.0500000 293.10995483 1.0000000000 0.2143000066
 1680.1000000 285.06222534 1.0000000000 0.2143000066
 1680.1500000 277.26452637 1.0000000000 0.2082999945
 1680.2000000 269.56964111 1.0000000000 0.2082999945
 1680.2500000 283.53234863 1.0000000000 0.2082999945
 1680.3000000 298.07095337 1.0000000000 0.2143000066
 1680.3500000 313.20336914 1.0000000000 0.2143000066
 1680.4000000 358.46701050 1.0000000000 0.2202000022
 1680.4500000 408.94705200 1.0000000000 0.2261999995
 1680.5000000 464.99380493 1.0000000000 0.2320999950
 1680.5500000 519.20727539 1.0000000000 0.2320999950
 1680.6000000 578.52178955 1.0000000000 0.2381000072
 1680.6500000 643.02813721 1.0000000000 0.2440000027
 1680.7000000 643.02813721 1.0000000000 0.2440000027
 1680.7500000 643.02813721 1.0000000000 0.2440000027
 1680.8000000 643.02813721 1.0000000000 0.2440000027
 1680.8500000 553.67706299 1.0000000000 0.2381000072
 1680.9000000 474.48562622 1.0000000000 0.2320999950
 1680.9500000 404.76782227 1.0000000000 0.2261999995
 1681.0000000 304.71356201 1.0000000000 0.2143000066
 1681.0500000 225.59107971 1.0000000000 0.2023999989
 1681.1000000 163.95039368 1.0000000000 0.1905000061
 1681.1500000 132.30126953 1.0000000000 0.1844999939
 1681.2000000 105.79613495 1.0000000000 0.1785999984
 1681.2500000 46.296211243 1.0000000000 0.1726000011
 1681.3000000 35.361541748 1.0000000000 0.1667000055
 1681.3500000 30.987388611 1.0000000000 0.1606999934
 1681.4000000 27.057413101 1.0000000000 0.1606999934
 1681.4500000 23.556142807 1.0000000000 0.1547999978
 1681.5000000 24.394371033 1.0000000000 0.1547999978
 1681.5500000 25.256944656 1.0000000000 0.1606999934
 1681.6000000 26.144443512 1.0000000000 0.1606999934
 1681.6500000 25.478994370 1.0000000000 0.1606999934
 1681.7000000 24.817630768 1.0000000000 0.1547999978
 1681.7500000 24.180126190 1.0000000000 0.1547999978
 1681.8000000 20.793581009 1.0000000000 0.1547999978
 1681.8500000 17.814498901 1.0000000000 0.1488000005
 1681.9000000 15.195508003 1.0000000000 0.1488000005
 1681.9500000 12.648878098 1.0000000000 0.1429000050
 1682.0000000 10.463984489 1.0000000000 0.1368999928
 1682.0500000 8.4632673264 1.0000000000 0.1368999928
 1682.1000000 7.9873871803 1.0000000000 0.1368999928
 1682.1500000 7.4080653191 1.0000000000 0.1309999973
 1682.2000000 6.8637328148 1.0000000000 0.1309999973
 1682.2500000 8.0697259903 1.0000000000 0.1368999928
 1682.3000000 9.4446649551 1.0000000000 0.1368999928
 1682.3500000 11.006547928 1.0000000000 0.1429000050
 1682.4000000 14.763467789 1.0000000000 0.1488000005
 1682.4500000 19.523801804 1.0000000000 0.1547999978
 1682.5000000 25.478994370 1.0000000000 0.1606999934
 1682.5500000 31.502452850 1.0000000000 0.1606999934
 1682.6000000 38.664157867 1.0000000000 0.1667000055
 1682.6500000 85.084175110 1.0000000000 0.1726000011
 1682.7000000 89.364509583 1.0000000000 0.1726000011
 1682.7500000 93.846183777 1.0000000000 0.1785999984
 1682.8000000 98.475891113 1.0000000000 0.1785999984
 1682.8500000 93.846183777 1.0000000000 0.1785999984
 1682.9000000 89.364509583 1.0000000000 0.1726000011
 1682.9500000 85.084175110 1.0000000000 0.1726000011
 1683.0000000 79.234649658 1.0000000000 0.1726000011
 1683.0500000 73.713035583 1.0000000000 0.1667000055
 1683.1000000 68.505195618 1.0000000000 0.1667000055
 1683.1500000 65.052459717 1.0000000000 0.1667000055
 1683.2000000 61.719738007 1.0000000000 0.1667000055
 1683.2500000 58.546211243 1.0000000000 0.1606999934
 1683.3000000 58.546211243 1.0000000000 0.1606999934
 1683.3500000 58.546211243 1.0000000000 0.1606999934
 1683.4000000 58.546211243 1.0000000000 0.1606999934
 1683.4500000 60.808254242 1.0000000000 0.1667000055
 1683.5000000 63.118392944 1.0000000000 0.1667000055
 1683.5500000 65.520973206 1.0000000000 0.1667000055
 1683.6000000 72.103866577 1.0000000000 0.1667000055
 1683.6500000 79.234649658 1.0000000000 0.1726000011
 1683.7000000 86.893913269 1.0000000000 0.1726000011
 1683.7500000 99.849784851 1.0000000000 0.1785999984
 1683.8000000 114.28095245 1.0000000000 0.1844999939
 1683.8500000 130.38319397 1.0000000000 0.1844999939
 1683.9000000 149.21379089 1.0000000000 0.1905000061
 1683.9500000 170.12446594 1.0000000000 0.1964000016
 1684.0000000 193.38351440 1.0000000000 0.1964000016
 1684.0500000 202.86264038 1.0000000000 0.2023999989
 1684.1000000 212.71195984 1.0000000000 0.2023999989
 1684.1500000 223.00230408 1.0000000000 0.2023999989
 1684.2000000 204.08729553 1.0000000000 0.2023999989
 1684.2500000 186.48471069 1.0000000000 0.1964000016
 1684.3000000 170.12446594 1.0000000000 0.1964000016
 1684.3500000 142.23530579 1.0000000000 0.1905000061
 1684.4000000 118.14758301 1.0000000000 0.1844999939
 1684.4500000 97.455474854 1.0000000000 0.1785999984
 1684.5000000 79.809860229 1.0000000000 0.1726000011
 1684.5500000 30.221954346 1.0000000000 0.1606999934
 1684.6000000 20.242528915 1.0000000000 0.1547999978
 1684.6500000 13.152557373 1.0000000000 0.1429000050
 1684.7000000 8.8724431992 1.0000000000 0.1368999928
 1684.7500000 5.8129806519 1.0000000000 0.1309999973
 1684.8000000 3.6773929596 1.0000000000 0.1190999970
 1684.8500000 2.6500575542 1.0000000000 0.1130999997
 1684.9000000 1.7091914415 1.0000000000 0.1130999997
 1684.9500000 0.9884447455 1.0000000000 0.1071000025
 1685.0000000 0.0010000000 0.0000000000 0.1011999995
 1685.0500000 0.0010000000 0.0000000000 0.1011999995
 1685.1000000 0.0010000000 0.0000000000 0.0952000022
 1685.1500000 0.0010000000 0.0000000000 0.0952000022
 1685.2000000 0.0010000000 0.0000000000 0.0892999992
 1685.2500000 0.0010000000 0.0000000000 0.0892999992
 1685.3000000 0.0010000000 0.0000000000 0.0892999992
 1685.3500000 0.0010000000 0.0000000000 0.0892999992
 1685.4000000 0.0010000000 0.0000000000 0.0892999992
 1685.4500000 0.0010000000 0.0000000000 0.0892999992
