# LAS format log file from PETREL
# Project units are specified as depth units
#==================================================================
~Version information
VERS.   2.0:
WRAP.   NO:
#==================================================================
~Well
STRT .m      1580.0000000 :
STOP .m      1760.0000000 :
STEP .m     0.05000000 :
NULL .        -999.250000 :
COMP.           : COMPANY
WELL.  A_IPE   : WELL
FLD.            : FIELD
LOC.            : LOCATION
SRVC.           : SERVICE COMPANY
DATE.  Friday, March 30 2012 17:03:22   : DATE
PROV.           : PROVINCE
UWI.      : UNIQUE WELL ID
API.            : API NUMBER
#==================================================================
~Curve
DEPT .m                   : DEPTH
Permeability*** .mD       : Permeability ***
NTG*** .                  : NTG ***
PORDENS268*** .m3/m3      : POR DENS 268 ***
~Parameter
#==================================================================
~Ascii
# ...
 1708.3500000 0.0010000000 0.0000000000 0.0952000022
 1708.4000000 0.0010000000 0.0000000000 0.0952000022
 1708.4500000 0.0010000000 0.0000000000 0.0952000022
 1708.5000000 0.0010000000 0.0000000000 0.0952000022
 1708.5500000 0.0010000000 0.0000000000 0.0892999992
 1708.6000000 0.0010000000 0.0000000000 0.0892999992
 1708.6500000 0.0010000000 0.0000000000 0.0892999992
 1708.7000000 0.0010000000 0.0000000000 0.0833000019
 1708.7500000 0.0010000000 0.0000000000 0.0833000019
 1708.8000000 0.0010000000 0.0000000000 0.0833000019
 1708.8500000 0.0010000000 0.0000000000 0.0833000019
 1708.9000000 0.0010000000 0.0000000000 0.0833000019
 1708.9500000 0.0010000000 0.0000000000 0.0892999992
 1709.0000000 0.0010000000 0.0000000000 0.0892999992
 1709.0500000 0.0010000000 0.0000000000 0.0952000022
 1709.1000000 0.0010000000 0.0000000000 0.1011999995
 1709.1500000 0.0010000000 0.0000000000 0.1071000025
 1709.2000000 9.1178159714 1.0000000000 0.1130999997
 1709.2500000 11.482294083 1.0000000000 0.1190999970
 1709.3000000 14.335269928 1.0000000000 0.1250000000
 1709.3500000 16.575752258 1.0000000000 0.1309999973
 1709.4000000 19.096345901 1.0000000000 0.1368999928
 1709.4500000 21.932689667 1.0000000000 0.1429000050
 1709.5000000 24.102600098 1.0000000000 0.1488000005
 1709.5500000 27.854419708 1.0000000000 0.1488000005
 1709.6000000 32.085693359 1.0000000000 0.1547999978
 1709.6500000 33.697269440 1.0000000000 0.1547999978
 1709.7000000 35.374801636 1.0000000000 0.1547999978
 1709.7500000 37.120349884 1.0000000000 0.1547999978
 1709.8000000 38.936088562 1.0000000000 0.1606999934
 1709.8500000 39.557285309 1.0000000000 0.1606999934
 1709.9000000 40.186626434 1.0000000000 0.1606999934
 1709.9500000 40.824172974 1.0000000000 0.1606999934
 1710.0000000 41.470008850 1.0000000000 0.1606999934
 1710.0500000 42.124214172 1.0000000000 0.1606999934
 1710.1000000 42.786880493 1.0000000000 0.1606999934
 1710.1500000 45.523818970 1.0000000000 0.1606999934
 1710.2000000 48.403026581 1.0000000000 0.1667000055
 1710.2500000 51.430229187 1.0000000000 0.1667000055
 1710.3000000 100.00685883 1.0000000000 0.1667000055
 1710.3500000 108.38706207 1.0000000000 0.1726000011
 1710.4000000 117.32306671 1.0000000000 0.1726000011
 1710.4500000 124.42501068 1.0000000000 0.1726000011
 1710.5000000 131.82945251 1.0000000000 0.1785999984
 1710.5500000 139.62538147 1.0000000000 0.1785999984
 1710.6000000 144.12344360 1.0000000000 0.1785999984
 1710.6500000 148.69401550 1.0000000000 0.1785999984
 1710.7000000 153.38052368 1.0000000000 0.1785999984
 1710.7500000 153.38052368 1.0000000000 0.1785999984
 1710.8000000 153.38052368 1.0000000000 0.1785999984
 1710.8500000 153.38052368 1.0000000000 0.1785999984
 1710.9000000 140.49104309 1.0000000000 0.1785999984
 1710.9500000 128.48754883 1.0000000000 0.1726000011
 1711.0000000 117.32306671 1.0000000000 0.1726000011
 1711.0500000 93.428741455 1.0000000000 0.1667000055
 1711.1000000 73.614669800 1.0000000000 0.1606999934
 1711.1500000 30.537984848 1.0000000000 0.1547999978
 1711.2000000 20.767881393 1.0000000000 0.1429000050
 1711.2500000 13.727359772 1.0000000000 0.1368999928
 1711.3000000 9.0483827591 1.0000000000 0.1250000000
 1711.3500000 6.6359486580 1.0000000000 0.1190999970
 1711.4000000 4.7792310715 1.0000000000 0.1130999997
 1711.4500000 3.3725361824 1.0000000000 0.1071000025
 1711.5000000 2.9501111507 1.0000000000 0.1011999995
 1711.5500000 2.5706357956 1.0000000000 0.1011999995
 1711.6000000 2.2336003780 1.0000000000 0.0952000022
 1711.6500000 2.4752380848 1.0000000000 0.1011999995
 1711.7000000 2.7363383770 1.0000000000 0.1011999995
 1711.7500000 3.0196604729 1.0000000000 0.1011999995
 1711.8000000 3.5915381908 1.0000000000 0.1071000025
 1711.8500000 4.2495713234 1.0000000000 0.1071000025
 1711.9000000 5.0036087036 1.0000000000 0.1130999997
 1711.9500000 5.6407065392 1.0000000000 0.1130999997
 1712.0000000 6.3430137634 1.0000000000 0.1190999970
 1712.0500000 7.1156396866 1.0000000000 0.1190999970
 1712.1000000 7.1405296326 1.0000000000 0.1190999970
 1712.1500000 7.1619215012 1.0000000000 0.1190999970
 1712.2000000 7.1869468689 1.0000000000 0.1190999970
 1712.2500000 6.6729135513 1.0000000000 0.1190999970
 1712.3000000 6.1894903183 1.0000000000 0.1190999970
 1712.3500000 5.7352285385 1.0000000000 0.1130999997
 1712.4000000 5.5619535446 1.0000000000 0.1130999997
 1712.4500000 5.3930058479 1.0000000000 0.1130999997
 1712.5000000 5.2282986641 1.0000000000 0.1130999997
 1712.5500000 5.7919631004 1.0000000000 0.1190999970
 1712.6000000 6.4046397209 1.0000000000 0.1190999970
 1712.6500000 7.0696039200 1.0000000000 0.1190999970
 1712.7000000 8.5125207901 1.0000000000 0.1250000000
 1712.7500000 10.547126770 1.0000000000 0.1309999973
 1712.8000000 12.959600449 1.0000000000 0.1309999973
 1712.8500000 16.035324097 1.0000000000 0.1368999928
 1712.9000000 19.687143326 1.0000000000 0.1429000050
 1712.9500000 23.996339798 1.0000000000 0.1488000005
 1713.0000000 29.052185059 1.0000000000 0.1488000005
 1713.0500000 40.511779785 1.0000000000 0.1606999934
 1713.1000000 55.431358337 1.0000000000 0.1667000055
 1713.1500000 129.33584595 1.0000000000 0.1726000011
 1713.2000000 167.25210571 1.0000000000 0.1844999939
 1713.2500000 213.57878113 1.0000000000 0.1905000061
 1713.3000000 269.77908325 1.0000000000 0.2023999989
 1713.3500000 296.33450317 1.0000000000 0.2023999989
 1713.4000000 324.87210083 1.0000000000 0.2082999945
 1713.4500000 355.66677856 1.0000000000 0.2082999945
 1713.5000000 319.63467407 1.0000000000 0.2082999945
 1713.5500000 286.74536133 1.0000000000 0.2023999989
 1713.6000000 256.50051880 1.0000000000 0.1964000016
 1713.6500000 208.64759827 1.0000000000 0.1905000061
 1713.7000000 168.25297546 1.0000000000 0.1844999939
 1713.7500000 134.40145874 1.0000000000 0.1785999984
 1713.8000000 121.23524475 1.0000000000 0.1726000011
 1713.8500000 61.899536133 1.0000000000 0.1726000011
 1713.9000000 55.029621124 1.0000000000 0.1667000055
 1713.9500000 61.022296906 1.0000000000 0.1726000011
 1714.0000000 67.518638611 1.0000000000 0.1726000011
 1714.0500000 129.33584595 1.0000000000 0.1726000011
 1714.1000000 153.38052368 1.0000000000 0.1785999984
 1714.1500000 180.94726563 1.0000000000 0.1844999939
 1714.2000000 212.36608887 1.0000000000 0.1905000061
 1714.2500000 241.06124878 1.0000000000 0.1964000016
 1714.3000000 272.79580688 1.0000000000 0.2023999989
 1714.3500000 307.80734253 1.0000000000 0.2023999989
 1714.4000000 335.47067261 1.0000000000 0.2082999945
 1714.4500000 365.09960938 1.0000000000 0.2082999945
 1714.5000000 396.79776001 1.0000000000 0.2143000066
 1714.5500000 419.89630127 1.0000000000 0.2143000066
 1714.6000000 443.95999146 1.0000000000 0.2202000022
 1714.6500000 469.22967529 1.0000000000 0.2202000022
 1714.7000000 485.81192017 1.0000000000 0.2202000022
 1714.7500000 502.97772217 1.0000000000 0.2261999995
 1714.8000000 520.62786865 1.0000000000 0.2261999995
 1714.8500000 525.74420166 1.0000000000 0.2261999995
 1714.9000000 530.78051758 1.0000000000 0.2261999995
 1714.9500000 536.09820557 1.0000000000 0.2261999995
 1715.0000000 530.78051758 1.0000000000 0.2261999995
 1715.0500000 525.74420166 1.0000000000 0.2261999995
 1715.1000000 520.62786865 1.0000000000 0.2261999995
 1715.1500000 510.51556396 1.0000000000 0.2261999995
 1715.2000000 500.44683838 1.0000000000 0.2261999995
 1715.2500000 490.76443481 1.0000000000 0.2202000022
 1715.3000000 485.81192017 1.0000000000 0.2202000022
 1715.3500000 481.12222290 1.0000000000 0.2202000022
 1715.4000000 476.35852051 1.0000000000 0.2202000022
 1715.4500000 483.46258545 1.0000000000 0.2202000022
 1715.5000000 490.76443481 1.0000000000 0.2202000022
 1715.5500000 498.04055786 1.0000000000 0.2202000022
 1715.6000000 507.95419312 1.0000000000 0.2261999995
 1715.6500000 518.02575684 1.0000000000 0.2261999995
 1715.7000000 528.25756836 1.0000000000 0.2261999995
 1715.7500000 541.33612061 1.0000000000 0.2261999995
 1715.8000000 554.54943848 1.0000000000 0.2261999995
 1715.8500000 568.14782715 1.0000000000 0.2261999995
