# LAS format log file from PETREL
# Project units are specified as depth units
#==================================================================
~Version information
VERS.   2.0:
WRAP.   NO:
#==================================================================
~Well
STRT .m      1610.0000000 :
STOP .m      1780.0000000 :
STEP .m     0.05000000 :
NULL .        -999.250000 :
COMP.           : COMPANY
WELL.  B_IPE   : WELL
FLD.            : FIELD
LOC.            : LOCATION
SRVC.           : SERVICE COMPANY
DATE.  Friday, March 30 2012 17:03:38   : DATE
PROV.           : PROVINCE
UWI.      : UNIQUE WELL ID
API.            : API NUMBER
#==================================================================
~Curve
DEPT .m                   : DEPTH
Permeability*** .mD       : Permeability ***
NTG*** .                  : NTG ***
PORDENS268*** .m3/m3      : POR DENS 268 ***
~Parameter
#==================================================================
~Ascii
 1610.0000000 0.0000000005 1.0000000000  -999.250000
 1610.0500000 0.0000000005 1.0000000000  -999.250000
 1610.1000000 0.0000000005 1.0000000000  -999.250000
 1610.1500000 0.0000000005 1.0000000000  -999.250000
 1610.2000000 0.0000000005 1.0000000000  -999.250000
 1610.2500000 0.0000000005 1.0000000000  -999.250000
 1610.3000000 0.0000000005 1.0000000000  -999.250000
 1610.3500000 0.0000000005 1.0000000000  -999.250000
 1610.4000000 0.0000000005 1.0000000000  -999.250000
 1610.4500000 0.0000000005 1.0000000000  -999.250000
 1610.5000000 0.0000000005 1.0000000000  -999.250000
 1610.5500000 0.0000000005 1.0000000000  -999.250000
 1610.6000000 0.0000000005 1.0000000000  -999.250000
 1610.6500000 0.0000000005 1.0000000000  -999.250000
 1610.7000000 0.0000000005 1.0000000000  -999.250000
 1610.7500000 0.0000000005 1.0000000000  -999.250000
 1610.8000000 0.0000000005 1.0000000000  -999.250000
 1610.8500000 0.0000000005 1.0000000000  -999.250000
 1610.9000000 0.0000000005 1.0000000000  -999.250000
 1610.9500000 0.0000000005 1.0000000000  -999.250000
 1611.0000000 0.0000000005 1.0000000000  -999.250000
 1611.0500000 0.0000000005 1.0000000000  -999.250000
 1611.1000000 0.0000000005 1.0000000000  -999.250000
 1611.1500000 0.0000000005 1.0000000000  -999.250000
 1611.2000000 0.0000000005 1.0000000000  -999.250000
 1611.2500000 0.0000000005 1.0000000000  -999.250000
 1611.3000000 0.0000000005 1.0000000000  -999.250000
 1611.3500000 0.0000000005 1.0000000000  -999.250000
 1611.4000000 0.0000000005 1.0000000000  -999.250000
 1611.4500000 0.0000000005 1.0000000000  -999.250000
 1611.5000000 0.0000000005 1.0000000000  -999.250000
 1611.5500000 0.0000000005 1.0000000000  -999.250000
 1611.6000000 0.0000000005 1.0000000000  -999.250000
 1611.6500000 0.0000000005 1.0000000000  -999.250000
 1611.7000000 0.0000000005 1.0000000000  -999.250000
 1611.7500000 0.0000000005 1.0000000000  -999.250000
 1611.8000000 0.0000000005 1.0000000000  -999.250000
 1611.8500000 0.0000000005 1.0000000000  -999.250000
 1611.9000000 0.0000000005 1.0000000000  -999.250000
 1611.9500000 0.0000000005 1.0000000000  -999.250000
 1612.0000000 0.0000000005 1.0000000000  -999.250000
 1612.0500000 0.0000000005 1.0000000000  -999.250000
 1612.1000000 0.0000000005 1.0000000000  -999.250000
 1612.1500000 0.0000000005 1.0000000000  -999.250000
 1612.2000000 0.0000000005 1.0000000000  -999.250000
 1612.2500000 0.0000000005 1.0000000000  -999.250000
 1612.3000000 0.0000000005 1.0000000000  -999.250000
 1612.3500000 0.0000000005 1.0000000000  -999.250000
 1612.4000000 0.0000000005 1.0000000000  -999.250000
 1612.4500000 0.0000000005 1.0000000000  -999.250000
 1612.5000000 0.0000000005 1.0000000000  -999.250000
 1612.5500000 0.0000000005 1.0000000000  -999.250000
 1612.6000000 0.0000000005 1.0000000000  -999.250000
 1612.6500000 0.0000000005 1.0000000000  -999.250000
 1612.7000000 0.0000000005 1.0000000000  -999.250000
 1612.7500000 0.0000000005 1.0000000000  -999.250000
 1612.8000000 0.0000000005 1.0000000000  -999.250000
 1612.8500000 0.0000000005 1.0000000000  -999.250000
 1612.9000000 0.0000000005 1.0000000000  -999.250000
 1612.9500000 0.0000000005 1.0000000000  -999.250000
 1613.0000000 0.0000000005 1.0000000000  -999.250000
 1613.0500000 0.0000000005 1.0000000000  -999.250000
 1613.1000000 0.0000000005 1.0000000000  -999.250000
 1613.1500000 0.0000000005 1.0000000000  -999.250000
 1613.2000000 0.0000000005 1.0000000000  -999.250000
 1613.2500000 0.0000000005 1.0000000000  -999.250000
 1613.3000000 0.0000000005 1.0000000000  -999.250000
 1613.3500000 0.0000000005 1.0000000000  -999.250000
 1613.4000000 0.0000000005 1.0000000000  -999.250000
 1613.4500000 0.0000000005 1.0000000000  -999.250000
 1613.5000000 0.0000000005 1.0000000000  -999.250000
 1613.5500000 0.0000000005 1.0000000000  -999.250000
 1613.6000000 0.0000000005 1.0000000000  -999.250000
 1613.6500000 0.0000000005 1.0000000000  -999.250000
 1613.7000000 0.0000000005 1.0000000000  -999.250000
 1613.7500000 0.0000000005 1.0000000000  -999.250000
 1613.8000000 0.0000000005 1.0000000000  -999.250000
 1613.8500000 0.0000000005 1.0000000000  -999.250000
 1613.9000000 0.0000000005 1.0000000000  -999.250000
 1613.9500000 0.0000000005 1.0000000000  -999.250000
 1614.0000000 0.0000000005 1.0000000000  -999.250000
 1614.0500000 0.0000000005 1.0000000000  -999.250000
 1614.1000000 0.0000000005 1.0000000000  -999.250000
 1614.1500000 0.0000000005 1.0000000000  -999.250000
 1614.2000000 0.0000000005 1.0000000000  -999.250000
 1614.2500000 0.0000000005 1.0000000000  -999.250000
 1614.3000000 0.0000000005 1.0000000000  -999.250000
 1614.3500000 0.0000000005 1.0000000000  -999.250000
 1614.4000000 0.0000000005 1.0000000000  -999.250000
 1614.4500000 0.0000000005 1.0000000000  -999.250000
 1614.5000000 0.0000000005 1.0000000000  -999.250000
 1614.5500000 0.0000000005 1.0000000000  -999.250000
 1614.6000000 0.0000000005 1.0000000000  -999.250000
 1614.6500000 0.0000000005 1.0000000000  -999.250000
 1614.7000000 0.0000000005 1.0000000000  -999.250000
 1614.7500000 0.0000000005 1.0000000000  -999.250000
 1614.8000000 0.0000000005 1.0000000000  -999.250000
 1614.8500000 0.0000000005 1.0000000000  -999.250000
 1614.9000000 0.0000000005 1.0000000000  -999.250000
 1614.9500000 0.0000000005 1.0000000000  -999.250000
 1615.0000000 0.0010000000 0.0000000000 0.1011999995
 1615.0500000 0.0010000000 0.0000000000 0.1011999995
 1615.1000000 0.0010000000 0.0000000000 0.0952000022
 1615.1500000 0.0010000000 0.0000000000 0.0952000022
 1615.2000000 0.0010000000 0.0000000000 0.0952000022
 1615.2500000 0.0010000000 0.0000000000 0.0952000022
 1615.3000000 0.0010000000 0.0000000000 0.0952000022
 1615.3500000 0.0010000000 0.0000000000 0.0952000022
 1615.4000000 0.0010000000 0.0000000000 0.0892999992
 1615.4500000 0.0010000000 0.0000000000 0.0892999992
 1615.5000000 0.0010000000 0.0000000000 0.0892999992
 1615.5500000 0.0010000000 0.0000000000 0.0892999992
 1615.6000000 0.0010000000 0.0000000000 0.0892999992
 1615.6500000 0.0010000000 0.0000000000 0.0892999992
 1615.7000000 0.0010000000 0.0000000000 0.0892999992
 1615.7500000 0.0010000000 0.0000000000 0.0892999992
 1615.8000000 0.0010000000 0.0000000000 0.0952000022
 1615.8500000 0.0010000000 0.0000000000 0.0952000022
 1615.9000000 0.0010000000 0.0000000000 0.0952000022
 1615.9500000 0.0010000000 0.0000000000 0.1011999995
 1616.0000000 0.0010000000 0.0000000000 0.1011999995
 1616.0500000 0.0010000000 0.0000000000 0.1071000025
 1616.1000000 0.0010000000 0.0000000000 0.1071000025
 1616.1500000 0.0010000000 0.0000000000 0.1071000025
 1616.2000000 0.0010000000 0.0000000000 0.1071000025
 1616.2500000 0.0010000000 0.0000000000 0.1071000025
 1616.3000000 0.0010000000 0.0000000000 0.1071000025
 1616.3500000 0.0010000000 0.0000000000 0.1011999995
 1616.4000000 0.0010000000 0.0000000000 0.1011999995
 1616.4500000 0.0010000000 0.0000000000 0.0952000022
 1616.5000000 0.0010000000 0.0000000000 0.0952000022
 1616.5500000 0.0010000000 0.0000000000 0.0952000022
 1616.6000000 0.0010000000 0.0000000000 0.0892999992
 1616.6500000 0.0010000000 0.0000000000 0.0892999992
 1616.7000000 0.0010000000 0.0000000000 0.0892999992
 1616.7500000 0.0010000000 0.0000000000 0.0892999992
 1616.8000000 0.0010000000 0.0000000000 0.0892999992
 1616.8500000 0.0010000000 0.0000000000 0.0892999992
 1616.9000000 0.0010000000 0.0000000000 0.0892999992
 1616.9500000 0.0010000000 0.0000000000 0.0892999992
 1617.0000000 0.0010000000 0.0000000000 0.0892999992
 1617.0500000 0.0010000000 0.0000000000 0.0892999992
 1617.1000000 0.0010000000 0.0000000000 0.0892999992
 1617.1500000 0.0010000000 0.0000000000 0.0892999992
 1617.2000000 0.0010000000 0.0000000000 0.0892999992
 1617.2500000 0.0010000000 0.0000000000 0.0892999992
 1617.3000000 0.0010000000 0.0000000000 0.0892999992
 1617.3500000 0.0010000000 0.0000000000 0.0892999992
 1617.4000000 0.0010000000 0.0000000000 0.0892999992
 1617.4500000 0.0010000000 0.0000000000 0.0892999992
 1617.5000000 0.0010000000 0.0000000000 0.0892999992
