# LAS format log file from PETREL
# Project units are specified as depth units
#==================================================================
~Version information
VERS.   2.0:
WRAP.   NO:
#==================================================================
~Well
STRT .m      1610.0000000 :
STOP .m      1780.0000000 :
STEP .m     0.05000000 :
NULL .        -999.250000 :
COMP.           : COMPANY
WELL.  B_IPE   : WELL
FLD.            : FIELD
LOC.            : LOCATION
SRVC.           : SERVICE COMPANY
DATE.  Friday, March 30 2012 17:03:38   : DATE
PROV.           : PROVINCE
UWI.      : UNIQUE WELL ID
API.            : API NUMBER
#==================================================================
~Curve
DEPT .m                   : DEPTH
Permeability*** .mD       : Permeability ***
NTG*** .                  : NTG ***
PORDENS268*** .m3/m3      : POR DENS 268 ***
~Parameter
#==================================================================
~Ascii
# ...
 1768.5500000 17.649063110 1.0000000000  -999.250000
 1768.6000000 30.467531204 1.0000000000  -999.250000
 1768.6500000 51.268058777 1.0000000000  -999.250000
 1768.7000000 82.540679932 1.0000000000  -999.250000
 1768.7500000 128.06629944 1.0000000000  -999.250000
 1768.8000000 155.08174133 1.0000000000  -999.250000
 1768.8500000 186.66644287 1.0000000000  -999.250000
 1768.9000000 223.29577637 1.0000000000  -999.250000
 1768.9500000 188.91543579 1.0000000000  -999.250000
 1769.0000000 159.01011658 1.0000000000  -999.250000
 1769.0500000 133.11013794 1.0000000000  -999.250000
 1769.1000000 92.269233704 1.0000000000  -999.250000
 1769.1500000 62.342025757 1.0000000000  -999.250000
 1769.2000000 40.883892059 1.0000000000  -999.250000
 1769.2500000 32.839664459 1.0000000000  -999.250000
 1769.3000000 26.144443512 1.0000000000  -999.250000
 1769.3500000 20.614215851 1.0000000000  -999.250000
 1769.4000000 23.141313553 1.0000000000  -999.250000
 1769.4500000 25.917634964 1.0000000000  -999.250000
 1769.5000000 28.962030411 1.0000000000  -999.250000
 1769.5500000 31.502452850 1.0000000000  -999.250000
 1769.6000000 34.223194122 1.0000000000  -999.250000
 1769.6500000 37.134151459 1.0000000000  -999.250000
 1769.7000000 27.756479263 1.0000000000  -999.250000
 1769.7500000 20.427677155 1.0000000000  -999.250000
 1769.8000000 14.763467789 1.0000000000  -999.250000
 1769.8500000 7.8979949951 1.0000000000  -999.250000
 1769.9000000 0.0010000000 0.0000000000  -999.250000
 1769.9500000 0.0010000000 0.0000000000  -999.250000
 1770.0000000 0.0010000000 0.0000000000  -999.250000
 1770.0500000 0.0010000000 0.0000000000  -999.250000
 1770.1000000 0.0010000000 0.0000000000  -999.250000
 1770.1500000 0.0010000000 0.0000000000  -999.250000
 1770.2000000 0.0010000000 0.0000000000  -999.250000
 1770.2500000 0.0010000000 0.0000000000  -999.250000
 1770.3000000 0.0010000000 0.0000000000  -999.250000
 1770.3500000 0.0010000000 0.0000000000  -999.250000
 1770.4000000 0.0010000000 0.0000000000  -999.250000
 1770.4500000 0.0010000000 0.0000000000  -999.250000
 1770.5000000 0.0010000000 0.0000000000  -999.250000
 1770.5500000 0.0010000000 0.0000000000  -999.250000
 1770.6000000 0.0010000000 0.0000000000  -999.250000
 1770.6500000 0.0010000000 0.0000000000  -999.250000
 1770.7000000 0.0010000000 0.0000000000  -999.250000
 1770.7500000 0.0010000000 0.0000000000  -999.250000
 1770.8000000 0.0010000000 0.0000000000  -999.250000
 1770.8500000 0.0010000000 0.0000000000  -999.250000
 1770.9000000 0.0010000000 0.0000000000  -999.250000
 1770.9500000 0.0010000000 0.0000000000  -999.250000
 1771.0000000 0.0010000000 0.0000000000  -999.250000
 1771.0500000 5.2476210594 1.0000000000  -999.250000
 1771.1000000 5.3059401512 1.0000000000  -999.250000
 1771.1500000 5.3676080704 1.0000000000  -999.250000
 1771.2000000 5.4298639297 1.0000000000  -999.250000
 1771.2500000 0.0010000000 0.0000000000  -999.250000
 1771.3000000 0.0010000000 0.0000000000  -999.250000
 1771.3500000 0.0010000000 0.0000000000  -999.250000
 1771.4000000 0.0010000000 0.0000000000  -999.250000
 1771.4500000 0.0010000000 0.0000000000  -999.250000
 1771.5000000 0.0010000000 0.0000000000  -999.250000
 1771.5500000 0.0010000000 0.0000000000  -999.250000
 1771.6000000 0.0010000000 0.0000000000  -999.250000
 1771.6500000 0.0010000000 0.0000000000  -999.250000
 1771.7000000 0.0010000000 0.0000000000  -999.250000
 1771.7500000 0.0010000000 0.0000000000  -999.250000
 1771.8000000 0.0010000000 0.0000000000  -999.250000
 1771.8500000 0.0010000000 0.0000000000  -999.250000
 1771.9000000 0.0010000000 0.0000000000  -999.250000
 1771.9500000 0.0010000000 0.0000000000  -999.250000
 1772.0000000 0.0010000000 0.0000000000  -999.250000
 1772.0500000 0.0010000000 0.0000000000  -999.250000
 1772.1000000 0.0010000000 0.0000000000  -999.250000
 1772.1500000 0.0010000000 0.0000000000  -999.250000
 1772.2000000 2.7201886177 1.0000000000  -999.250000
 1772.2500000 3.8135814667 1.0000000000  -999.250000
 1772.3000000 3.5874917507 1.0000000000  -999.250000
 1772.3500000 3.3744585514 1.0000000000  -999.250000
 1772.4000000 3.1701066494 1.0000000000  -999.250000
 1772.4500000 0.0010000000 0.0000000000  -999.250000
 1772.5000000 0.0010000000 0.0000000000  -999.250000
 1772.5500000 0.0010000000 0.0000000000  -999.250000
 1772.6000000 0.0010000000 0.0000000000  -999.250000
 1772.6500000 0.0010000000 0.0000000000  -999.250000
 1772.7000000 0.0010000000 0.0000000000  -999.250000
 1772.7500000 0.0010000000 0.0000000000  -999.250000
 1772.8000000 0.0010000000 0.0000000000  -999.250000
 1772.8500000 0.0010000000 0.0000000000  -999.250000
 1772.9000000 0.0010000000 0.0000000000  -999.250000
 1772.9500000 0.0010000000 0.0000000000  -999.250000
 1773.0000000 0.0010000000 0.0000000000  -999.250000
 1773.0500000 0.0010000000 0.0000000000  -999.250000
 1773.1000000 0.0010000000 0.0000000000  -999.250000
 1773.1500000 0.0010000000 0.0000000000  -999.250000
 1773.2000000 0.0010000000 0.0000000000  -999.250000
 1773.2500000 0.0010000000 0.0000000000  -999.250000
 1773.3000000 0.0010000000 0.0000000000  -999.250000
 1773.3500000 0.0010000000 0.0000000000  -999.250000
 1773.4000000 0.0010000000 0.0000000000  -999.250000
 1773.4500000 0.0010000000 0.0000000000  -999.250000
 1773.5000000 0.0010000000 0.0000000000  -999.250000
 1773.5500000 0.0010000000 0.0000000000  -999.250000
 1773.6000000 0.0010000000 0.0000000000  -999.250000
 1773.6500000 0.0010000000 0.0000000000  -999.250000
 1773.7000000 0.0010000000 0.0000000000  -999.250000
 1773.7500000 0.0010000000 0.0000000000  -999.250000
 1773.8000000 0.0010000000 0.0000000000  -999.250000
 1773.8500000 0.0010000000 0.0000000000  -999.250000
 1773.9000000 0.0010000000 0.0000000000  -999.250000
 1773.9500000 0.0010000000 0.0000000000  -999.250000
 1774.0000000 0.0010000000 0.0000000000  -999.250000
 1774.0500000 0.0010000000 0.0000000000  -999.250000
 1774.1000000 0.0010000000 0.0000000000  -999.250000
 1774.1500000 0.0010000000 0.0000000000  -999.250000
 1774.2000000 0.0010000000 0.0000000000  -999.250000
 1774.2500000 0.0010000000 0.0000000000  -999.250000
 1774.3000000 0.0010000000 0.0000000000  -999.250000
 1774.3500000 0.0010000000 0.0000000000  -999.250000
 1774.4000000 0.0010000000 0.0000000000  -999.250000
 1774.4500000 0.0010000000 0.0000000000  -999.250000
 1774.5000000 0.0010000000 0.0000000000  -999.250000
 1774.5500000 0.0010000000 0.0000000000  -999.250000
 1774.6000000 0.0010000000 0.0000000000  -999.250000
 1774.6500000 0.0010000000 0.0000000000  -999.250000
 1774.7000000 0.0010000000 0.0000000000  -999.250000
 1774.7500000 0.0010000000 0.0000000000  -999.250000
 1774.8000000 0.0010000000 0.0000000000  -999.250000
 1774.8500000 0.0010000000 0.0000000000  -999.250000
 1774.9000000 0.0000000005 1.0000000000  -999.250000
 1774.9500000 0.0000000005 1.0000000000  -999.250000
 1775.0000000 0.0000000005 1.0000000000  -999.250000
 1775.0500000 0.0000000005 1.0000000000  -999.250000
 1775.1000000 0.0000000005 1.0000000000  -999.250000
 1775.1500000 0.0000000005 1.0000000000  -999.250000
 1775.2000000 0.0000000005 1.0000000000  -999.250000
 1775.2500000 0.0000000005 1.0000000000  -999.250000
 1775.3000000 0.0000000005 1.0000000000  -999.250000
 1775.3500000 0.0000000005 1.0000000000  -999.250000
 1775.4000000 0.0000000005 1.0000000000  -999.250000
 1775.4500000 0.0000000005 1.0000000000  -999.250000
 1775.5000000 0.0000000005 1.0000000000  -999.250000
 1775.5500000 0.0000000005 1.0000000000  -999.250000
 1775.6000000 0.0000000005 1.0000000000  -999.250000
 1775.6500000 0.0000000005 1.0000000000  -999.250000
 1775.7000000 0.0000000005 1.0000000000  -999.250000
 1775.7500000 0.0000000005 1.0000000000  -999.250000
 1775.8000000 0.0000000005 1.0000000000  -999.250000
 1775.8500000 0.0000000005 1.0000000000  -999.250000
 1775.9000000 0.0000000005 1.0000000000  -999.250000
 1775.9500000 0.0000000005 1.0000000000  -999.250000
 1776.0000000 0.0000000005 1.0000000000  -999.250000
 1776.0500000 0.0000000005 1.0000000000  -999.250000
