# LAS format log file from PETREL
# Project units are specified as depth units
#==================================================================
~Version information
VERS.   2.0:
WRAP.   NO:
#==================================================================
~Well
STRT .m      1580.0000000 :
STOP .m      1760.0000000 :
STEP .m     0.05000000 :
NULL .        -999.250000 :
COMP.           : COMPANY
WELL.  A_IPE   : WELL
FLD.            : FIELD
LOC.            : LOCATION
SRVC.           : SERVICE COMPANY
DATE.  Friday, March 30 2012 17:03:22   : DATE
PROV.           : PROVINCE
UWI.      : UNIQUE WELL ID
API.            : API NUMBER
#==================================================================
~Curve
DEPT .m                   : DEPTH
Permeability*** .mD       : Permeability ***
NTG*** .                  : NTG ***
PORDENS268*** .m3/m3      : POR DENS 268 ***
~Parameter
#==================================================================
~Ascii
# ...
 1753.6500000 0.0000000005 1.0000000000  -999.250000
 1753.7000000 0.0000000005 1.0000000000  -999.250000
 1753.7500000 0.0000000005 1.0000000000  -999.250000
 1753.8000000 0.0000000005 1.0000000000  -999.250000
 1753.8500000 0.0000000005 1.0000000000  -999.250000
 1753.9000000 0.0000000005 1.0000000000  -999.250000
 1753.9500000 0.0000000005 1.0000000000  -999.250000
 1754.0000000 0.0000000005 1.0000000000  -999.250000
 1754.0500000 0.0000000005 1.0000000000  -999.250000
 1754.1000000 0.0000000005 1.0000000000  -999.250000
 1754.1500000 0.0000000005 1.0000000000  -999.250000
 1754.2000000 0.0000000005 1.0000000000  -999.250000
 1754.2500000 0.0000000005 1.0000000000  -999.250000
 1754.3000000 0.0000000005 1.0000000000  -999.250000
 1754.3500000 0.0000000005 1.0000000000  -999.250000
 1754.4000000 0.0000000005 1.0000000000  -999.250000
 1754.4500000 0.0000000005 1.0000000000  -999.250000
 1754.5000000 0.0000000005 1.0000000000  -999.250000
 1754.5500000 0.0000000005 1.0000000000  -999.250000
 1754.6000000 0.0000000005 1.0000000000  -999.250000
 1754.6500000 0.0000000005 1.0000000000  -999.250000
 1754.7000000 0.0000000005 1.0000000000  -999.250000
 1754.7500000 0.0000000005 1.0000000000  -999.250000
 1754.8000000 0.0000000005 1.0000000000  -999.250000
 1754.8500000 0.0000000005 1.0000000000  -999.250000
 1754.9000000 0.0000000005 1.0000000000  -999.250000
 1754.9500000 0.0000000005 1.0000000000  -999.250000
 1755.0000000 0.0000000005 1.0000000000  -999.250000
 1755.0500000 0.0000000005 1.0000000000  -999.250000
 1755.1000000 0.0000000005 1.0000000000  -999.250000
 1755.1500000 0.0000000005 1.0000000000  -999.250000
 1755.2000000 0.0000000005 1.0000000000  -999.250000
 1755.2500000 0.0000000005 1.0000000000  -999.250000
 1755.3000000 0.0000000005 1.0000000000  -999.250000
 1755.3500000 0.0000000005 1.0000000000  -999.250000
 1755.4000000 0.0000000005 1.0000000000  -999.250000
 1755.4500000 0.0000000005 1.0000000000  -999.250000
 1755.5000000 0.0000000005 1.0000000000  -999.250000
 1755.5500000 0.0000000005 1.0000000000  -999.250000
 1755.6000000 0.0000000005 1.0000000000  -999.250000
 1755.6500000 0.0000000005 1.0000000000  -999.250000
 1755.7000000 0.0000000005 1.0000000000  -999.250000
 1755.7500000 0.0000000005 1.0000000000  -999.250000
 1755.8000000 0.0000000005 1.0000000000  -999.250000
 1755.8500000 0.0000000005 1.0000000000  -999.250000
 1755.9000000 0.0000000005 1.0000000000  -999.250000
 1755.9500000 0.0000000005 1.0000000000  -999.250000
 1756.0000000 0.0000000005 1.0000000000  -999.250000
 1756.0500000 0.0000000005 1.0000000000  -999.250000
 1756.1000000 0.0000000005 1.0000000000  -999.250000
 1756.1500000 0.0000000005 1.0000000000  -999.250000
 1756.2000000 0.0000000005 1.0000000000  -999.250000
 1756.2500000 0.0000000005 1.0000000000  -999.250000
 1756.3000000 0.0000000005 1.0000000000  -999.250000
 1756.3500000 0.0000000005 1.0000000000  -999.250000
 1756.4000000 0.0000000005 1.0000000000  -999.250000
 1756.4500000 0.0000000005 1.0000000000  -999.250000
 1756.5000000 0.0000000005 1.0000000000  -999.250000
 1756.5500000 0.0000000005 1.0000000000  -999.250000
 1756.6000000 0.0000000005 1.0000000000  -999.250000
 1756.6500000 0.0000000005 1.0000000000  -999.250000
 1756.7000000 0.0000000005 1.0000000000  -999.250000
 1756.7500000 0.0000000005 1.0000000000  -999.250000
 1756.8000000 0.0000000005 1.0000000000  -999.250000
 1756.8500000 0.0000000005 1.0000000000  -999.250000
 1756.9000000 0.0000000005 1.0000000000  -999.250000
 1756.9500000 0.0000000005 1.0000000000  -999.250000
 1757.0000000 0.0000000005 1.0000000000  -999.250000
 1757.0500000 0.0000000005 1.0000000000  -999.250000
 1757.1000000 0.0000000005 1.0000000000  -999.250000
 1757.1500000 0.0000000005 1.0000000000  -999.250000
 1757.2000000 0.0000000005 1.0000000000  -999.250000
 1757.2500000 0.0000000005 1.0000000000  -999.250000
 1757.3000000 0.0000000005 1.0000000000  -999.250000
 1757.3500000 0.0000000005 1.0000000000  -999.250000
 1757.4000000 0.0000000005 1.0000000000  -999.250000
 1757.4500000 0.0000000005 1.0000000000  -999.250000
 1757.5000000 0.0000000005 1.0000000000  -999.250000
 1757.5500000 0.0000000005 1.0000000000  -999.250000
 1757.6000000 0.0000000005 1.0000000000  -999.250000
 1757.6500000 0.0000000005 1.0000000000  -999.250000
 1757.7000000 0.0000000005 1.0000000000  -999.250000
 1757.7500000 0.0000000005 1.0000000000  -999.250000
 1757.8000000 0.0000000005 1.0000000000  -999.250000
 1757.8500000 0.0000000005 1.0000000000  -999.250000
 1757.9000000 0.0000000005 1.0000000000  -999.250000
 1757.9500000 0.0000000005 1.0000000000  -999.250000
 1758.0000000 0.0000000005 1.0000000000  -999.250000
 1758.0500000 0.0000000005 1.0000000000  -999.250000
 1758.1000000 0.0000000005 1.0000000000  -999.250000
 1758.1500000 0.0000000005 1.0000000000  -999.250000
 1758.2000000 0.0000000005 1.0000000000  -999.250000
 1758.2500000 0.0000000005 1.0000000000  -999.250000
 1758.3000000 0.0000000005 1.0000000000  -999.250000
 1758.3500000 0.0000000005 1.0000000000  -999.250000
 1758.4000000 0.0000000005 1.0000000000  -999.250000
 1758.4500000 0.0000000005 1.0000000000  -999.250000
 1758.5000000 0.0000000005 1.0000000000  -999.250000
 1758.5500000 0.0000000005 1.0000000000  -999.250000
 1758.6000000 0.0000000005 1.0000000000  -999.250000
 1758.6500000 0.0000000005 1.0000000000  -999.250000
 1758.7000000 0.0000000005 1.0000000000  -999.250000
 1758.7500000 0.0000000005 1.0000000000  -999.250000
 1758.8000000 0.0000000005 1.0000000000  -999.250000
 1758.8500000 0.0000000005 1.0000000000  -999.250000
 1758.9000000 0.0000000005 1.0000000000  -999.250000
 1758.9500000 0.0000000005 1.0000000000  -999.250000
 1759.0000000 0.0000000005 1.0000000000  -999.250000
 1759.0500000 0.0000000005 1.0000000000  -999.250000
 1759.1000000 0.0000000005 1.0000000000  -999.250000
 1759.1500000 0.0000000005 1.0000000000  -999.250000
 1759.2000000 0.0000000005 1.0000000000  -999.250000
 1759.2500000 0.0000000005 1.0000000000  -999.250000
 1759.3000000 0.0000000005 1.0000000000  -999.250000
 1759.3500000 0.0000000005 1.0000000000  -999.250000
 1759.4000000 0.0000000005 1.0000000000  -999.250000
 1759.4500000 0.0000000005 1.0000000000  -999.250000
 1759.5000000 0.0000000005 1.0000000000  -999.250000
 1759.5500000 0.0000000005 1.0000000000  -999.250000
 1759.6000000 0.0000000005 1.0000000000  -999.250000
 1759.6500000 0.0000000005 1.0000000000  -999.250000
 1759.7000000 0.0000000005 1.0000000000  -999.250000
 1759.7500000 0.0000000005 1.0000000000  -999.250000
 1759.8000000 0.0000000005 1.0000000000  -999.250000
 1759.8500000 0.0000000005 1.0000000000  -999.250000
 1759.9000000 0.0000000005 1.0000000000  -999.250000
 1759.9500000 0.0000000005 1.0000000000  -999.250000
 1760.0000000 0.0010000000 1.0000000000  -999.250000
