# LAS format log file from PETREL
# Project units are specified as depth units
#==================================================================
~Version information
VERS.   2.0:
WRAP.   NO:
#==================================================================
~Well
STRT .m      1555.0999800 :
STOP .m      1749.8999800 :
STEP .m     0.10000000 :
NULL .        -999.250000 :
COMP.           : COMPANY
WELL.  F_IPE   : WELL
FLD.            : FIELD
LOC.            : LOCATION
SRVC.           : SERVICE COMPANY
DATE.  Friday, March 30 2012 17:04:30   : DATE
PROV.           : PROVINCE
UWI.      : UNIQUE WELL ID
API.            : API NUMBER
#==================================================================
~Curve
DEPT .m                   : DEPTH
Permeability*** .mD       : Permeability ***
NTG*** .                  : NTG ***
PORDENS268*** .m3/m3      : POR DENS 268 ***
~Parameter
#==================================================================
~Ascii
# ...
 1615.4999800 693.87170410 1.0000000000 0.2560000122
 1615.5999800 648.45294189 1.0000000000 0.2500000000
 1615.6999800 302.37179565 1.0000000000 0.2202000022
 1615.7999800 276.96124268 1.0000000000 0.2202000022
 1615.8999800 253.29727173 1.0000000000 0.2143000066
 1615.9999800 223.67721558 1.0000000000 0.2082999945
 1616.0999800 196.90919495 1.0000000000 0.2082999945
 1616.1999800 105.77946472 1.0000000000 0.1844999939
 1616.2999800 137.88679504 1.0000000000 0.1963854879
 1616.3999800 219.94834900 1.0000000000 0.2082999945
 1616.4999800 337.38946533 1.0000000000 0.2261999995
 1616.5999800 375.59759521 1.0000000000 0.2320999950
 1616.6999800 417.21142578 1.0000000000 0.2320999950
 1616.7999800 455.76177979 1.0000000000 0.2380926907
 1616.8999800 327.06750488 1.0000000000 0.2261999995
 1616.9999800 229.36659241 1.0000000000 0.2143000066
 1617.0999800 137.88679504 1.0000000000 0.1964000016
 1617.1999800 95.895248413 1.0000000000 0.1844999939
 1617.2999800 64.863533020 1.0000000000 0.1726145148
 1617.3999800 59.502799988 1.0000000000 0.1667000055
 1617.4999800 35.574726105 1.0000000000 0.1547999978
 1617.5999800 9.6480722427 1.0000000000 0.1429000050
 1617.6999800 30.351881027 1.0000000000 0.1547999978
 1617.7999800 31.112424850 1.0000000000 0.1547999978
 1617.8999800 31.888410568 1.0000000000 0.1547999978
 1617.9999800 11.487547874 1.0000000000 0.1488000005
 1618.0999800 8.0578956604 1.0000000000 0.1368999928
 1618.1999800 5.5186038017 1.0000000000 0.1309999973
 1618.2999800 13.605946541 1.0000000000 0.1487782896
 1618.3999800 11.487547874 1.0000000000 0.1488000005
 1618.4999800 9.6480722427 1.0000000000 0.1429000050
 1618.5999800 9.6480722427 1.0000000000 0.1429000050
 1618.6999800 8.3068380356 1.0000000000 0.1368999928
 1618.7999800 7.1227326393 1.0000000000 0.1368999928
 1618.8999800 0.0010000000 0.0000000000 0.1011999995
 1618.9999800 0.0010000000 0.0000000000 0.0892999992
 1619.0999800 0.0010000000 0.0000000000 0.0833000019
 1619.1999800 0.0010000000 0.0000000000 0.0892999992
 1619.2999800 0.0010000000 0.0000000000 0.1011854857
 1619.3999800 0.0010000000 0.0000000000 0.1130999997
 1619.4999800 2.4655678272 1.0000000000 0.1190999970
 1619.5999800 3.6773884296 1.0000000000 0.1250000000
 1619.6999800 16.472854614 1.0000000000 0.1547999978
 1619.7999800 58.858612061 1.0000000000 0.1666854918
 1619.8999800 99.755828857 1.0000000000 0.1844999939
 1619.9999800 107.85159302 1.0000000000 0.1844999939
 1620.0999800 105.77946472 1.0000000000 0.1844999939
 1620.1999800 103.73995972 1.0000000000 0.1844999939
 1620.2999800 112.09278870 1.0000000000 0.1904926896
 1620.3999800 103.73995972 1.0000000000 0.1844999939
 1620.4999800 95.895248413 1.0000000000 0.1844999939
 1620.5999800 118.70571136 1.0000000000 0.1905000061
 1620.6999800 128.00721741 1.0000000000 0.1905000061
 1620.7999800 137.88679504 1.0000000000 0.1963928044
 1620.8999800 159.48489380 1.0000000000 0.1964000016
 1620.9999800 209.05987549 1.0000000000 0.2082999945
 1621.0999800 270.33871460 1.0000000000 0.2202000022
 1621.1999800 511.56570435 1.0000000000 0.2440000027
 1621.2999800 707.98352051 1.0000000000 0.2559853792
 1621.3999800 960.96582031 1.0000000000 0.2678999901
 1621.4999800 684.59020996 1.0000000000 0.2560000122
 1621.5999800 597.14215088 1.0000000000 0.2500000000
 1621.6999800 518.91235352 1.0000000000 0.2440000027
 1621.7999800 455.76177979 1.0000000000 0.2381072044
 1621.8999800 411.05007935 1.0000000000 0.2320999950
 1621.9999800 369.93627930 1.0000000000 0.2320999950
 1622.0999800 319.49490356 1.0000000000 0.2261999995
 1622.1999800 274.73941040 1.0000000000 0.2202000022
 1622.2999800 214.44808960 1.0000000000 0.2083145082
 1622.3999800 214.44808960 1.0000000000 0.2082999945
 1622.4999800 241.09271240 1.0000000000 0.2143000066
 1622.5999800 270.33871460 1.0000000000 0.2202000022
 1622.6999800 297.61679077 1.0000000000 0.2202000022
 1622.7999800 327.06750488 1.0000000000 0.2261926830
 1622.8999800 436.14410400 1.0000000000 0.2381000072
 1622.9999800 309.61694336 1.0000000000 0.2202000022
 1623.0999800 214.44808960 1.0000000000 0.2082999945
 1623.1999800 162.36547852 1.0000000000 0.2023999989
 1623.2999800 151.08822632 1.0000000000 0.1964073181
 1623.3999800 140.44972229 1.0000000000 0.1964000016
 1623.4999800 162.36547852 1.0000000000 0.2023999989
 1623.5999800 174.31083679 1.0000000000 0.2023999989
 1623.6999800 186.95234680 1.0000000000 0.2023999989
 1623.7999800 200.32102966 1.0000000000 0.2082927972
 1623.8999800 196.90919495 1.0000000000 0.2082999945
 1623.9999800 193.54345703 1.0000000000 0.2082999945
 1624.0999800 180.54223633 1.0000000000 0.2023999989
 1624.1999800 168.25289917 1.0000000000 0.2023999989
 1624.2999800 156.64556885 1.0000000000 0.1964073181
 1624.3999800 81.635528564 1.0000000000 0.1785999984
 1624.4999800 76.750991821 1.0000000000 0.1785999984
 1624.5999800 72.103973389 1.0000000000 0.1726000011
 1624.6999800 140.44972229 1.0000000000 0.1964000016
 1624.7999800 175.85221863 1.0000000000 0.2023926824
 1624.8999800 218.10276794 1.0000000000 0.2082999945
 1624.9999800 342.64715576 1.0000000000 0.2261999995
 1625.0999800 342.64715576 1.0000000000 0.2261999995
 1625.1999800 342.64715576 1.0000000000 0.2261999995
 1625.2999800 302.37179565 1.0000000000 0.2202073187
 1625.3999800 274.73941040 1.0000000000 0.2202000022
 1625.4999800 249.17546082 1.0000000000 0.2143000066
 1625.5999800 207.28819275 1.0000000000 0.2082999945
 1625.6999800 171.25996399 1.0000000000 0.2023999989
 1625.7999800 233.22314453 1.0000000000 0.2142854929
 1625.8999800 263.84317017 1.0000000000 0.2143000066
 1625.9999800 297.61679077 1.0000000000 0.2202000022
 1626.0999800 307.18655396 1.0000000000 0.2202000022
 1626.1999800 398.94549561 1.0000000000 0.2320999950
 1626.2999800 511.56570435 1.0000000000 0.2439854890
 1626.3999800 630.97100830 1.0000000000 0.2500000000
 1626.4999800 732.01794434 1.0000000000 0.2560000122
 1626.5999800 845.69396973 1.0000000000 0.2619000077
 1626.6999800 936.95544434 1.0000000000 0.2678999901
 1626.7999800 948.89813232 1.0000000000 0.2678999901
 1626.8999800 960.96582031 1.0000000000 0.2678999901
 1626.9999800 960.96582031 1.0000000000 0.2678999901
 1627.0999800 913.42999268 1.0000000000 0.2678999901
 1627.1999800 867.80651855 1.0000000000 0.2678999901
 1627.2999800 741.81494141 1.0000000000 0.2560145259
 1627.3999800 666.32452393 1.0000000000 0.2560000122
 1627.4999800 597.14215088 1.0000000000 0.2500000000
 1627.5999800 703.25421143 1.0000000000 0.2560000122
 1627.6999800 818.69042969 1.0000000000 0.2619000077
 1627.7999800 948.89813232 1.0000000000 0.2678926587
 1627.8999800 771.83312988 1.0000000000 0.2619000077
 1627.9999800 679.98706055 1.0000000000 0.2560000122
 1628.0999800 597.14215088 1.0000000000 0.2500000000
 1628.1999800 312.06277466 1.0000000000 0.2202000022
 1628.2999800 255.37863159 1.0000000000 0.2143072039
 1628.3999800 207.28819275 1.0000000000 0.2082999945
 1628.4999800 214.44808960 1.0000000000 0.2082999945
 1628.5999800 221.80647278 1.0000000000 0.2082999945
 1628.6999800 200.32102966 1.0000000000 0.2082999945
 1628.7999800 229.36659241 1.0000000000 0.2142926902
 1628.8999800 304.77151489 1.0000000000 0.2202000022
 1628.9999800 398.94549561 1.0000000000 0.2320999950
 1629.0999800 515.22760010 1.0000000000 0.2440000027
 1629.1999800 657.34094238 1.0000000000 0.2560000122
 1629.2999800 813.37445068 1.0000000000 0.2618928254
 1629.3999800 741.81494141 1.0000000000 0.2560000122
 1629.4999800 675.40661621 1.0000000000 0.2560000122
 1629.5999800 265.99389648 1.0000000000 0.2143000066
 1629.6999800 191.87843323 1.0000000000 0.2082999945
 1629.7999800 135.36100769 1.0000000000 0.1964145154
 1629.8999800 56.959327698 1.0000000000 0.1667000055
 1629.9999800 64.173011780 1.0000000000 0.1726000011
 1630.0999800 72.103973389 1.0000000000 0.1726000011
 1630.1999800 99.755828857 1.0000000000 0.1844999939
 1630.2999800 114.26363373 1.0000000000 0.1904926896
 1630.3999800 130.42222595 1.0000000000 0.1905000061
 1630.4999800 148.36997986 1.0000000000 0.1964000016
