# LAS format log file from PETREL
# Project units are specified as depth units
#==================================================================
~Version information
VERS.   2.0:
WRAP.   NO:
#==================================================================
~Well
STRT .m      1610.0000000 :
STOP .m      1780.0000000 :
STEP .m     0.05000000 :
NULL .        -999.250000 :
COMP.           : COMPANY
WELL.  B_IPE   : WELL
FLD.            : FIELD
LOC.            : LOCATION
SRVC.           : SERVICE COMPANY
DATE.  Friday, March 30 2012 17:03:38   : DATE
PROV.           : PROVINCE
UWI.      : UNIQUE WELL ID
API.            : API NUMBER
#==================================================================
~Curve
DEPT .m                   : DEPTH
Permeability*** .mD       : Permeability ***
NTG*** .                  : NTG ***
PORDENS268*** .m3/m3      : POR DENS 268 ***
~Parameter
#==================================================================
~Ascii
# ...
 1708.1500000 624.83898926 1.0000000000 0.2440000027
 1708.2000000 564.47039795 1.0000000000 0.2381000072
 1708.2500000 509.00064087 1.0000000000 0.2320999950
 1708.3000000 455.65515137 1.0000000000 0.2261999995
 1708.3500000 406.80447388 1.0000000000 0.2261999995
 1708.4000000 362.34625244 1.0000000000 0.2202000022
 1708.4500000 332.56799316 1.0000000000 0.2143000066
 1708.5000000 304.71356201 1.0000000000 0.2143000066
 1708.5500000 278.76715088 1.0000000000 0.2082999945
 1708.6000000 274.13732910 1.0000000000 0.2082999945
 1708.6500000 269.56964111 1.0000000000 0.2082999945
 1708.7000000 264.99444580 1.0000000000 0.2082999945
 1708.7500000 289.91363525 1.0000000000 0.2143000066
 1708.8000000 316.68389893 1.0000000000 0.2143000066
 1708.8500000 345.32229614 1.0000000000 0.2202000022
 1708.9000000 400.52688599 1.0000000000 0.2261999995
 1708.9500000 462.61788940 1.0000000000 0.2320999950
 1709.0000000 532.22656250 1.0000000000 0.2320999950
 1709.0500000 592.58990479 1.0000000000 0.2381000072
 1709.1000000 658.48510742 1.0000000000 0.2440000027
 1709.1500000 729.99414063 1.0000000000 0.2500000000
 1709.2000000 726.57867432 1.0000000000 0.2500000000
 1709.2500000 723.17602539 1.0000000000 0.2500000000
 1709.3000000 719.94000244 1.0000000000 0.2500000000
 1709.3500000 627.86437988 1.0000000000 0.2440000027
 1709.4000000 545.50695801 1.0000000000 0.2381000072
 1709.4500000 472.07077026 1.0000000000 0.2320999950
 1709.5000000 356.62734985 1.0000000000 0.2202000022
 1709.5500000 264.99444580 1.0000000000 0.2082999945
 1709.6000000 193.38351440 1.0000000000 0.1964000016
 1709.6500000 142.94622803 1.0000000000 0.1905000061
 1709.7000000 103.67527771 1.0000000000 0.1785999984
 1709.7500000 40.157176971 1.0000000000 0.1667000055
 1709.8000000 26.824110031 1.0000000000 0.1606999934
 1709.8500000 17.492326736 1.0000000000 0.1488000005
 1709.9000000 11.006547928 1.0000000000 0.1429000050
 1709.9500000 6.6426587105 1.0000000000 0.1309999973
 1710.0000000 5.8129806519 1.0000000000 0.1309999973
 1710.0500000 5.0677466393 1.0000000000 0.1250000000
 1710.1000000 4.4052839279 1.0000000000 0.1250000000
 1710.1500000 5.4298639297 1.0000000000 0.1250000000
 1710.2000000 6.6426587105 1.0000000000 0.1309999973
 1710.2500000 8.0697259903 1.0000000000 0.1368999928
 1710.3000000 10.680292130 1.0000000000 0.1368999928
 1710.3500000 13.941987038 1.0000000000 0.1429000050
 1710.4000000 17.981204987 1.0000000000 0.1488000005
 1710.4500000 44.534832001 1.0000000000 0.1547999978
 1710.5000000 55.485671997 1.0000000000 0.1606999934
 1710.5500000 68.505195618 1.0000000000 0.1667000055
 1710.6000000 88.734489441 1.0000000000 0.1726000011
 1710.6500000 113.54782867 1.0000000000 0.1785999984
 1710.7000000 143.61798096 1.0000000000 0.1905000061
 1710.7500000 184.21250916 1.0000000000 0.1964000016
 1710.8000000 233.62702942 1.0000000000 0.2023999989
 1710.8500000 293.10995483 1.0000000000 0.2143000066
 1710.9000000 339.82089233 1.0000000000 0.2202000022
 1710.9500000 392.24661255 1.0000000000 0.2202000022
 1711.0000000 450.98995972 1.0000000000 0.2261999995
 1711.0500000 460.25177002 1.0000000000 0.2320999950
 1711.1000000 469.77505493 1.0000000000 0.2320999950
 1711.1500000 479.34515381 1.0000000000 0.2320999950
 1711.2000000 439.59823608 1.0000000000 0.2261999995
 1711.2500000 402.64285278 1.0000000000 0.2261999995
 1711.3000000 368.13867188 1.0000000000 0.2202000022
 1711.3500000 304.71356201 1.0000000000 0.2143000066
 1711.4000000 250.39002991 1.0000000000 0.2082999945
 1711.4500000 204.08729553 1.0000000000 0.2023999989
 1711.5000000 150.12692261 1.0000000000 0.1905000061
 1711.5500000 108.32000732 1.0000000000 0.1785999984
 1711.6000000 76.433723450 1.0000000000 0.1726000011
 1711.6500000 53.384876251 1.0000000000 0.1606999934
 1711.7000000 18.481256485 1.0000000000 0.1488000005
 1711.7500000 11.689000130 1.0000000000 0.1429000050
 1711.8000000 9.2491817474 1.0000000000 0.1368999928
 1711.8500000 7.2516231537 1.0000000000 0.1309999973
 1711.9000000 5.6172785759 1.0000000000 0.1250000000
 1711.9500000 5.3676080704 1.0000000000 0.1250000000
 1712.0000000 5.1271324158 1.0000000000 0.1250000000
 1712.0500000 4.8955826759 1.0000000000 0.1250000000
 1712.1000000 4.3528671265 1.0000000000 0.1250000000
 1712.1500000 3.8606045246 1.0000000000 0.1190999970
 1712.2000000 3.4150462151 1.0000000000 0.1190999970
 1712.2500000 2.5157604218 1.0000000000 0.1130999997
 1712.3000000 1.8221027851 1.0000000000 0.1071000025
 1712.3500000 1.2931166887 1.0000000000 0.1071000025
 1712.4000000 0.9403572083 1.0000000000 0.1011999995
 1712.4500000 0.6713539958 1.0000000000 0.0952000022
 1712.5000000 0.4687147737 1.0000000000 0.0952000022
 1712.5500000 0.4856696725 1.0000000000 0.0952000022
 1712.6000000 0.5027230978 1.0000000000 0.0952000022
 1712.6500000 0.5206791162 1.0000000000 0.0952000022
 1712.7000000 0.6713539958 1.0000000000 0.0952000022
 1712.7500000 0.8555283546 1.0000000000 0.1011999995
 1712.8000000 1.0800920725 1.0000000000 0.1011999995
 1712.8500000 1.2783228159 1.0000000000 0.1071000025
 1712.9000000 1.5055216551 1.0000000000 0.1071000025
 1712.9500000 1.7660347223 1.0000000000 0.1071000025
 1713.0000000 2.0612211227 1.0000000000 0.1130999997
 1713.0500000 2.4514789581 1.0000000000 0.1130999997
 1713.1000000 2.9005143642 1.0000000000 0.1190999970
 1713.1500000 3.4150462151 1.0000000000 0.1190999970
 1713.2000000 4.3528671265 1.0000000000 0.1250000000
 1713.2500000 5.4927120209 1.0000000000 0.1250000000
 1713.3000000 6.8637328148 1.0000000000 0.1309999973
 1713.3500000 9.5436716080 1.0000000000 0.1368999928
 1713.4000000 13.023659706 1.0000000000 0.1429000050
 1713.4500000 17.492326736 1.0000000000 0.1488000005
 1713.5000000 23.556142807 1.0000000000 0.1547999978
 1713.5500000 58.546211243 1.0000000000 0.1606999934
 1713.6000000 74.776847839 1.0000000000 0.1667000055
 1713.6500000 84.478561401 1.0000000000 0.1726000011
 1713.7000000 95.137756348 1.0000000000 0.1785999984
 1713.7500000 106.88614655 1.0000000000 0.1785999984
 1713.8000000 104.71507263 1.0000000000 0.1785999984
 1713.8500000 102.61170197 1.0000000000 0.1785999984
 1713.9000000 100.54249573 1.0000000000 0.1785999984
 1713.9500000 89.998115540 1.0000000000 0.1726000011
 1714.0000000 80.362052917 1.0000000000 0.1726000011
 1714.0500000 71.597824097 1.0000000000 0.1667000055
 1714.1000000 61.252037048 1.0000000000 0.1667000055
 1714.1500000 27.529022217 1.0000000000 0.1606999934
 1714.2000000 22.936162949 1.0000000000 0.1547999978
 1714.2500000 17.649063110 1.0000000000 0.1488000005
 1714.3000000 13.413499832 1.0000000000 0.1429000050
 1714.3500000 10.046874046 1.0000000000 0.1368999928
 1714.4000000 7.1690654755 1.0000000000 0.1309999973
 1714.4500000 5.0115880966 1.0000000000 0.1250000000
 1714.5000000 3.4150462151 1.0000000000 0.1190999970
 1714.5500000 2.8633499146 1.0000000000 0.1190999970
 1714.6000000 2.3871066570 1.0000000000 0.1130999997
 1714.6500000 1.9779845476 1.0000000000 0.1130999997
 1714.7000000 2.4191167355 1.0000000000 0.1130999997
 1714.7500000 2.9380753040 1.0000000000 0.1190999970
 1714.8000000 3.5452253819 1.0000000000 0.1190999970
 1714.8500000 5.0677466393 1.0000000000 0.1250000000
 1714.9000000 7.0943617821 1.0000000000 0.1309999973
 1714.9500000 9.7396497726 1.0000000000 0.1368999928
 1715.0000000 12.400244713 1.0000000000 0.1429000050
 1715.0500000 15.631105423 1.0000000000 0.1488000005
 1715.1000000 19.523801804 1.0000000000 0.1547999978
 1715.1500000 43.126182556 1.0000000000 0.1547999978
 1715.2000000 48.613582611 1.0000000000 0.1606999934
 1715.2500000 54.629779816 1.0000000000 0.1606999934
 1715.3000000 63.597515106 1.0000000000 0.1667000055
 1715.3500000 73.713035583 1.0000000000 0.1667000055
 1715.4000000 85.084175110 1.0000000000 0.1726000011
 1715.4500000 101.90754700 1.0000000000 0.1785999984
 1715.5000000 121.30871582 1.0000000000 0.1844999939
 1715.5500000 143.61798096 1.0000000000 0.1905000061
 1715.6000000 165.97229004 1.0000000000 0.1905000061
 1715.6500000 191.04385376 1.0000000000 0.1964000016
