# LAS format log file from PETREL
# Project units are specified as depth units
#==================================================================
~Version information
VERS.   2.0:
WRAP.   NO:
#==================================================================
~Well
STRT .m      1555.0999800 :
STOP .m      1749.8999800 :
STEP .m     0.10000000 :
NULL .        -999.250000 :
COMP.           : COMPANY
WELL.  F_IPE   : WELL
FLD.            : FIELD
LOC.            : LOCATION
SRVC.           : SERVICE COMPANY
DATE.  Friday, March 30 2012 17:04:30   : DATE
PROV.           : PROVINCE
UWI.      : UNIQUE WELL ID
API.            : API NUMBER
#==================================================================
~Curve
DEPT .m                   : DEPTH
Permeability*** .mD       : Permeability ***
NTG*** .                  : NTG ***
PORDENS268*** .m3/m3      : POR DENS 268 ***
~Parameter
#==================================================================
~Ascii
 1555.0999800 0.2120866179 1.0000000000 0.0773999989
 1555.1999800 0.1857207566 1.0000000000 0.0773999989
 1555.2999800 0.1735623479 1.0000000000 0.0714073181
 1555.3999800 0.1620552093 1.0000000000 0.0714000016
 1555.4999800 0.2413865477 1.0000000000 0.0773999989
 1555.5999800 0.3493349850 1.0000000000 0.0833000019
 1555.6999800 0.1857207566 1.0000000000 0.0773999989
 1555.7999800 0.0466553085 1.0000000000 0.0655145124
 1555.8999800 0.0771626532 1.0000000000 0.0654999986
 1555.9999800 0.1219882146 1.0000000000 0.0714000016
 1556.0999800 0.1857207566 1.0000000000 0.0773999989
 1556.1999800 0.2738536894 1.0000000000 0.0773999989
 1556.2999800 0.2120866179 1.0000000000 0.0773999989
 1556.3999800 0.1511698365 1.0000000000 0.0714000016
 1556.4999800 0.1051894352 1.0000000000 0.0714000016
 1556.5999800 0.0711956620 1.0000000000 0.0654999986
 1556.6999800 0.0683533326 1.0000000000 0.0654999986
 1556.7999800 0.0656042770 1.0000000000 0.0654999986
 1556.8999800 0.0771626532 1.0000000000 0.0654999986
 1556.9999800 0.0323808156 1.0000000000 0.0595000014
 1557.0999800 0.0113687422 1.0000000000 0.0535999984
 1557.1999800 0.0389956012 1.0000000000 0.0654999986
 1557.2999800 0.0938564837 1.0000000000 0.0713928044
 1557.3999800 0.1985518932 1.0000000000 0.0773999989
 1557.4999800 0.2263537347 1.0000000000 0.0773999989
 1557.5999800 0.2263537347 1.0000000000 0.0773999989
 1557.6999800 0.2263537347 1.0000000000 0.0773999989
 1557.7999800 0.1133376807 1.0000000000 0.0714073181
 1557.8999800 0.1620552093 1.0000000000 0.0714000016
 1557.9999800 0.2263537347 1.0000000000 0.0773999989
 1558.0999800 0.6462605596 1.0000000000 0.0892999992
 1558.1999800 0.6989840865 1.0000000000 0.0892999992
 1558.2999800 0.7551224232 1.0000000000 0.0892999992
 1558.3999800 0.1511698365 1.0000000000 0.0714000016
 1558.4999800 0.1511698365 1.0000000000 0.0714000016
 1558.5999800 0.1511698365 1.0000000000 0.0714000016
 1558.6999800 0.2572082877 1.0000000000 0.0773999989
 1558.7999800 0.3004407883 1.0000000000 0.0773999989
 1558.8999800 0.3493349850 1.0000000000 0.0833000019
 1558.9999800 0.2738536894 1.0000000000 0.0773999989
 1559.0999800 0.2120866179 1.0000000000 0.0773999989
 1559.1999800 0.1735623479 1.0000000000 0.0714000016
 1559.2999800 0.1459522247 1.0000000000 0.0714000016
 1559.3999800 0.1219882146 1.0000000000 0.0714000016
 1559.4999800 0.0711956620 1.0000000000 0.0654999986
 1559.5999800 0.0741308779 1.0000000000 0.0654999986
 1559.6999800 0.0771626532 1.0000000000 0.0654999986
 1559.7999800 0.0656042770 1.0000000000 0.0654999986
 1559.8999800 0.0771626532 1.0000000000 0.0654999986
 1559.9999800 0.0903052911 1.0000000000 0.0714000016
 1560.0999800 0.3097488582 1.0000000000 0.0773999989
 1560.1999800 0.3928868771 1.0000000000 0.0833000019
 1560.2999800 0.4930995703 1.0000000000 0.0833000019
 1560.3999800 0.6810390949 1.0000000000 0.0892999992
 1560.4999800 0.9002784491 1.0000000000 0.0892999992
 1560.5999800 1.1730180979 1.0000000000 0.0952000022
 1560.6999800 0.9689755440 1.0000000000 0.0892999992
 1560.7999800 1.1730180979 1.0000000000 0.0951928049
 1560.8999800 1.4102640152 1.0000000000 0.0952000022
 1560.9999800 1.1730180979 1.0000000000 0.0952000022
 1561.0999800 0.9689755440 1.0000000000 0.0892999992
 1561.1999800 0.7945152521 1.0000000000 0.0892999992
 1561.2999800 0.3705965877 1.0000000000 0.0833073184
 1561.3999800 0.2738536894 1.0000000000 0.0773999989
 1561.4999800 0.1985518932 1.0000000000 0.0773999989
 1561.5999800 0.2913590074 1.0000000000 0.0773999989
 1561.6999800 0.1565364301 1.0000000000 0.0714000016
 1561.7999800 0.0771626532 1.0000000000 0.0655071959
 1561.8999800 0.0771626532 1.0000000000 0.0654999986
 1561.9999800 0.0802933723 1.0000000000 0.0654999986
 1562.0999800 0.0835254565 1.0000000000 0.0654999986
 1562.1999800 0.2913590074 1.0000000000 0.0773999989
 1562.2999800 0.2913590074 1.0000000000 0.0773999989
 1562.3999800 0.2913590074 1.0000000000 0.0773999989
 1562.4999800 0.2913590074 1.0000000000 0.0773999989
 1562.5999800 0.2913590074 1.0000000000 0.0773999989
 1562.6999800 0.1735623479 1.0000000000 0.0714000016
 1562.7999800 0.1133376807 1.0000000000 0.0714000016
 1562.8999800 0.0711956620 1.0000000000 0.0654999986
 1562.9999800 0.0903052911 1.0000000000 0.0714000016
 1563.0999800 0.1012959033 1.0000000000 0.0714000016
 1563.1999800 0.1133376807 1.0000000000 0.0714000016
 1563.2999800 0.0835254565 1.0000000000 0.0655071959
 1563.3999800 0.0903052911 1.0000000000 0.0714000016
 1563.4999800 0.0975191444 1.0000000000 0.0714000016
 1563.5999800 0.0711956620 1.0000000000 0.0654999986
 1563.6999800 0.0771626532 1.0000000000 0.0654999986
 1563.7999800 0.0835254565 1.0000000000 0.0654999986
 1563.8999800 0.0603728630 1.0000000000 0.0654999986
 1563.9999800 0.0711956620 1.0000000000 0.0654999986
 1564.0999800 0.0835254565 1.0000000000 0.0654999986
 1564.1999800 0.0603728630 1.0000000000 0.0654999986
 1564.2999800 0.1092024371 1.0000000000 0.0713928044
 1564.3999800 0.1857207566 1.0000000000 0.0773999989
 1564.4999800 0.4930995703 1.0000000000 0.0833000019
 1564.5999800 0.5211170316 1.0000000000 0.0833000019
 1564.6999800 0.5503938198 1.0000000000 0.0833000019
 1564.7999800 0.9227271676 1.0000000000 0.0892926827
 1564.8999800 0.8782711625 1.0000000000 0.0892999992
 1564.9999800 0.8355444074 1.0000000000 0.0892999992
 1565.0999800 0.6810390949 1.0000000000 0.0892999992
 1565.1999800 0.5503938198 1.0000000000 0.0833000019
 1565.2999800 0.5503938198 1.0000000000 0.0833000019
 1565.3999800 1.4102640152 1.0000000000 0.0952000022
 1565.4999800 0.9928001761 1.0000000000 0.0952000022
 1565.5999800 0.6810390949 1.0000000000 0.0892999992
 1565.6999800 0.3290610015 1.0000000000 0.0773999989
 1565.7999800 0.1408780813 1.0000000000 0.0714073181
 1565.8999800 0.3097488582 1.0000000000 0.0773999989
 1565.9999800 0.3097488582 1.0000000000 0.0773999989
 1566.0999800 0.3097488582 1.0000000000 0.0773999989
 1566.1999800 0.5809792876 1.0000000000 0.0833000019
 1566.2999800 0.8782711625 1.0000000000 0.0892926827
 1566.3999800 1.2872430086 1.0000000000 0.0952000022
 1566.4999800 1.2872430086 1.0000000000 0.0952000022
 1566.5999800 1.2872430086 1.0000000000 0.0952000022
 1566.6999800 1.2872430086 1.0000000000 0.0952000022
 1566.7999800 0.7945152521 1.0000000000 0.0893071964
 1566.8999800 0.6810390949 1.0000000000 0.0892999992
 1566.9999800 0.5809792876 1.0000000000 0.0833000019
 1567.0999800 0.5809792876 1.0000000000 0.0833000019
 1567.1999800 0.4930995703 1.0000000000 0.0833000019
 1567.2999800 0.4162487686 1.0000000000 0.0833000019
 1567.3999800 0.2913590074 1.0000000000 0.0773999989
 1567.4999800 0.3097488582 1.0000000000 0.0773999989
 1567.5999800 0.3290610015 1.0000000000 0.0773999989
 1567.6999800 0.3290610015 1.0000000000 0.0773999989
 1567.7999800 0.3290610015 1.0000000000 0.0773999989
 1567.8999800 0.3290610015 1.0000000000 0.0773999989
 1567.9999800 0.4162487686 1.0000000000 0.0833000019
 1568.0999800 0.4162487686 1.0000000000 0.0833000019
 1568.1999800 0.4162487686 1.0000000000 0.0833000019
 1568.2999800 1.1730180979 1.0000000000 0.0951854885
 1568.3999800 1.5771532059 1.0000000000 0.1011999995
 1568.4999800 2.0864212513 1.0000000000 0.1011999995
 1568.5999800 1.8371191025 1.0000000000 0.1011999995
 1568.6999800 1.6123577356 1.0000000000 0.1011999995
 1568.7999800 1.6123577356 1.0000000000 0.1011999995
 1568.8999800 1.2578827143 1.0000000000 0.0952000022
 1568.9999800 0.9689755440 1.0000000000 0.0892999992
 1569.0999800 0.1985518932 1.0000000000 0.0773999989
 1569.1999800 0.1985518932 1.0000000000 0.0773999989
 1569.2999800 0.1985518932 1.0000000000 0.0773999989
 1569.3999800 0.0603728630 1.0000000000 0.0654999986
 1569.4999800 0.1311598122 1.0000000000 0.0714000016
 1569.5999800 0.2572082877 1.0000000000 0.0773999989
 1569.6999800 0.2572082877 1.0000000000 0.0773999989
 1569.7999800 0.2572082877 1.0000000000 0.0773999989
 1569.8999800 0.2572082877 1.0000000000 0.0773999989
 1569.9999800 0.5503938198 1.0000000000 0.0833000019
 1570.0999800 0.6462605596 1.0000000000 0.0892999992
