# LAS format log file from PETREL
# Project units are specified as depth units
#==================================================================
~Version information
VERS.   2.0:
WRAP.   NO:
#==================================================================
~Well
STRT .m      1580.0000000 :
STOP .m      1760.0000000 :
STEP .m     0.05000000 :
NULL .        -999.250000 :
COMP.           : COMPANY
WELL.  A_IPE   : WELL
FLD.            : FIELD
LOC.            : LOCATION
SRVC.           : SERVICE COMPANY
DATE.  Friday, March 30 2012 17:03:22   : DATE
PROV.           : PROVINCE
UWI.      : UNIQUE WELL ID
API.            : API NUMBER
#==================================================================
~Curve
DEPT .m                   : DEPTH
Permeability*** .mD       : Permeability ***
NTG*** .                  : NTG ***
PORDENS268*** .m3/m3      : POR DENS 268 ***
~Parameter
#==================================================================
~Ascii
 1580.0000000 0.0000000005 1.0000000000  -999.250000
 1580.0500000 0.0000000005 1.0000000000  -999.250000
 1580.1000000 0.0000000005 1.0000000000  -999.250000
 1580.1500000 0.0000000005 1.0000000000  -999.250000
 1580.2000000 0.0000000005 1.0000000000  -999.250000
 1580.2500000 0.0000000005 1.0000000000  -999.250000
 1580.3000000 0.0000000005 1.0000000000  -999.250000
 1580.3500000 0.0000000005 1.0000000000  -999.250000
 1580.4000000 0.0000000005 1.0000000000  -999.250000
 1580.4500000 0.0000000005 1.0000000000  -999.250000
 1580.5000000 0.0000000005 1.0000000000  -999.250000
 1580.5500000 0.0000000005 1.0000000000  -999.250000
 1580.6000000 0.0000000005 1.0000000000  -999.250000
 1580.6500000 0.0000000005 1.0000000000  -999.250000
 1580.7000000 0.0000000005 1.0000000000  -999.250000
 1580.7500000 0.0000000005 1.0000000000  -999.250000
 1580.8000000 0.0000000005 1.0000000000  -999.250000
 1580.8500000 0.0000000005 1.0000000000  -999.250000
 1580.9000000 0.0000000005 1.0000000000  -999.250000
 1580.9500000 0.0000000005 1.0000000000  -999.250000
 1581.0000000 0.0000000005 1.0000000000  -999.250000
 1581.0500000 0.0000000005 1.0000000000  -999.250000
 1581.1000000 0.0000000005 1.0000000000  -999.250000
 1581.1500000 0.0000000005 1.0000000000  -999.250000
 1581.2000000 0.0000000005 1.0000000000  -999.250000
 1581.2500000 0.0000000005 1.0000000000  -999.250000
 1581.3000000 0.0000000005 1.0000000000  -999.250000
 1581.3500000 0.0000000005 1.0000000000  -999.250000
 1581.4000000 0.0000000005 1.0000000000  -999.250000
 1581.4500000 0.0000000005 1.0000000000  -999.250000
 1581.5000000 0.0000000005 1.0000000000  -999.250000
 1581.5500000 0.0000000005 1.0000000000  -999.250000
 1581.6000000 0.0000000005 1.0000000000  -999.250000
 1581.6500000 0.0000000005 1.0000000000  -999.250000
 1581.7000000 0.0000000005 1.0000000000  -999.250000
 1581.7500000 0.0000000005 1.0000000000  -999.250000
 1581.8000000 0.0000000005 1.0000000000  -999.250000
 1581.8500000 0.0000000005 1.0000000000  -999.250000
 1581.9000000 0.0000000005 1.0000000000  -999.250000
 1581.9500000 0.0000000005 1.0000000000  -999.250000
 1582.0000000 0.0000000005 1.0000000000  -999.250000
 1582.0500000 0.0000000005 1.0000000000  -999.250000
 1582.1000000 0.0000000005 1.0000000000  -999.250000
 1582.1500000 0.0000000005 1.0000000000  -999.250000
 1582.2000000 0.0000000005 1.0000000000  -999.250000
 1582.2500000 0.0000000005 1.0000000000  -999.250000
 1582.3000000 0.0000000005 1.0000000000  -999.250000
 1582.3500000 0.0000000005 1.0000000000  -999.250000
 1582.4000000 0.0000000005 1.0000000000  -999.250000
 1582.4500000 0.0000000005 1.0000000000  -999.250000
 1582.5000000 0.0000000005 1.0000000000  -999.250000
 1582.5500000 0.0000000005 1.0000000000  -999.250000
 1582.6000000 0.0000000005 1.0000000000  -999.250000
 1582.6500000 0.0000000005 1.0000000000  -999.250000
 1582.7000000 0.0000000005 1.0000000000  -999.250000
 1582.7500000 0.0000000005 1.0000000000  -999.250000
 1582.8000000 0.0000000005 1.0000000000  -999.250000
 1582.8500000 0.0000000005 1.0000000000  -999.250000
 1582.9000000 0.0000000005 1.0000000000  -999.250000
 1582.9500000 0.0000000005 1.0000000000  -999.250000
 1583.0000000 0.0000000005 1.0000000000  -999.250000
 1583.0500000 0.0000000005 1.0000000000  -999.250000
 1583.1000000 0.0000000005 1.0000000000  -999.250000
 1583.1500000 0.0000000005 1.0000000000  -999.250000
 1583.2000000 0.0000000005 1.0000000000  -999.250000
 1583.2500000 0.0000000005 1.0000000000  -999.250000
 1583.3000000 0.0000000005 1.0000000000  -999.250000
 1583.3500000 0.0000000005 1.0000000000  -999.250000
 1583.4000000 0.0000000005 1.0000000000  -999.250000
 1583.4500000 0.0000000005 1.0000000000  -999.250000
 1583.5000000 0.0000000005 1.0000000000  -999.250000
 1583.5500000 0.0000000005 1.0000000000  -999.250000
 1583.6000000 0.0000000005 1.0000000000  -999.250000
 1583.6500000 0.0000000005 1.0000000000  -999.250000
 1583.7000000 0.0000000005 1.0000000000  -999.250000
 1583.7500000 0.0000000005 1.0000000000  -999.250000
 1583.8000000 0.0000000005 1.0000000000  -999.250000
 1583.8500000 0.0000000005 1.0000000000  -999.250000
 1583.9000000 0.0000000005 1.0000000000  -999.250000
 1583.9500000 0.0000000005 1.0000000000  -999.250000
 1584.0000000 0.0000000005 1.0000000000  -999.250000
 1584.0500000 0.0000000005 1.0000000000  -999.250000
 1584.1000000 0.0000000005 1.0000000000  -999.250000
 1584.1500000 0.0000000005 1.0000000000  -999.250000
 1584.2000000 0.0000000005 1.0000000000  -999.250000
 1584.2500000 0.0000000005 1.0000000000  -999.250000
 1584.3000000 0.0000000005 1.0000000000  -999.250000
 1584.3500000 0.0000000005 1.0000000000  -999.250000
 1584.4000000 0.0000000005 1.0000000000  -999.250000
 1584.4500000 0.0000000005 1.0000000000  -999.250000
 1584.5000000 0.0000000005 1.0000000000  -999.250000
 1584.5500000 0.0000000005 1.0000000000  -999.250000
 1584.6000000 0.0000000005 1.0000000000  -999.250000
 1584.6500000 0.0000000005 1.0000000000  -999.250000
 1584.7000000 0.0000000005 1.0000000000  -999.250000
 1584.7500000 0.0000000005 1.0000000000  -999.250000
 1584.8000000 0.0000000005 1.0000000000  -999.250000
 1584.8500000 0.0000000005 1.0000000000  -999.250000
 1584.9000000 0.0000000005 1.0000000000  -999.250000
 1584.9500000 0.0000000005 1.0000000000  -999.250000
 1585.0000000 0.0000000005 1.0000000000  -999.250000
 1585.0500000 0.0000000005 1.0000000000  -999.250000
 1585.1000000 0.0000000005 1.0000000000  -999.250000
 1585.1500000 0.0000000005 1.0000000000  -999.250000
 1585.2000000 0.0000000005 1.0000000000  -999.250000
 1585.2500000 0.0000000005 1.0000000000  -999.250000
 1585.3000000 0.0000000005 1.0000000000  -999.250000
 1585.3500000 0.0000000005 1.0000000000  -999.250000
 1585.4000000 0.0000000005 1.0000000000  -999.250000
 1585.4500000 0.0000000005 1.0000000000  -999.250000
 1585.5000000 0.0000000005 1.0000000000  -999.250000
 1585.5500000 0.0000000005 1.0000000000  -999.250000
 1585.6000000 0.0000000005 1.0000000000  -999.250000
 1585.6500000 0.0000000005 1.0000000000  -999.250000
 1585.7000000 0.0000000005 1.0000000000  -999.250000
 1585.7500000 0.0000000005 1.0000000000  -999.250000
 1585.8000000 0.0000000005 1.0000000000  -999.250000
 1585.8500000 0.0000000005 1.0000000000  -999.250000
 1585.9000000 0.0000000005 1.0000000000  -999.250000
 1585.9500000 0.0000000005 1.0000000000  -999.250000
 1586.0000000 0.0000000005 1.0000000000  -999.250000
 1586.0500000 0.0000000005 1.0000000000  -999.250000
 1586.1000000 0.0000000005 1.0000000000  -999.250000
 1586.1500000 0.0000000005 1.0000000000  -999.250000
 1586.2000000 0.0000000005 1.0000000000  -999.250000
 1586.2500000 0.0000000005 1.0000000000  -999.250000
 1586.3000000 0.0000000005 1.0000000000  -999.250000
 1586.3500000 0.0000000005 1.0000000000  -999.250000
 1586.4000000 0.0000000005 1.0000000000  -999.250000
 1586.4500000 0.0000000005 1.0000000000  -999.250000
 1586.5000000 0.0000000005 1.0000000000  -999.250000
 1586.5500000 0.0000000005 1.0000000000  -999.250000
 1586.6000000 0.0000000005 1.0000000000  -999.250000
 1586.6500000 0.0000000005 1.0000000000  -999.250000
 1586.7000000 0.0000000005 1.0000000000  -999.250000
 1586.7500000 0.0000000005 1.0000000000  -999.250000
 1586.8000000 0.0000000005 1.0000000000  -999.250000
 1586.8500000 0.0000000005 1.0000000000  -999.250000
 1586.9000000 0.0000000005 1.0000000000  -999.250000
 1586.9500000 0.0000000005 1.0000000000  -999.250000
 1587.0000000 0.0000000005 1.0000000000  -999.250000
 1587.0500000 0.0000000005 1.0000000000  -999.250000
 1587.1000000 0.0000000005 1.0000000000  -999.250000
 1587.1500000 0.0000000005 1.0000000000  -999.250000
 1587.2000000 0.0000000005 1.0000000000  -999.250000
 1587.2500000 0.0000000005 1.0000000000  -999.250000
 1587.3000000 0.0000000005 1.0000000000  -999.250000
 1587.3500000 0.0000000005 1.0000000000  -999.250000
 1587.4000000 0.0000000005 1.0000000000  -999.250000
 1587.4500000 0.0000000005 1.0000000000  -999.250000
 1587.5000000 0.0000000005 1.0000000000  -999.250000
