# LAS format log file from PETREL
# Project units are specified as depth units
#==================================================================
~Version information
VERS.   2.0:
WRAP.   NO:
#==================================================================
~Well
STRT .m      1580.0000000 :
STOP .m      1760.0000000 :
STEP .m     0.05000000 :
NULL .        -999.250000 :
COMP.           : COMPANY
WELL.  A_IPE   : WELL
FLD.            : FIELD
LOC.            : LOCATION
SRVC.           : SERVICE COMPANY
DATE.  Friday, March 30 2012 17:03:22   : DATE
PROV.           : PROVINCE
UWI.      : UNIQUE WELL ID
API.            : API NUMBER
#==================================================================
~Curve
DEPT .m                   : DEPTH
Permeability*** .mD       : Permeability ***
NTG*** .                  : NTG ***
PORDENS268*** .m3/m3      : POR DENS 268 ***
~Parameter
#==================================================================
~Ascii
# ...
 1693.2500000 7.6648950577 1.0000000000 0.1250000000
 1693.3000000 8.2485218048 1.0000000000 0.1250000000
 1693.3500000 9.0570402145 1.0000000000 0.1250000000
 1693.4000000 9.9249105453 1.0000000000 0.1250000000
 1693.4500000 10.865016937 1.0000000000 0.1309999973
 1693.5000000 11.641030312 1.0000000000 0.1309999973
 1693.5500000 12.467655182 1.0000000000 0.1309999973
 1693.6000000 13.341916084 1.0000000000 0.1309999973
 1693.6500000 14.532101631 1.0000000000 0.1368999928
 1693.7000000 15.815032005 1.0000000000 0.1368999928
 1693.7500000 17.182296753 1.0000000000 0.1368999928
 1693.8000000 17.784328461 1.0000000000 0.1429000050
 1693.8500000 18.403589249 1.0000000000 0.1429000050
 1693.9000000 19.032491684 1.0000000000 0.1429000050
 1693.9500000 19.687143326 1.0000000000 0.1429000050
 1694.0000000 16.869567871 1.0000000000 0.1368999928
 1694.0500000 14.398516655 1.0000000000 0.1368999928
 1694.1000000 12.227497101 1.0000000000 0.1309999973
 1694.1500000 8.4264793396 1.0000000000 0.1250000000
 1694.2000000 5.6495141983 1.0000000000 0.1190999970
 1694.2500000 3.6918642521 1.0000000000 0.1071000025
 1694.3000000 0.0010000000 0.0000000000 0.1071000025
 1694.3500000 0.0010000000 0.0000000000 0.1011999995
 1694.4000000 0.0010000000 0.0000000000 0.0952000022
 1694.4500000 0.0010000000 0.0000000000 0.1011999995
 1694.5000000 0.0010000000 0.0000000000 0.1071000025
 1694.5500000 5.0570096970 1.0000000000 0.1130999997
 1694.6000000 8.8341989517 1.0000000000 0.1250000000
 1694.6500000 15.522946358 1.0000000000 0.1368999928
 1694.7000000 26.929952621 1.0000000000 0.1488000005
 1694.7500000 46.945270538 1.0000000000 0.1606999934
 1694.8000000 77.837516785 1.0000000000 0.1785999984
 1694.8500000 205.03764343 1.0000000000 0.1905000061
 1694.9000000 280.42037964 1.0000000000 0.2023999989
 1694.9500000 376.73818970 1.0000000000 0.2143000066
 1695.0000000 498.04055786 1.0000000000 0.2202000022
 1695.0500000 590.35754395 1.0000000000 0.2320999950
 1695.1000000 695.81506348 1.0000000000 0.2381000072
 1695.1500000 816.09210205 1.0000000000 0.2440000027
 1695.2000000 872.55450439 1.0000000000 0.2440000027
 1695.2500000 931.92803955 1.0000000000 0.2500000000
 1695.3000000 994.70764160 1.0000000000 0.2500000000
 1695.3500000 990.52557373 1.0000000000 0.2500000000
 1695.4000000 986.15924072 1.0000000000 0.2500000000
 1695.4500000 981.80847168 1.0000000000 0.2500000000
 1695.5000000 940.28741455 1.0000000000 0.2500000000
 1695.5500000 899.82189941 1.0000000000 0.2500000000
 1695.6000000 860.94689941 1.0000000000 0.2440000027
 1695.6500000 830.82971191 1.0000000000 0.2440000027
 1695.7000000 801.56549072 1.0000000000 0.2440000027
 1695.7500000 773.13641357 1.0000000000 0.2440000027
 1695.8000000 769.72167969 1.0000000000 0.2440000027
 1695.8500000 766.15740967 1.0000000000 0.2440000027
 1695.9000000 762.76776123 1.0000000000 0.2381000072
 1695.9500000 801.56549072 1.0000000000 0.2440000027
 1696.0000000 841.93524170 1.0000000000 0.2440000027
 1696.0500000 884.10589600 1.0000000000 0.2500000000
 1696.1000000 956.60675049 1.0000000000 0.2500000000
 1696.1500000 1033.8148193 1.0000000000 0.2560000122
 1696.2000000 1116.1763916 1.0000000000 0.2560000122
 1696.2500000 1183.6378174 1.0000000000 0.2619000077
 1696.3000000 1254.1000977 1.0000000000 0.2619000077
 1696.3500000 1328.4011230 1.0000000000 0.2678999901
 1696.4000000 1328.4011230 1.0000000000 0.2678999901
 1696.4500000 1328.4011230 1.0000000000 0.2678999901
 1696.5000000 1328.4011230 1.0000000000 0.2678999901
 1696.5500000 1285.4174805 1.0000000000 0.2678999901
 1696.6000000 1244.0372314 1.0000000000 0.2619000077
 1696.6500000 1203.5023193 1.0000000000 0.2619000077
 1696.7000000 1159.0654297 1.0000000000 0.2619000077
 1696.7500000 1116.1763916 1.0000000000 0.2560000122
 1696.8000000 1074.3605957 1.0000000000 0.2560000122
 1696.8500000 1065.2653809 1.0000000000 0.2560000122
 1696.9000000 1056.2315674 1.0000000000 0.2560000122
 1696.9500000 1047.2600098 1.0000000000 0.2560000122
 1697.0000000 1067.5861816 1.0000000000 0.2560000122
 1697.0500000 1088.0136719 1.0000000000 0.2560000122
 1697.1000000 1108.9725342 1.0000000000 0.2560000122
 1697.1500000 1130.2547607 1.0000000000 0.2560000122
 1697.2000000 1168.7988281 1.0000000000 0.2619000077
 1697.2500000 1208.3939209 1.0000000000 0.2619000077
 1697.3000000 1249.0601807 1.0000000000 0.2619000077
 1697.3500000 1290.8206787 1.0000000000 0.2678999901
 1697.4000000 1333.6970215 1.0000000000 0.2678999901
 1697.4500000 1377.7106934 1.0000000000 0.2678999901
 1697.5000000 1428.7490234 1.0000000000 0.2678999901
 1697.5500000 1481.0222168 1.0000000000 0.2737999856
 1697.6000000 1535.1060791 1.0000000000 0.2737999856
 1697.6500000 1584.3739014 1.0000000000 0.2737999856
 1697.7000000 1634.9064941 1.0000000000 0.2797999978
 1697.7500000 1686.7265625 1.0000000000 0.2797999978
 1697.8000000 1647.7395020 1.0000000000 0.2797999978
 1697.8500000 1609.4807129 1.0000000000 0.2737999856
 1697.9000000 1571.9395752 1.0000000000 0.2737999856
 1697.9500000 1361.1987305 1.0000000000 0.2678999901
 1698.0000000 1173.8043213 1.0000000000 0.2619000077
 1698.0500000 1007.5415039 1.0000000000 0.2560000122
 1698.1000000 749.01098633 1.0000000000 0.2381000072
 1698.1500000 546.49212646 1.0000000000 0.2261999995
 1698.2000000 390.73880005 1.0000000000 0.2143000066
 1698.2500000 259.46502686 1.0000000000 0.1964000016
 1698.3000000 166.20872498 1.0000000000 0.1844999939
 1698.3500000 102.06726074 1.0000000000 0.1667000055
 1698.4000000 68.970275879 1.0000000000 0.1547999978
 1698.4500000 23.480264664 1.0000000000 0.1488000005
 1698.5000000 14.128144264 1.0000000000 0.1368999928
 1698.5500000 11.304542542 1.0000000000 0.1309999973
 1698.6000000 8.9664974213 1.0000000000 0.1250000000
 1698.6500000 7.0378751755 1.0000000000 0.1190999970
 1698.7000000 7.0378751755 1.0000000000 0.1190999970
 1698.7500000 7.0378751755 1.0000000000 0.1190999970
 1698.8000000 7.0378751755 1.0000000000 0.1190999970
 1698.8500000 7.0378751755 1.0000000000 0.1190999970
 1698.9000000 7.0378751755 1.0000000000 0.1190999970
 1698.9500000 7.0378751755 1.0000000000 0.1190999970
 1699.0000000 5.9741640091 1.0000000000 0.1190999970
 1699.0500000 5.0489706993 1.0000000000 0.1130999997
 1699.1000000 4.2426033020 1.0000000000 0.1130999997
 1699.1500000 3.3361728191 1.0000000000 0.1071000025
 1699.2000000 2.5953390598 1.0000000000 0.1071000025
 1699.2500000 1.9954061508 1.0000000000 0.1011999995
 1699.3000000 0.0010000000 0.0000000000 0.1011999995
 1699.3500000 0.0010000000 0.0000000000 0.1011999995
 1699.4000000 0.0010000000 0.0000000000 0.1011999995
 1699.4500000 2.6437571049 1.0000000000 0.1071000025
 1699.5000000 3.7565171719 1.0000000000 0.1071000025
 1699.5500000 5.2282986641 1.0000000000 0.1130999997
 1699.6000000 7.6989254951 1.0000000000 0.1190999970
 1699.6500000 11.057461739 1.0000000000 0.1309999973
 1699.7000000 15.536431313 1.0000000000 0.1368999928
 1699.7500000 20.588701248 1.0000000000 0.1429000050
 1699.8000000 27.854419708 1.0000000000 0.1488000005
 1699.8500000 37.120349884 1.0000000000 0.1547999978
 1699.9000000 46.230068207 1.0000000000 0.1606999934
 1699.9500000 57.101799011 1.0000000000 0.1667000055
 1700.0000000 69.991981506 1.0000000000 0.1726000011
 1700.0500000 82.301429749 1.0000000000 0.1785999984
 1700.1000000 163.15655518 1.0000000000 0.1844999939
 1700.1500000 187.57710266 1.0000000000 0.1844999939
 1700.2000000 204.14309692 1.0000000000 0.1905000061
 1700.2500000 221.80639648 1.0000000000 0.1905000061
 1700.3000000 240.67866516 1.0000000000 0.1964000016
 1700.3500000 260.88949585 1.0000000000 0.1964000016
 1700.4000000 285.13522339 1.0000000000 0.2023999989
 1700.4500000 311.16113281 1.0000000000 0.2023999989
 1700.5000000 339.06472778 1.0000000000 0.2082999945
 1700.5500000 370.92721558 1.0000000000 0.2143000066
 1700.6000000 405.05825806 1.0000000000 0.2143000066
 1700.6500000 441.77478027 1.0000000000 0.2202000022
 1700.7000000 473.93600464 1.0000000000 0.2202000022
 1700.7500000 507.95419312 1.0000000000 0.2261999995
