# LAS format log file from PETREL
# Project units are specified as depth units
#==================================================================
~Version information
VERS.   2.0:
WRAP.   NO:
#==================================================================
~Well
STRT .m      1605.0999800 :
STOP .m      1769.9999800 :
STEP .m     0.10000000 :
NULL .        -999.250000 :
COMP.           : COMPANY
WELL.  E_IPE   : WELL
FLD.            : FIELD
LOC.            : LOCATION
SRVC.           : SERVICE COMPANY
DATE.  Friday, March 30 2012 17:04:18   : DATE
PROV.           : PROVINCE
UWI.      : UNIQUE WELL ID
API.            : API NUMBER
#==================================================================
~Curve
DEPT .m                   : DEPTH
Permeability*** .mD       : Permeability ***
NTG*** .                  : NTG ***
PORDENS268*** .m3/m3      : POR DENS 268 ***
~Parameter
#==================================================================
~Ascii
# ...
 1650.3999800 26.769908905 1.0000000000 0.1488000005
 1650.4999800 7.1227326393 1.0000000000 0.1368999928
 1650.5999800 3.3067421913 1.0000000000 0.1250000000
 1650.6999800 2.1995646954 1.0000000000 0.1190999970
 1650.7999800 2.6571519375 1.0000000000 0.1190999970
 1650.8999800 4.9996266365 1.0000000000 0.1309999973
 1650.9999800 9.3665170670 1.0000000000 0.1429000050
 1651.0999800 13.988315582 1.0000000000 0.1488000005
 1651.1999800 14.779668808 1.0000000000 0.1488000005
 1651.2999800 10.844885826 1.0000000000 0.1429072022
 1651.3999800 6.6897921562 1.0000000000 0.1368999928
 1651.4999800 4.9996266365 1.0000000000 0.1309999973
 1651.5999800 4.6764564514 1.0000000000 0.1309999973
 1651.6999800 6.0810580254 1.0000000000 0.1309999973
 1651.7999800 8.3068380356 1.0000000000 0.1368927956
 1651.8999800 12.509935379 1.0000000000 0.1488000005
 1651.9999800 31.112424850 1.0000000000 0.1547999978
 1652.0999800 33.486701965 1.0000000000 0.1547999978
 1652.1999800 31.888410568 1.0000000000 0.1547999978
 1652.2999800 27.457553864 1.0000000000 0.1488073170
 1652.3999800 10.534852982 1.0000000000 0.1429000050
 1652.4999800 6.9034733772 1.0000000000 0.1368999928
 1652.5999800 4.6764564514 1.0000000000 0.1309999973
 1652.6999800 4.0815162659 1.0000000000 0.1250000000
 1652.7999800 6.6897921562 1.0000000000 0.1368854791
 1652.8999800 15.188876152 1.0000000000 0.1547999978
 1652.9999800 42.070739746 1.0000000000 0.1785999984
 1653.0999800 171.25996399 1.0000000000 0.2023999989
 1653.1999800 317.00228882 1.0000000000 0.2261999995
 1653.2999800 429.75851440 1.0000000000 0.2380854934
 1653.3999800 483.01583862 1.0000000000 0.2381000072
 1653.4999800 455.76177979 1.0000000000 0.2381000072
 1653.5999800 327.06750488 1.0000000000 0.2261999995
 1653.6999800 151.08822632 1.0000000000 0.1964000016
 1653.7999800 54.504333496 1.0000000000 0.1667362303
 1653.8999800 9.0917501450 1.0000000000 0.1429000050
 1653.9999800 4.6764564514 1.0000000000 0.1309999973
 1654.0999800 4.8358426094 1.0000000000 0.1309999973
 1654.1999800 9.9366149902 1.0000000000 0.1429000050
 1654.2999800 32.679698944 1.0000000000 0.1547854841
 1654.3999800 29.606363297 1.0000000000 0.1488000005
 1654.4999800 7.3477368355 1.0000000000 0.1368999928
 1654.5999800 3.1902573109 1.0000000000 0.1250000000
 1654.6999800 2.1995646954 1.0000000000 0.1190999970
 1654.7999800 3.4267289639 1.0000000000 0.1249928027
 1654.8999800 8.3068380356 1.0000000000 0.1368999928
 1654.9999800 19.818601608 1.0000000000 0.1606999934
 1655.0999800 59.502799988 1.0000000000 0.1667000055
 1655.1999800 70.606063843 1.0000000000 0.1726000011
 1655.2999800 73.626976013 1.0000000000 0.1726000011
 1655.3999800 79.980361938 1.0000000000 0.1785999984
 1655.4999800 95.895248413 1.0000000000 0.1844999939
 1655.5999800 120.97879028 1.0000000000 0.1905000061
 1655.6999800 143.05084229 1.0000000000 0.1964000016
 1655.7999800 151.08822632 1.0000000000 0.1964000016
 1655.8999800 140.44972229 1.0000000000 0.1964000016
 1655.9999800 118.70571136 1.0000000000 0.1905000061
 1656.0999800 92.155761719 1.0000000000 0.1844999939
 1656.1999800 64.863533020 1.0000000000 0.1726000011
 1656.2999800 42.474807739 1.0000000000 0.1607145071
 1656.3999800 28.159336090 1.0000000000 0.1488000005
 1656.4999800 23.535940170 1.0000000000 0.1488000005
 1656.5999800 26.096023560 1.0000000000 0.1488000005
 1656.6999800 32.679698944 1.0000000000 0.1547999978
 1656.7999800 38.672557831 1.0000000000 0.1606927961
 1656.8999800 41.497287750 1.0000000000 0.1606999934
 1656.9999800 38.672557831 1.0000000000 0.1606999934
 1657.0999800 36.877048492 1.0000000000 0.1547999978
 1657.1999800 36.877048492 1.0000000000 0.1547999978
 1657.2999800 39.596305847 1.0000000000 0.1606927961
 1657.3999800 40.537948608 1.0000000000 0.1606999934
 1657.4999800 38.672557831 1.0000000000 0.1606999934
 1657.5999800 16.035354614 1.0000000000 0.1547999978
 1657.6999800 13.232209206 1.0000000000 0.1488000005
 1657.7999800 12.509935379 1.0000000000 0.1488000005
 1657.8999800 14.379471779 1.0000000000 0.1488000005
 1657.9999800 16.472854614 1.0000000000 0.1547999978
 1658.0999800 17.844720840 1.0000000000 0.1547999978
 1658.1999800 39.596305847 1.0000000000 0.1606999934
 1658.2999800 43.471000671 1.0000000000 0.1606999934
 1658.3999800 41.497287750 1.0000000000 0.1606999934
 1658.4999800 37.766220093 1.0000000000 0.1547999978
 1658.5999800 36.004585266 1.0000000000 0.1547999978
 1658.6999800 43.471000671 1.0000000000 0.1606999934
 1658.7999800 64.863533020 1.0000000000 0.1725854874
 1658.8999800 118.70571136 1.0000000000 0.1905000061
 1658.9999800 241.09271240 1.0000000000 0.2143000066
 1659.0999800 404.96069336 1.0000000000 0.2320999950
 1659.1999800 462.45587158 1.0000000000 0.2381000072
 1659.2999800 369.93627930 1.0000000000 0.2321073115
 1659.3999800 245.10777283 1.0000000000 0.2143000066
 1659.4999800 159.48489380 1.0000000000 0.1964000016
 1659.5999800 116.46764374 1.0000000000 0.1905000061
 1659.6999800 105.77946472 1.0000000000 0.1844999939
 1659.7999800 109.95574188 1.0000000000 0.1844999939
 1659.8999800 95.895248413 1.0000000000 0.1844999939
 1659.9999800 53.308887482 1.0000000000 0.1667000055
 1660.0999800 21.181861877 1.0000000000 0.1429000050
 1660.1999800 3.1902573109 1.0000000000 0.1250000000
 1660.2999800 2.1995646954 1.0000000000 0.1191071942
 1660.3999800 3.6773884296 1.0000000000 0.1250000000
 1660.4999800 12.509935379 1.0000000000 0.1488000005
 1660.5999800 78.352294922 1.0000000000 0.1785999984
 1660.6999800 200.32102966 1.0000000000 0.2082999945
 1660.7999800 358.81823730 1.0000000000 0.2261781693
 1660.8999800 518.91235352 1.0000000000 0.2440000027
 1660.9999800 666.32452393 1.0000000000 0.2560000122
 1661.0999800 802.82324219 1.0000000000 0.2619000077
 1661.1999800 890.38446045 1.0000000000 0.2678999901
 1661.2999800 834.80639648 1.0000000000 0.2619073391
 1661.3999800 675.40661621 1.0000000000 0.2560000122
 1661.4999800 483.01583862 1.0000000000 0.2381000072
 1661.5999800 322.00326538 1.0000000000 0.2261999995
 1661.6999800 225.56060791 1.0000000000 0.2082999945
 1661.7999800 183.72518921 1.0000000000 0.2024071962
 1661.8999800 156.64556885 1.0000000000 0.1964000016
 1661.9999800 120.97879028 1.0000000000 0.1905000061
 1662.0999800 81.635528564 1.0000000000 0.1785999984
 1662.1999800 48.736858368 1.0000000000 0.1667000055
 1662.2999800 33.486701965 1.0000000000 0.1548145115
 1662.3999800 26.096023560 1.0000000000 0.1488000005
 1662.4999800 24.789485931 1.0000000000 0.1488000005
 1662.5999800 28.875473022 1.0000000000 0.1488000005
 1662.6999800 41.497287750 1.0000000000 0.1606999934
 1662.7999800 60.808193207 1.0000000000 0.1725854874
 1662.8999800 92.155761719 1.0000000000 0.1844999939
 1662.9999800 145.69120789 1.0000000000 0.1964000016
 1663.0999800 229.36659241 1.0000000000 0.2143000066
 1663.1999800 307.18655396 1.0000000000 0.2202000022
 1663.2999800 337.38946533 1.0000000000 0.2261926830
 1663.3999800 347.97055054 1.0000000000 0.2261999995
 1663.4999800 364.34249878 1.0000000000 0.2261999995
 1663.5999800 369.93627930 1.0000000000 0.2320999950
 1663.6999800 347.97055054 1.0000000000 0.2261999995
 1663.7999800 337.38946533 1.0000000000 0.2261999995
 1663.8999800 342.64715576 1.0000000000 0.2261999995
 1663.9999800 375.59759521 1.0000000000 0.2320999950
 1664.0999800 429.75851440 1.0000000000 0.2381000072
 1664.1999800 526.34185791 1.0000000000 0.2440000027
 1664.2999800 622.37335205 1.0000000000 0.2499926835
 1664.3999800 666.32452393 1.0000000000 0.2560000122
 1664.4999800 622.37335205 1.0000000000 0.2500000000
 1664.5999800 549.14703369 1.0000000000 0.2440000027
 1664.6999800 490.02963257 1.0000000000 0.2381000072
 1664.7999800 436.14410400 1.0000000000 0.2381000072
 1664.8999800 398.94549561 1.0000000000 0.2320999950
 1664.9999800 347.97055054 1.0000000000 0.2261999995
 1665.0999800 302.37179565 1.0000000000 0.2202000022
 1665.1999800 253.29727173 1.0000000000 0.2143000066
 1665.2999800 229.36659241 1.0000000000 0.2143000066
 1665.3999800 218.10276794 1.0000000000 0.2082999945
