# LAS format log file from PETREL
# Project units are specified as depth units
#==================================================================
~Version information
VERS.   2.0:
WRAP.   NO:
#==================================================================
~Well
STRT .m      1550.0999800 :
STOP .m      1724.9999800 :
STEP .m     0.30000000 :
NULL .        -999.250000 :
COMP.           : COMPANY
WELL.  C_IPE   : WELL
FLD.            : FIELD
LOC.            : LOCATION
SRVC.           : SERVICE COMPANY
DATE.  Friday, March 30 2012 17:03:54   : DATE
PROV.           : PROVINCE
UWI.      : UNIQUE WELL ID
API.            : API NUMBER
#==================================================================
~Curve
DEPT .m                   : DEPTH
Permeability*** .mD       : Permeability ***
NTG*** .                  : NTG ***
PORDENS268*** .m3/m3      : POR DENS 268 ***
~Parameter
#==================================================================
~Ascii
 1550.0999800 0.0000000005 1.0000000000  -999.250000
 1550.3999800 0.0000000005 1.0000000000  -999.250000
 1550.6999800 0.0000000005 1.0000000000  -999.250000
 1550.9999800 0.0000000005 1.0000000000  -999.250000
 1551.2999800 0.0000000005 1.0000000000  -999.250000
 1551.5999800 0.0000000005 1.0000000000  -999.250000
 1551.8999800 0.0000000005 1.0000000000  -999.250000
 1552.1999800 0.0000000005 1.0000000000  -999.250000
 1552.4999800 0.0000000005 1.0000000000  -999.250000
 1552.7999800 0.0000000005 1.0000000000  -999.250000
 1553.0999800 0.0000000005 1.0000000000  -999.250000
 1553.3999800 0.0000000005 1.0000000000  -999.250000
 1553.6999800 0.0000000005 1.0000000000  -999.250000
 1553.9999800 0.0000000005 1.0000000000  -999.250000
 1554.2999800 0.0000000005 1.0000000000  -999.250000
 1554.5999800 0.0000000005 1.0000000000  -999.250000
 1554.8999800 0.0000000005 1.0000000000  -999.250000
 1555.1999800 0.0000000005 1.0000000000  -999.250000
 1555.4999800 0.0000000005 1.0000000000  -999.250000
 1555.7999800 0.0000000005 1.0000000000  -999.250000
 1556.0999800 0.0000000005 1.0000000000  -999.250000
 1556.3999800 0.0000000005 1.0000000000  -999.250000
 1556.6999800 0.0000000005 1.0000000000  -999.250000
 1556.9999800 0.0000000005 1.0000000000  -999.250000
 1557.2999800 0.0000000005 1.0000000000  -999.250000
 1557.5999800 0.0000000005 1.0000000000  -999.250000
 1557.8999800 0.0000000005 1.0000000000  -999.250000
 1558.1999800 0.0000000005 1.0000000000  -999.250000
 1558.4999800 0.0000000005 1.0000000000  -999.250000
 1558.7999800 0.0000000005 1.0000000000  -999.250000
 1559.0999800 0.0000000005 1.0000000000  -999.250000
 1559.3999800 0.0000000005 1.0000000000  -999.250000
 1559.6999800 0.0000000005 1.0000000000  -999.250000
 1559.9999800 0.0010000000 0.0000000000 0.0952000022
 1560.2999800 0.0010000000 0.0000000000 0.0833048448
 1560.5999800 0.0010000000 0.0000000000 0.0833000019
 1560.8999800 0.0010000000 0.0000000000 0.0892999992
 1561.1999800 0.0010000000 0.0000000000 0.0892999992
 1561.4999800 0.0010000000 0.0000000000 0.0892999992
 1561.7999800 0.0010000000 0.0000000000 0.0892999992
 1562.0999800 0.0010000000 0.0000000000 0.0833000019
 1562.3999800 0.0010000000 0.0000000000 0.0833000019
 1562.6999800 0.0010000000 0.0000000000 0.0833000019
 1562.9999800 0.0010000000 0.0000000000 0.0892999992
 1563.2999800 0.0010000000 0.0000000000 0.0714072809
 1563.5999800 0.0010000000 0.0000000000 0.0773999989
 1563.8999800 0.0010000000 0.0000000000 0.0773999989
 1564.1999800 0.0010000000 0.0000000000 0.0773999989
 1564.4999800 0.0010000000 0.0000000000 0.0773999989
 1564.7999800 0.0010000000 0.0000000000 0.0832976028
 1565.0999800 0.0010000000 0.0000000000 0.0833000019
 1565.3999800 0.0010000000 0.0000000000 0.0654999986
 1565.6999800 0.0010000000 0.0000000000 0.0714000016
 1565.9999800 0.0010000000 0.0000000000 0.0773999989
 1566.2999800 0.0010000000 0.0000000000 0.0773999989
 1566.5999800 0.0010000000 0.0000000000 0.1011999995
 1566.8999800 0.0000000000 1.0000000000 0.1071000025
 1567.1999800 0.0010000000 0.0000000000 0.1130999997
 1567.4999800 0.0010000000 0.0000000000 0.0952000022
 1567.7999800 0.0010000000 0.0000000000 0.0476193652
 1568.0999800 0.0010000000 0.0000000000 0.0595000014
 1568.3999800 0.0010000000 0.0000000000 0.0833000019
 1568.6999800 0.0010000000 0.0000000000 0.0892999992
 1568.9999800 0.0000000000 1.0000000000 0.1130999997
 1569.2999800 0.0000001162 1.0000000000 0.1130999997
 1569.5999800 0.0658732951 1.0000000000 0.1250000000
 1569.8999800 0.0000000894 1.0000000000 0.1250000000
 1570.1999800 0.0000000000 1.0000000000 0.1250000000
 1570.4999800 0.0000052181 1.0000000000 0.1368999928
 1570.7999800 0.0010000000 0.0000000000 0.1131096855
 1571.0999800 0.0010000000 0.0000000000 0.1190999970
 1571.3999800 0.0000000000 1.0000000000 0.1309999973
 1571.6999800 0.0000000000 1.0000000000 0.1547999978
 1571.9999800 8.1143035889 1.0000000000 0.1726000011
 1572.2999800 0.0051925848 1.0000000000 0.1310169250
 1572.5999800 0.0010000000 0.0000000000 0.0892999992
 1572.8999800 0.0010000000 0.0000000000 0.0714000016
 1573.1999800 0.0010000000 0.0000000000 0.0952000022
 1573.4999800 2.3170616627 1.0000000000 0.1547999978
 1573.7999800 38.863307953 1.0000000000 0.1606975943
 1574.0999800 0.1156315207 1.0000000000 0.1011999995
 1574.3999800 0.0015322883 1.0000000000 0.0833000019
 1574.6999800 1.0204114914 1.0000000000 0.1250000000
 1574.9999800 0.0189841613 1.0000000000 0.1368999928
 1575.2999800 0.0000000000 1.0000000000 0.1191072389
 1575.5999800 0.0010000000 0.0000000000 0.1130999997
 1575.8999800 0.0010000000 0.0000000000 0.0952000022
 1576.1999800 0.0010000000 0.0000000000 0.0952000022
 1576.4999800 0.0010000000 0.0000000000 0.1011999995
 1576.7999800 0.0000075600 1.0000000000 0.1785685122
 1577.0999800 130.07215881 1.0000000000 0.2440000027
 1577.3999800 704.38763428 1.0000000000 0.2619000077
 1577.6999800 398.99356079 1.0000000000 0.2320999950
 1577.9999800 0.0000000000 1.0000000000 0.1429000050
 1578.2999800 0.0000000000 1.0000000000 0.1310048401
 1578.5999800 1.7402102947 1.0000000000 0.1905000061
 1578.8999800 124.68759918 1.0000000000 0.2143000066
 1579.1999800 114.70157623 1.0000000000 0.1905000061
 1579.4999800 4.0557250977 1.0000000000 0.1667000055
 1579.7999800 0.0010000000 0.0000000000 0.0952290893
 1580.0999800 0.0010000000 0.0000000000 0.0654999986
 1580.3999800 0.0010000000 0.0000000000 0.0773999989
 1580.6999800 0.0010000000 0.0000000000 0.0833000019
 1580.9999800 0.0010000000 0.0000000000 0.0833000019
 1581.2999800 0.0010000000 0.0000000000 0.0774023980
 1581.5999800 0.0010000000 0.0000000000 0.0833000019
 1581.8999800 0.0010000000 0.0000000000 0.0833000019
 1582.1999800 0.0010000000 0.0000000000 0.0773999989
 1582.4999800 0.0010000000 0.0000000000 0.0833000019
 1582.7999800 0.0000000000 1.0000000000 0.1190854311
 1583.0999800 1.5782592297 1.0000000000 0.1726000011
 1583.3999800 78.171562195 1.0000000000 0.2143000066
 1583.6999800 477.46298218 1.0000000000 0.2381000072
 1583.9999800 346.34573364 1.0000000000 0.2261999995
 1584.2999800 222.58311462 1.0000000000 0.2143048495
 1584.5999800 297.61721802 1.0000000000 0.2202000022
 1584.8999800 238.33045959 1.0000000000 0.2143000066
 1585.1999800 223.30204773 1.0000000000 0.2082999945
 1585.4999800 270.75827026 1.0000000000 0.2202000022
 1585.7999800 390.08074951 1.0000000000 0.2320951521
 1586.0999800 346.34573364 1.0000000000 0.2261999995
 1586.3999800 254.16189575 1.0000000000 0.2143000066
 1586.6999800 195.20716858 1.0000000000 0.2082999945
 1586.9999800 208.70439148 1.0000000000 0.2082999945
 1587.2999800 316.04873657 1.0000000000 0.2261927128
 1587.5999800 379.02783203 1.0000000000 0.2320999950
 1587.8999800 245.94927979 1.0000000000 0.2143000066
 1588.1999800 162.36575317 1.0000000000 0.2023999989
 1588.4999800 245.94927979 1.0000000000 0.2143000066
 1588.7999800 182.47201538 1.0000000000 0.2024048418
 1589.0999800 208.70439148 1.0000000000 0.2082999945
 1589.3999800 270.75827026 1.0000000000 0.2202000022
 1589.6999800 306.25729370 1.0000000000 0.2202000022
 1589.9999800 270.33831787 1.0000000000 0.2202000022
 1590.2999800 229.55015564 1.0000000000 0.2202000022
 1590.5999800 267.34347534 1.0000000000 0.2261999995
 1590.8999800 39.663612366 1.0000000000 0.2082999945
 1591.1999800 28.933490753 1.0000000000 0.1785999984
 1591.4999800 68.412498474 1.0000000000 0.1726000011
 1591.7999800 3.2364411354 1.0000000000 0.1429120898
 1592.0999800 0.0010000000 0.0000000000 0.1011999995
 1592.3999800 0.0000000000 1.0000000000 0.1309999973
 1592.6999800 0.0010000000 0.0000000000 0.1071000025
 1592.9999800 0.0000000000 1.0000000000 0.1547999978
 1593.2999800 0.0171395652 1.0000000000 0.2142758071
 1593.5999800 6.6921558380 1.0000000000 0.2202000022
 1593.8999800 0.0193685498 1.0000000000 0.1844999939
 1594.1999800 0.0000000000 1.0000000000 0.1309999973
 1594.4999800 0.0010000000 0.0000000000 0.1071000025
 1594.7999800 0.0000000000 1.0000000000 0.1725733578
 1595.0999800 132.65605164 1.0000000000 0.2440000027
