# LAS format log file from PETREL
# Project units are specified as depth units
#==================================================================
~Version information
VERS.   2.0:
WRAP.   NO:
#==================================================================
~Well
STRT .m      1610.0000000 :
STOP .m      1780.0000000 :
STEP .m     0.05000000 :
NULL .        -999.250000 :
COMP.           : COMPANY
WELL.  B_IPE   : WELL
FLD.            : FIELD
LOC.            : LOCATION
SRVC.           : SERVICE COMPANY
DATE.  Friday, March 30 2012 17:03:38   : DATE
PROV.           : PROVINCE
UWI.      : UNIQUE WELL ID
API.            : API NUMBER
#==================================================================
~Curve
DEPT .m                   : DEPTH
Permeability*** .mD       : Permeability ***
NTG*** .                  : NTG ***
PORDENS268*** .m3/m3      : POR DENS 268 ***
~Parameter
#==================================================================
~Ascii
# ...
 1655.3000000 26.824110031 1.0000000000 0.1606999934
 1655.3500000 26.824110031 1.0000000000 0.1606999934
 1655.4000000 31.502452850 1.0000000000 0.1606999934
 1655.4500000 36.831462860 1.0000000000 0.1667000055
 1655.5000000 42.880012512 1.0000000000 0.1726000011
 1655.5500000 51.286083221 1.0000000000 0.1726000011
 1655.6000000 107.58448792 1.0000000000 0.1785999984
 1655.6500000 125.36479950 1.0000000000 0.1844999939
 1655.7000000 138.19216919 1.0000000000 0.1844999939
 1655.7500000 152.05471802 1.0000000000 0.1905000061
 1655.8000000 167.01448059 1.0000000000 0.1905000061
 1655.8500000 183.13591003 1.0000000000 0.1964000016
 1655.9000000 206.55445862 1.0000000000 0.2023999989
 1655.9500000 232.26162720 1.0000000000 0.2023999989
 1656.0000000 260.54980469 1.0000000000 0.2082999945
 1656.0500000 289.91363525 1.0000000000 0.2143000066
 1656.1000000 321.88232422 1.0000000000 0.2143000066
 1656.1500000 356.62734985 1.0000000000 0.2202000022
 1656.2000000 388.11163330 1.0000000000 0.2202000022
 1656.2500000 421.89398193 1.0000000000 0.2261999995
 1656.3000000 457.89538574 1.0000000000 0.2261999995
 1656.3500000 493.93722534 1.0000000000 0.2320999950
 1656.4000000 532.22656250 1.0000000000 0.2320999950
 1656.4500000 572.86791992 1.0000000000 0.2381000072
 1656.5000000 618.82360840 1.0000000000 0.2440000027
 1656.5500000 667.84387207 1.0000000000 0.2440000027
 1656.6000000 719.94000244 1.0000000000 0.2500000000
 1656.6500000 757.46514893 1.0000000000 0.2500000000
 1656.7000000 796.71435547 1.0000000000 0.2500000000
 1656.7500000 837.58300781 1.0000000000 0.2560000122
 1656.8000000 848.93688965 1.0000000000 0.2560000122
 1656.8500000 860.41424561 1.0000000000 0.2560000122
 1656.9000000 872.19549561 1.0000000000 0.2560000122
 1656.9500000 860.41424561 1.0000000000 0.2560000122
 1657.0000000 848.93688965 1.0000000000 0.2560000122
 1657.0500000 837.58300781 1.0000000000 0.2560000122
 1657.1000000 782.30187988 1.0000000000 0.2500000000
 1657.1500000 729.99414063 1.0000000000 0.2500000000
 1657.2000000 680.53710938 1.0000000000 0.2440000027
 1657.2500000 561.81933594 1.0000000000 0.2381000072
 1657.3000000 460.25177002 1.0000000000 0.2320999950
 1657.3500000 374.09616089 1.0000000000 0.2202000022
 1657.4000000 253.23118591 1.0000000000 0.2082999945
 1657.4500000 165.97229004 1.0000000000 0.1905000061
 1657.5000000 59.176887512 1.0000000000 0.1785999984
 1657.5500000 31.768682480 1.0000000000 0.1606999934
 1657.6000000 15.780841827 1.0000000000 0.1488000005
 1657.6500000 6.0794839859 1.0000000000 0.1309999973
 1657.7000000 3.1792511940 1.0000000000 0.1250000000
 1657.7500000 0.0010000000 0.0000000000 0.1130999997
 1657.8000000 0.0010000000 0.0000000000 0.1011999995
 1657.8500000 0.0010000000 0.0000000000 0.1011999995
 1657.9000000 0.0010000000 0.0000000000 0.1011999995
 1657.9500000 0.0010000000 0.0000000000 0.0952000022
 1658.0000000 0.0010000000 0.0000000000 0.1011999995
 1658.0500000 0.0010000000 0.0000000000 0.1011999995
 1658.1000000 0.0010000000 0.0000000000 0.1071000025
 1658.1500000 0.0010000000 0.0000000000 0.1071000025
 1658.2000000 0.0010000000 0.0000000000 0.1130999997
 1658.2500000 2.8683941364 1.0000000000 0.1190999970
 1658.3000000 3.8477332592 1.0000000000 0.1190999970
 1658.3500000 5.0677466393 1.0000000000 0.1250000000
 1658.4000000 6.4274678230 1.0000000000 0.1309999973
 1658.4500000 8.3330669403 1.0000000000 0.1368999928
 1658.5000000 10.680292130 1.0000000000 0.1368999928
 1658.5500000 13.539533615 1.0000000000 0.1429000050
 1658.6000000 18.653070450 1.0000000000 0.1488000005
 1658.6500000 25.256944656 1.0000000000 0.1606999934
 1658.7000000 33.671791077 1.0000000000 0.1667000055
 1658.7500000 48.592136383 1.0000000000 0.1726000011
 1658.8000000 119.73792267 1.0000000000 0.1844999939
 1658.8500000 160.88566589 1.0000000000 0.1905000061
 1658.9000000 200.43106079 1.0000000000 0.1964000016
 1658.9500000 247.50929260 1.0000000000 0.2082999945
 1659.0000000 303.02267456 1.0000000000 0.2143000066
 1659.0500000 368.13867188 1.0000000000 0.2202000022
 1659.1000000 437.32733154 1.0000000000 0.2261999995
 1659.1500000 516.61090088 1.0000000000 0.2320999950
 1659.2000000 607.06622314 1.0000000000 0.2381000072
 1659.2500000 645.98321533 1.0000000000 0.2440000027
 1659.3000000 687.03027344 1.0000000000 0.2440000027
 1659.3500000 729.99414063 1.0000000000 0.2500000000
 1659.4000000 736.86389160 1.0000000000 0.2500000000
 1659.4500000 743.62762451 1.0000000000 0.2500000000
 1659.5000000 750.60028076 1.0000000000 0.2500000000
 1659.5500000 750.60028076 1.0000000000 0.2500000000
 1659.6000000 750.60028076 1.0000000000 0.2500000000
 1659.6500000 750.60028076 1.0000000000 0.2500000000
 1659.7000000 716.56243896 1.0000000000 0.2500000000
 1659.7500000 683.77752686 1.0000000000 0.2440000027
 1659.8000000 652.21008301 1.0000000000 0.2440000027
 1659.8500000 595.48913574 1.0000000000 0.2381000072
 1659.9000000 542.80523682 1.0000000000 0.2381000072
 1659.9500000 493.93722534 1.0000000000 0.2320999950
 1660.0000000 449.93502808 1.0000000000 0.2261999995
 1660.0500000 394.51690674 1.0000000000 0.2261999995
 1660.1000000 344.81143188 1.0000000000 0.2202000022
 1660.1500000 352.71084595 1.0000000000 0.2202000022
 1660.2000000 360.75518799 1.0000000000 0.2261999995
 1660.2500000 368.94644165 1.0000000000 0.2261999995
 1660.3000000 436.19540405 1.0000000000 0.2261999995
 1660.3500000 513.08709717 1.0000000000 0.2320999950
 1660.4000000 581.23590088 1.0000000000 0.2381000072
 1660.4500000 667.84387207 1.0000000000 0.2440000027
 1660.5000000 764.54187012 1.0000000000 0.2500000000
 1660.5500000 872.19549561 1.0000000000 0.2560000122
 1660.6000000 948.89874268 1.0000000000 0.2619000077
 1660.6500000 1031.3475342 1.0000000000 0.2619000077
 1660.7000000 1119.0244141 1.0000000000 0.2678999901
 1660.7500000 1090.8039551 1.0000000000 0.2678999901
 1660.8000000 1062.9486084 1.0000000000 0.2619000077
 1660.8500000 1035.6676025 1.0000000000 0.2619000077
 1660.9000000 899.82189941 1.0000000000 0.2560000122
 1660.9500000 778.69079590 1.0000000000 0.2500000000
 1661.0000000 671.03533936 1.0000000000 0.2440000027
 1661.0500000 526.93981934 1.0000000000 0.2320999950
 1661.1000000 408.94705200 1.0000000000 0.2261999995
 1661.1500000 313.20336914 1.0000000000 0.2143000066
 1661.2000000 234.99888611 1.0000000000 0.2023999989
 1661.2500000 173.32977295 1.0000000000 0.1964000016
 1661.3000000 72.109558105 1.0000000000 0.1844999939
 1661.3500000 57.872817993 1.0000000000 0.1785999984
 1661.4000000 46.015586853 1.0000000000 0.1726000011
 1661.4500000 36.245716095 1.0000000000 0.1667000055
 1661.5000000 37.134151459 1.0000000000 0.1667000055
 1661.5500000 38.040424347 1.0000000000 0.1667000055
 1661.6000000 38.979164124 1.0000000000 0.1667000055
 1661.6500000 86.893913269 1.0000000000 0.1726000011
 1661.7000000 104.71507263 1.0000000000 0.1785999984
 1661.7500000 125.36479950 1.0000000000 0.1844999939
 1661.8000000 154.00238037 1.0000000000 0.1905000061
 1661.8500000 187.62924194 1.0000000000 0.1964000016
 1661.9000000 226.92486572 1.0000000000 0.2023999989
 1661.9500000 250.39002991 1.0000000000 0.2082999945
 1662.0000000 275.69735718 1.0000000000 0.2082999945
 1662.0500000 303.02267456 1.0000000000 0.2143000066
 1662.1000000 298.07095337 1.0000000000 0.2143000066
 1662.1500000 293.10995483 1.0000000000 0.2143000066
 1662.2000000 288.28915405 1.0000000000 0.2143000066
 1662.2500000 283.53234863 1.0000000000 0.2082999945
 1662.3000000 246.07896423 1.0000000000 0.2082999945
 1662.3500000 212.71195984 1.0000000000 0.2023999989
 1662.4000000 183.13591003 1.0000000000 0.1964000016
 1662.4500000 142.48587036 1.0000000000 0.1905000061
 1662.5000000 107.41785431 1.0000000000 0.1844999939
 1662.5500000 43.820621490 1.0000000000 0.1726000011
 1662.6000000 35.587558746 1.0000000000 0.1667000055
 1662.6500000 28.670637131 1.0000000000 0.1606999934
 1662.7000000 22.899028778 1.0000000000 0.1547999978
 1662.7500000 24.610174179 1.0000000000 0.1547999978
 1662.8000000 25.036502838 1.0000000000 0.1606999934
