# LAS format log file from PETREL
# Project units are specified as depth units
#==================================================================
~Version information
VERS.   2.0:
WRAP.   NO:
#==================================================================
~Well
STRT .m      1610.0000000 :
STOP .m      1780.0000000 :
STEP .m     0.05000000 :
NULL .        -999.250000 :
COMP.           : COMPANY
WELL.  B_IPE   : WELL
FLD.            : FIELD
LOC.            : LOCATION
SRVC.           : SERVICE COMPANY
DATE.  Friday, March 30 2012 17:03:38   : DATE
PROV.           : PROVINCE
UWI.      : UNIQUE WELL ID
API.            : API NUMBER
#==================================================================
~Curve
DEPT .m                   : DEPTH
Permeability*** .mD       : Permeability ***
NTG*** .                  : NTG ***
PORDENS268*** .m3/m3      : POR DENS 268 ***
~Parameter
#==================================================================
~Ascii
# ...
 1776.1000000 0.0000000005 1.0000000000  -999.250000
 1776.1500000 0.0000000005 1.0000000000  -999.250000
 1776.2000000 0.0000000005 1.0000000000  -999.250000
 1776.2500000 0.0000000005 1.0000000000  -999.250000
 1776.3000000 0.0000000005 1.0000000000  -999.250000
 1776.3500000 0.0000000005 1.0000000000  -999.250000
 1776.4000000 0.0000000005 1.0000000000  -999.250000
 1776.4500000 0.0000000005 1.0000000000  -999.250000
 1776.5000000 0.0000000005 1.0000000000  -999.250000
 1776.5500000 0.0000000005 1.0000000000  -999.250000
 1776.6000000 0.0000000005 1.0000000000  -999.250000
 1776.6500000 0.0000000005 1.0000000000  -999.250000
 1776.7000000 0.0000000005 1.0000000000  -999.250000
 1776.7500000 0.0000000005 1.0000000000  -999.250000
 1776.8000000 0.0000000005 1.0000000000  -999.250000
 1776.8500000 0.0000000005 1.0000000000  -999.250000
 1776.9000000 0.0000000005 1.0000000000  -999.250000
 1776.9500000 0.0000000005 1.0000000000  -999.250000
 1777.0000000 0.0000000005 1.0000000000  -999.250000
 1777.0500000 0.0000000005 1.0000000000  -999.250000
 1777.1000000 0.0000000005 1.0000000000  -999.250000
 1777.1500000 0.0000000005 1.0000000000  -999.250000
 1777.2000000 0.0000000005 1.0000000000  -999.250000
 1777.2500000 0.0000000005 1.0000000000  -999.250000
 1777.3000000 0.0000000005 1.0000000000  -999.250000
 1777.3500000 0.0000000005 1.0000000000  -999.250000
 1777.4000000 0.0000000005 1.0000000000  -999.250000
 1777.4500000 0.0000000005 1.0000000000  -999.250000
 1777.5000000 0.0000000005 1.0000000000  -999.250000
 1777.5500000 0.0000000005 1.0000000000  -999.250000
 1777.6000000 0.0000000005 1.0000000000  -999.250000
 1777.6500000 0.0000000005 1.0000000000  -999.250000
 1777.7000000 0.0000000005 1.0000000000  -999.250000
 1777.7500000 0.0000000005 1.0000000000  -999.250000
 1777.8000000 0.0000000005 1.0000000000  -999.250000
 1777.8500000 0.0000000005 1.0000000000  -999.250000
 1777.9000000 0.0000000005 1.0000000000  -999.250000
 1777.9500000 0.0000000005 1.0000000000  -999.250000
 1778.0000000 0.0000000005 1.0000000000  -999.250000
 1778.0500000 0.0000000005 1.0000000000  -999.250000
 1778.1000000 0.0000000005 1.0000000000  -999.250000
 1778.1500000 0.0000000005 1.0000000000  -999.250000
 1778.2000000 0.0000000005 1.0000000000  -999.250000
 1778.2500000 0.0000000005 1.0000000000  -999.250000
 1778.3000000 0.0000000005 1.0000000000  -999.250000
 1778.3500000 0.0000000005 1.0000000000  -999.250000
 1778.4000000 0.0000000005 1.0000000000  -999.250000
 1778.4500000 0.0000000005 1.0000000000  -999.250000
 1778.5000000 0.0000000005 1.0000000000  -999.250000
 1778.5500000 0.0000000005 1.0000000000  -999.250000
 1778.6000000 0.0000000005 1.0000000000  -999.250000
 1778.6500000 0.0000000005 1.0000000000  -999.250000
 1778.7000000 0.0000000005 1.0000000000  -999.250000
 1778.7500000 0.0000000005 1.0000000000  -999.250000
 1778.8000000 0.0000000005 1.0000000000  -999.250000
 1778.8500000 0.0000000005 1.0000000000  -999.250000
 1778.9000000 0.0000000005 1.0000000000  -999.250000
 1778.9500000 0.0000000005 1.0000000000  -999.250000
 1779.0000000 0.0000000005 1.0000000000  -999.250000
 1779.0500000 0.0000000005 1.0000000000  -999.250000
 1779.1000000 0.0000000005 1.0000000000  -999.250000
 1779.1500000 0.0000000005 1.0000000000  -999.250000
 1779.2000000 0.0000000005 1.0000000000  -999.250000
 1779.2500000 0.0000000005 1.0000000000  -999.250000
 1779.3000000 0.0000000005 1.0000000000  -999.250000
 1779.3500000 0.0000000005 1.0000000000  -999.250000
 1779.4000000 0.0000000005 1.0000000000  -999.250000
 1779.4500000 0.0000000005 1.0000000000  -999.250000
 1779.5000000 0.0000000005 1.0000000000  -999.250000
 1779.5500000 0.0000000005 1.0000000000  -999.250000
 1779.6000000 0.0000000005 1.0000000000  -999.250000
 1779.6500000 0.0000000005 1.0000000000  -999.250000
 1779.7000000 0.0000000005 1.0000000000  -999.250000
 1779.7500000 0.0000000005 1.0000000000  -999.250000
 1779.8000000 0.0000000005 1.0000000000  -999.250000
 1779.8500000 0.0000000005 1.0000000000  -999.250000
 1779.9000000 0.0000000005 1.0000000000  -999.250000
 1779.9500000 0.0000000005 1.0000000000  -999.250000
 1780.0000000 0.0010000000 1.0000000000  -999.250000
