# LAS format log file from PETREL
# Project units are specified as depth units
#==================================================================
~Version information
VERS.   2.0:
WRAP.   NO:
#==================================================================
~Well
STRT .m      1580.0000000 :
STOP .m      1760.0000000 :
STEP .m     0.05000000 :
NULL .        -999.250000 :
COMP.           : COMPANY
WELL.  A_IPE   : WELL
FLD.            : FIELD
LOC.            : LOCATION
SRVC.           : SERVICE COMPANY
DATE.  Friday, March 30 2012 17:03:22   : DATE
PROV.           : PROVINCE
UWI.      : UNIQUE WELL ID
API.            : API NUMBER
#==================================================================
~Curve
DEPT .m                   : DEPTH
Permeability*** .mD       : Permeability ***
NTG*** .                  : NTG ***
PORDENS268*** .m3/m3      : POR DENS 268 ***
~Parameter
#==================================================================
~Ascii
# ...
 1602.6500000 44.826461792 1.0000000000 0.1606999934
 1602.7000000 87.824478149 1.0000000000 0.1667000055
 1602.7500000 94.715698242 1.0000000000 0.1667000055
 1602.8000000 102.06726074 1.0000000000 0.1667000055
 1602.8500000 100.00685883 1.0000000000 0.1667000055
 1602.9000000 98.010971069 1.0000000000 0.1667000055
 1602.9500000 96.016868591 1.0000000000 0.1667000055
 1603.0000000 94.085411072 1.0000000000 0.1667000055
 1603.0500000 92.155891418 1.0000000000 0.1667000055
 1603.1000000 90.258323669 1.0000000000 0.1667000055
 1603.1500000 50.268451691 1.0000000000 0.1667000055
 1603.2000000 50.268451691 1.0000000000 0.1667000055
 1603.2500000 50.268451691 1.0000000000 0.1667000055
 1603.3000000 51.052497864 1.0000000000 0.1667000055
 1603.3500000 51.810256958 1.0000000000 0.1667000055
 1603.4000000 52.613983154 1.0000000000 0.1667000055
 1603.4500000 53.409320831 1.0000000000 0.1667000055
 1603.5000000 54.195674896 1.0000000000 0.1667000055
 1603.5500000 55.029621124 1.0000000000 0.1667000055
 1603.6000000 57.101799011 1.0000000000 0.1667000055
 1603.6500000 104.81297302 1.0000000000 0.1667000055
 1603.7000000 108.38706207 1.0000000000 0.1726000011
 1603.7500000 112.05854034 1.0000000000 0.1726000011
 1603.8000000 115.79396820 1.0000000000 0.1726000011
 1603.8500000 119.66527557 1.0000000000 0.1726000011
 1603.9000000 122.00800323 1.0000000000 0.1726000011
 1603.9500000 124.42501068 1.0000000000 0.1726000011
 1604.0000000 126.84231567 1.0000000000 0.1726000011
 1604.0500000 130.14984131 1.0000000000 0.1785999984
 1604.1000000 133.56613159 1.0000000000 0.1785999984
 1604.1500000 136.97317505 1.0000000000 0.1785999984
 1604.2000000 149.64805603 1.0000000000 0.1785999984
 1604.2500000 163.15655518 1.0000000000 0.1844999939
 1604.3000000 177.72880554 1.0000000000 0.1844999939
 1604.3500000 202.58517456 1.0000000000 0.1905000061
 1604.4000000 230.28712463 1.0000000000 0.1964000016
 1604.4500000 260.88949585 1.0000000000 0.1964000016
 1604.5000000 293.10995483 1.0000000000 0.2023999989
 1604.5500000 328.37460327 1.0000000000 0.2082999945
 1604.6000000 367.06375122 1.0000000000 0.2082999945
 1604.6500000 392.71865845 1.0000000000 0.2143000066
 1604.7000000 419.89630127 1.0000000000 0.2143000066
 1604.7500000 448.46154785 1.0000000000 0.2202000022
 1604.8000000 466.94491577 1.0000000000 0.2202000022
 1604.8500000 485.81192017 1.0000000000 0.2202000022
 1604.9000000 505.51889038 1.0000000000 0.2261999995
 1604.9500000 514.84667969 1.0000000000 0.2261999995
 1605.0000000 524.43157959 1.0000000000 0.2261999995
 1605.0500000 534.15942383 1.0000000000 0.2261999995
 1605.1000000 543.90924072 1.0000000000 0.2261999995
 1605.1500000 549.20861816 1.0000000000 0.2261999995
 1605.2000000 554.54943848 1.0000000000 0.2261999995
 1605.2500000 559.93194580 1.0000000000 0.2261999995
 1605.3000000 528.25756836 1.0000000000 0.2261999995
 1605.3500000 498.04055786 1.0000000000 0.2202000022
 1605.4000000 469.22967529 1.0000000000 0.2202000022
 1605.4500000 394.80139160 1.0000000000 0.2143000066
 1605.5000000 330.09603882 1.0000000000 0.2082999945
 1605.5500000 280.13232422 1.0000000000 0.2023999989
 1605.6000000 127.87545776 1.0000000000 0.1905000061
 1605.6500000 92.094352722 1.0000000000 0.1785999984
 1605.7000000 65.008125305 1.0000000000 0.1667000055
 1605.7500000 42.539302826 1.0000000000 0.1547999978
 1605.8000000 26.887565613 1.0000000000 0.1429000050
 1605.8500000 16.314231873 1.0000000000 0.1250000000
 1605.9000000 0.0010000000 0.0000000000 0.1190999970
 1605.9500000 0.0010000000 0.0000000000 0.1071000025
 1606.0000000 0.0010000000 0.0000000000 0.1011999995
 1606.0500000 0.0010000000 0.0000000000 0.0952000022
 1606.1000000 0.0010000000 0.0000000000 0.0952000022
 1606.1500000 0.0010000000 0.0000000000 0.0892999992
 1606.2000000 0.0010000000 0.0000000000 0.0952000022
 1606.2500000 0.0010000000 0.0000000000 0.0952000022
 1606.3000000 0.0010000000 0.0000000000 0.1011999995
 1606.3500000 0.0010000000 0.0000000000 0.1011999995
 1606.4000000 0.0010000000 0.0000000000 0.1071000025
 1606.4500000 5.8855218887 1.0000000000 0.1130999997
 1606.5000000 6.1107497215 1.0000000000 0.1130999997
 1606.5500000 6.3430137634 1.0000000000 0.1130999997
 1606.6000000 6.5824842453 1.0000000000 0.1130999997
 1606.6500000 5.5532603264 1.0000000000 0.1130999997
 1606.7000000 4.6601433754 1.0000000000 0.1071000025
 1606.7500000 3.8886151314 1.0000000000 0.1071000025
 1606.8000000 3.2457439899 1.0000000000 0.1071000025
 1606.8500000 2.6945118904 1.0000000000 0.1011999995
 1606.9000000 2.2487134933 1.0000000000 0.1011999995
 1606.9500000 2.5614223480 1.0000000000 0.1071000025
 1607.0000000 2.9107186794 1.0000000000 0.1071000025
 1607.0500000 3.2944722176 1.0000000000 0.1071000025
 1607.1000000 4.6576366425 1.0000000000 0.1130999997
 1607.1500000 6.4536404610 1.0000000000 0.1190999970
 1607.2000000 8.7792005539 1.0000000000 0.1250000000
 1607.2500000 11.877105713 1.0000000000 0.1309999973
 1607.3000000 15.815032005 1.0000000000 0.1368999928
 1607.3500000 40.355758667 1.0000000000 0.1429000050
 1607.4000000 44.420158386 1.0000000000 0.1429000050
 1607.4500000 48.807479858 1.0000000000 0.1488000005
 1607.5000000 53.536834717 1.0000000000 0.1488000005
 1607.5500000 49.179386139 1.0000000000 0.1488000005
 1607.6000000 45.128429413 1.0000000000 0.1488000005
 1607.6500000 41.334854126 1.0000000000 0.1429000050
 1607.7000000 34.250000000 1.0000000000 0.1368999928
 1607.7500000 28.165048599 1.0000000000 0.1368999928
 1607.8000000 11.195894241 1.0000000000 0.1309999973
 1607.8500000 9.9249105453 1.0000000000 0.1250000000
 1607.9000000 8.7792005539 1.0000000000 0.1250000000
 1607.9500000 7.7444944382 1.0000000000 0.1250000000
 1608.0000000 9.0570402145 1.0000000000 0.1250000000
 1608.0500000 10.547126770 1.0000000000 0.1309999973
 1608.1000000 12.227497101 1.0000000000 0.1309999973
 1608.1500000 15.482539177 1.0000000000 0.1368999928
 1608.2000000 19.426336288 1.0000000000 0.1429000050
 1608.2500000 24.151035309 1.0000000000 0.1488000005
 1608.3000000 56.035938263 1.0000000000 0.1488000005
 1608.3500000 75.752395630 1.0000000000 0.1606999934
 1608.4000000 100.66883850 1.0000000000 0.1667000055
 1608.4500000 131.82945251 1.0000000000 0.1785999984
 1608.5000000 170.31732178 1.0000000000 0.1844999939
 1608.5500000 217.36767578 1.0000000000 0.1905000061
 1608.6000000 274.27893066 1.0000000000 0.2023999989
 1608.6500000 331.90731812 1.0000000000 0.2082999945
 1608.7000000 398.89788818 1.0000000000 0.2143000066
 1608.7500000 476.35852051 1.0000000000 0.2202000022
 1608.8000000 510.51556396 1.0000000000 0.2261999995
 1608.8500000 546.49212646 1.0000000000 0.2261999995
 1608.9000000 584.74078369 1.0000000000 0.2320999950
 1608.9500000 554.54943848 1.0000000000 0.2261999995
 1609.0000000 525.74420166 1.0000000000 0.2261999995
 1609.0500000 498.04055786 1.0000000000 0.2202000022
 1609.1000000 439.59823608 1.0000000000 0.2202000022
 1609.1500000 386.71005249 1.0000000000 0.2143000066
 1609.2000000 339.06472778 1.0000000000 0.2082999945
 1609.2500000 306.17999268 1.0000000000 0.2023999989
 1609.3000000 275.83963013 1.0000000000 0.2023999989
 1609.3500000 247.96574402 1.0000000000 0.1964000016
 1609.4000000 234.31214905 1.0000000000 0.1964000016
 1609.4500000 221.15084839 1.0000000000 0.1905000061
 1609.5000000 208.64759827 1.0000000000 0.1905000061
 1609.5500000 196.39453125 1.0000000000 0.1905000061
 1609.6000000 185.65589905 1.0000000000 0.1844999939
 1609.6500000 175.39468384 1.0000000000 0.1844999939
 1609.7000000 167.06196594 1.0000000000 0.1844999939
 1609.7500000 159.00508118 1.0000000000 0.1844999939
 1609.8000000 88.625640869 1.0000000000 0.1785999984
 1609.8500000 94.388969421 1.0000000000 0.1844999939
 1609.9000000 100.95829010 1.0000000000 0.1844999939
 1609.9500000 107.89880371 1.0000000000 0.1844999939
 1610.0000000 214.85517883 1.0000000000 0.1905000061
 1610.0500000 253.62974548 1.0000000000 0.1964000016
 1610.1000000 297.91964722 1.0000000000 0.2023999989
 1610.1500000 361.28497314 1.0000000000 0.2082999945
