# LAS format log file from PETREL
# Project units are specified as depth units
#==================================================================
~Version information
VERS.   2.0:
WRAP.   NO:
#==================================================================
~Well
STRT .m      1610.0000000 :
STOP .m      1780.0000000 :
STEP .m     0.05000000 :
NULL .        -999.250000 :
COMP.           : COMPANY
WELL.  B_IPE   : WELL
FLD.            : FIELD
LOC.            : LOCATION
SRVC.           : SERVICE COMPANY
DATE.  Friday, March 30 2012 17:03:38   : DATE
PROV.           : PROVINCE
UWI.      : UNIQUE WELL ID
API.            : API NUMBER
#==================================================================
~Curve
DEPT .m                   : DEPTH
Permeability*** .mD       : Permeability ***
NTG*** .                  : NTG ***
PORDENS268*** .m3/m3      : POR DENS 268 ***
~Parameter
#==================================================================
~Ascii
# ...
 1685.5000000 0.0010000000 0.0000000000 0.0892999992
 1685.5500000 0.0010000000 0.0000000000 0.0952000022
 1685.6000000 0.0010000000 0.0000000000 0.1011999995
 1685.6500000 0.0010000000 0.0000000000 0.1071000025
 1685.7000000 0.9779736996 1.0000000000 0.1130999997
 1685.7500000 2.8583118916 1.0000000000 0.1190999970
 1685.8000000 6.0111632347 1.0000000000 0.1309999973
 1685.8500000 9.4446649551 1.0000000000 0.1368999928
 1685.9000000 14.347901344 1.0000000000 0.1429000050
 1685.9500000 21.173549652 1.0000000000 0.1547999978
 1686.0000000 30.467531204 1.0000000000 0.1606999934
 1686.0500000 39.615497589 1.0000000000 0.1667000055
 1686.1000000 91.246932983 1.0000000000 0.1726000011
 1686.1500000 113.54782867 1.0000000000 0.1785999984
 1686.2000000 122.15567780 1.0000000000 0.1844999939
 1686.2500000 131.24160767 1.0000000000 0.1844999939
 1686.3000000 140.90476990 1.0000000000 0.1905000061
 1686.3500000 131.24160767 1.0000000000 0.1844999939
 1686.4000000 122.15567780 1.0000000000 0.1844999939
 1686.4500000 113.54782867 1.0000000000 0.1785999984
 1686.5000000 102.61170197 1.0000000000 0.1785999984
 1686.5500000 92.539215088 1.0000000000 0.1726000011
 1686.6000000 83.277732849 1.0000000000 0.1726000011
 1686.6500000 85.084175110 1.0000000000 0.1726000011
 1686.7000000 86.893913269 1.0000000000 0.1726000011
 1686.7500000 88.734489441 1.0000000000 0.1726000011
 1686.8000000 98.475891113 1.0000000000 0.1785999984
 1686.8500000 109.05957031 1.0000000000 0.1785999984
 1686.9000000 120.53952789 1.0000000000 0.1844999939
 1686.9500000 118.94062042 1.0000000000 0.1844999939
 1687.0000000 117.39456940 1.0000000000 0.1844999939
 1687.0500000 115.82934570 1.0000000000 0.1844999939
 1687.1000000 54.478797913 1.0000000000 0.1785999984
 1687.1500000 44.601325989 1.0000000000 0.1726000011
 1687.2000000 36.245716095 1.0000000000 0.1667000055
 1687.2500000 29.460714340 1.0000000000 0.1606999934
 1687.3000000 23.756273270 1.0000000000 0.1547999978
 1687.3500000 19.000637054 1.0000000000 0.1488000005
 1687.4000000 18.739467621 1.0000000000 0.1488000005
 1687.4500000 18.481256485 1.0000000000 0.1488000005
 1687.5000000 18.233667374 1.0000000000 0.1488000005
 1687.5500000 17.981204987 1.0000000000 0.1488000005
 1687.6000000 21.365663528 1.0000000000 0.1547999978
 1687.6500000 25.256944656 1.0000000000 0.1606999934
 1687.7000000 29.712688446 1.0000000000 0.1606999934
 1687.7500000 37.134151459 1.0000000000 0.1667000055
 1687.8000000 83.277732849 1.0000000000 0.1726000011
 1687.8500000 100.54249573 1.0000000000 0.1785999984
 1687.9000000 125.36479950 1.0000000000 0.1844999939
 1687.9500000 154.93901062 1.0000000000 0.1905000061
 1688.0000000 189.88259888 1.0000000000 0.1964000016
 1688.0500000 244.65527344 1.0000000000 0.2082999945
 1688.1000000 311.47470093 1.0000000000 0.2143000066
 1688.1500000 392.24661255 1.0000000000 0.2202000022
 1688.2000000 501.48098755 1.0000000000 0.2320999950
 1688.2500000 633.81170654 1.0000000000 0.2440000027
 1688.3000000 793.04980469 1.0000000000 0.2500000000
 1688.3500000 899.82189941 1.0000000000 0.2560000122
 1688.4000000 1017.8635864 1.0000000000 0.2619000077
 1688.4500000 1148.0528564 1.0000000000 0.2678999901
 1688.5000000 1104.8414307 1.0000000000 0.2678999901
 1688.5500000 1027.2463379 1.0000000000 0.2619000077
 1688.6000000 880.48309326 1.0000000000 0.2619000077
 1688.6500000 732.33044434 1.0000000000 0.2560000122
 1688.7000000 604.92352295 1.0000000000 0.2500000000
 1688.7500000 495.98538208 1.0000000000 0.2440000027
 1688.8000000 458.21609497 1.0000000000 0.2381000072
 1688.8500000 422.79547119 1.0000000000 0.2320999950
 1688.9000000 389.61111450 1.0000000000 0.2261999995
 1688.9500000 394.23257446 1.0000000000 0.2261999995
 1689.0000000 390.17471313 1.0000000000 0.2202000022
 1689.0500000 386.05731201 1.0000000000 0.2202000022
 1689.1000000 421.89398193 1.0000000000 0.2261999995
 1689.1500000 460.25177002 1.0000000000 0.2320999950
 1689.2000000 501.48098755 1.0000000000 0.2320999950
 1689.2500000 540.11450195 1.0000000000 0.2381000072
 1689.3000000 581.23590088 1.0000000000 0.2381000072
 1689.3500000 624.83898926 1.0000000000 0.2440000027
 1689.4000000 630.90155029 1.0000000000 0.2440000027
 1689.4500000 636.87194824 1.0000000000 0.2440000027
 1689.5000000 643.02813721 1.0000000000 0.2440000027
 1689.5500000 610.02221680 1.0000000000 0.2381000072
 1689.6000000 578.52178955 1.0000000000 0.2381000072
 1689.6500000 548.21948242 1.0000000000 0.2381000072
 1689.7000000 496.44158936 1.0000000000 0.2320999950
 1689.7500000 448.77694702 1.0000000000 0.2261999995
 1689.8000000 404.76782227 1.0000000000 0.2261999995
 1689.8500000 354.70828247 1.0000000000 0.2202000022
 1689.9000000 309.75369263 1.0000000000 0.2143000066
 1689.9500000 269.56964111 1.0000000000 0.2082999945
 1690.0000000 241.89175415 1.0000000000 0.2082999945
 1690.0500000 216.48851013 1.0000000000 0.2023999989
 1690.1000000 193.38351440 1.0000000000 0.1964000016
 1690.1500000 195.74609375 1.0000000000 0.1964000016
 1690.2000000 198.07743835 1.0000000000 0.1964000016
 1690.2500000 200.43106079 1.0000000000 0.1964000016
 1690.3000000 224.26359558 1.0000000000 0.2023999989
 1690.3500000 250.39002991 1.0000000000 0.2082999945
 1690.4000000 278.76715088 1.0000000000 0.2082999945
 1690.4500000 306.41198730 1.0000000000 0.2143000066
 1690.5000000 336.13702393 1.0000000000 0.2202000022
 1690.5500000 368.13867188 1.0000000000 0.2202000022
 1690.6000000 363.76516724 1.0000000000 0.2202000022
 1690.6500000 359.43368530 1.0000000000 0.2202000022
 1690.7000000 355.14376831 1.0000000000 0.2202000022
 1690.7500000 350.89501953 1.0000000000 0.2202000022
 1690.8000000 318.35598755 1.0000000000 0.2143000066
 1690.8500000 288.28915405 1.0000000000 0.2143000066
 1690.9000000 260.54980469 1.0000000000 0.2082999945
 1690.9500000 226.92486572 1.0000000000 0.2023999989
 1691.0000000 196.88188171 1.0000000000 0.1964000016
 1691.0500000 170.12446594 1.0000000000 0.1964000016
 1691.1000000 149.21379089 1.0000000000 0.1905000061
 1691.1500000 130.38319397 1.0000000000 0.1844999939
 1691.2000000 64.680694580 1.0000000000 0.1785999984
 1691.2500000 59.623695374 1.0000000000 0.1785999984
 1691.3000000 48.368709564 1.0000000000 0.1785999984
 1691.3500000 37.189414978 1.0000000000 0.1726000011
 1691.4000000 30.256931305 1.0000000000 0.1785999984
 1691.4500000 27.756479263 1.0000000000 0.1785999984
 1691.5000000 55.917644501 1.0000000000 0.1785999984
 1691.5500000 66.511413574 1.0000000000 0.1844999939
 1691.6000000 78.662780762 1.0000000000 0.1905000061
 1691.6500000 92.539215088 1.0000000000 0.1905000061
 1691.7000000 114.28095245 1.0000000000 0.2023999989
 1691.7500000 155.47625732 1.0000000000 0.2082999945
 1691.8000000 231.95223999 1.0000000000 0.2143000066
 1691.8500000 266.65084839 1.0000000000 0.2202000022
 1691.9000000 305.25317383 1.0000000000 0.2261999995
 1691.9500000 348.39990234 1.0000000000 0.2261999995
 1692.0000000 335.05480957 1.0000000000 0.2320999950
 1692.0500000 349.08670044 1.0000000000 0.2381000072
 1692.1000000 386.05731201 1.0000000000 0.2381000072
 1692.1500000 384.10455322 1.0000000000 0.2381000072
 1692.2000000 449.30313110 1.0000000000 0.2381000072
 1692.2500000 535.97668457 1.0000000000 0.2381000072
 1692.3000000 529.57788086 1.0000000000 0.2320999950
 1692.3500000 467.27072144 1.0000000000 0.2320999950
 1692.4000000 411.09872437 1.0000000000 0.2261999995
 1692.4500000 350.89501953 1.0000000000 0.2202000022
 1692.5000000 298.07095337 1.0000000000 0.2143000066
 1692.5500000 251.77430725 1.0000000000 0.2082999945
 1692.6000000 239.09001160 1.0000000000 0.2023999989
 1692.6500000 226.92486572 1.0000000000 0.2023999989
 1692.7000000 215.26252747 1.0000000000 0.2023999989
 1692.7500000 236.31443787 1.0000000000 0.2023999989
 1692.8000000 259.05911255 1.0000000000 0.2082999945
 1692.8500000 283.53234863 1.0000000000 0.2082999945
 1692.9000000 288.14187622 1.0000000000 0.2143000066
 1692.9500000 228.26499939 1.0000000000 0.2202000022
 1693.0000000 264.99444580 1.0000000000 0.2261999995
