# LAS format log file from PETREL
# Project units are specified as depth units
#==================================================================
~Version information
VERS.   2.0:
WRAP.   NO:
#==================================================================
~Well
STRT .m      1605.0999800 :
STOP .m      1769.9999800 :
STEP .m     0.10000000 :
NULL .        -999.250000 :
COMP.           : COMPANY
WELL.  E_IPE   : WELL
FLD.            : FIELD
LOC.            : LOCATION
SRVC.           : SERVICE COMPANY
DATE.  Friday, March 30 2012 17:04:18   : DATE
PROV.           : PROVINCE
UWI.      : UNIQUE WELL ID
API.            : API NUMBER
#==================================================================
~Curve
DEPT .m                   : DEPTH
Permeability*** .mD       : Permeability ***
NTG*** .                  : NTG ***
PORDENS268*** .m3/m3      : POR DENS 268 ***
~Parameter
#==================================================================
~Ascii
 1605.0999800 0.0010000000 0.0000000000 0.0773999989
 1605.1999800 0.0010000000 0.0000000000 0.0773999989
 1605.2999800 0.0010000000 0.0000000000 0.0773999989
 1605.3999800 0.0010000000 0.0000000000 0.0714000016
 1605.4999800 0.0010000000 0.0000000000 0.0773999989
 1605.5999800 0.0010000000 0.0000000000 0.0773999989
 1605.6999800 0.0010000000 0.0000000000 0.0833000019
 1605.7999800 0.0010000000 0.0000000000 0.0833000019
 1605.8999800 0.0010000000 0.0000000000 0.0833000019
 1605.9999800 0.0010000000 0.0000000000 0.0833000019
 1606.0999800 0.0010000000 0.0000000000 0.0833000019
 1606.1999800 0.0010000000 0.0000000000 0.0833000019
 1606.2999800 0.0010000000 0.0000000000 0.0833000019
 1606.3999800 0.0010000000 0.0000000000 0.0833000019
 1606.4999800 0.0010000000 0.0000000000 0.0833000019
 1606.5999800 0.0010000000 0.0000000000 0.0773999989
 1606.6999800 0.0010000000 0.0000000000 0.0773999989
 1606.7999800 0.0010000000 0.0000000000 0.0655145124
 1606.8999800 0.0010000000 0.0000000000 0.0595000014
 1606.9999800 0.0010000000 0.0000000000 0.0535999984
 1607.0999800 0.0010000000 0.0000000000 0.0595000014
 1607.1999800 0.0010000000 0.0000000000 0.0654999986
 1607.2999800 0.0010000000 0.0000000000 0.0713928044
 1607.3999800 0.0010000000 0.0000000000 0.0773999989
 1607.4999800 0.0010000000 0.0000000000 0.0833000019
 1607.5999800 0.0010000000 0.0000000000 0.0833000019
 1607.6999800 0.0010000000 0.0000000000 0.0892999992
 1607.7999800 0.4489411712 1.0000000000 0.0951928049
 1607.8999800 0.5761587620 1.0000000000 0.0952000022
 1607.9999800 0.6048539877 1.0000000000 0.1011999995
 1608.0999800 0.5221308470 1.0000000000 0.0952000022
 1608.1999800 0.0010000000 0.0000000000 0.0952000022
 1608.2999800 0.0010000000 0.0000000000 0.0893071964
 1608.3999800 0.0010000000 0.0000000000 0.0833000019
 1608.4999800 0.0010000000 0.0000000000 0.0773999989
 1608.5999800 0.0010000000 0.0000000000 0.0773999989
 1608.6999800 0.0010000000 0.0000000000 0.0714000016
 1608.7999800 0.0700264797 1.0000000000 0.0773926824
 1608.8999800 0.1127765849 1.0000000000 0.0833000019
 1608.9999800 0.4407092929 1.0000000000 0.0833000019
 1609.0999800 0.5809792876 1.0000000000 0.0833000019
 1609.1999800 0.4930995703 1.0000000000 0.0833000019
 1609.2999800 0.1367106289 1.0000000000 0.0833000019
 1609.3999800 0.0863208324 1.0000000000 0.0773999989
 1609.4999800 0.0010000000 0.0000000000 0.0773999989
 1609.5999800 0.0010000000 0.0000000000 0.0773999989
 1609.6999800 0.0010000000 0.0000000000 0.0833000019
 1609.7999800 0.0010000000 0.0000000000 0.0892926827
 1609.8999800 0.0010000000 0.0000000000 0.1011999995
 1609.9999800 1.3032044172 1.0000000000 0.1071000025
 1610.0999800 2.0356945992 1.0000000000 0.1130999997
 1610.1999800 2.9673650265 1.0000000000 0.1190999970
 1610.2999800 3.8082544804 1.0000000000 0.1249928027
 1610.3999800 4.6764564514 1.0000000000 0.1309999973
 1610.4999800 4.6764564514 1.0000000000 0.1309999973
 1610.5999800 4.6764564514 1.0000000000 0.1309999973
 1610.6999800 4.2240529060 1.0000000000 0.1250000000
 1610.7999800 3.9429564476 1.0000000000 0.1250000000
 1610.8999800 8.0789346695 1.0000000000 0.1250000000
 1610.9999800 8.3419876099 1.0000000000 0.1250000000
 1611.0999800 8.6118869781 1.0000000000 0.1250000000
 1611.1999800 8.0789346695 1.0000000000 0.1250000000
 1611.2999800 6.8616795540 1.0000000000 0.1191071942
 1611.3999800 5.6004033089 1.0000000000 0.1190999970
 1611.4999800 4.5327396393 1.0000000000 0.1130999997
 1611.5999800 4.3719115257 1.0000000000 0.1130999997
 1611.6999800 5.4096817970 1.0000000000 0.1190999970
 1611.7999800 6.6369876862 1.0000000000 0.1190999970
 1611.8999800 6.6369876862 1.0000000000 0.1190999970
 1611.9999800 4.8685917854 1.0000000000 0.1130999997
 1612.0999800 1.4770164490 1.0000000000 0.1130999997
 1612.1999800 1.2491565943 1.0000000000 0.1071000025
 1612.2999800 1.4770164490 1.0000000000 0.1130926833
 1612.3999800 2.2854642868 1.0000000000 0.1190999970
 1612.4999800 4.2240529060 1.0000000000 0.1250000000
 1612.5999800 6.2786693573 1.0000000000 0.1368999928
 1612.6999800 7.1227326393 1.0000000000 0.1368999928
 1612.7999800 7.1227326393 1.0000000000 0.1368999928
 1612.8999800 7.3477368355 1.0000000000 0.1368999928
 1612.9999800 9.3665170670 1.0000000000 0.1429000050
 1613.0999800 12.161184311 1.0000000000 0.1488000005
 1613.1999800 17.377420425 1.0000000000 0.1547999978
 1613.2999800 22.534967422 1.0000000000 0.1606927961
 1613.3999800 54.504333496 1.0000000000 0.1667000055
 1613.4999800 56.959327698 1.0000000000 0.1667000055
 1613.5999800 59.502799988 1.0000000000 0.1667000055
 1613.6999800 55.720958710 1.0000000000 0.1667000055
 1613.7999800 52.134899139 1.0000000000 0.1667000055
 1613.8999800 42.474807739 1.0000000000 0.1606999934
 1613.9999800 34.309856415 1.0000000000 0.1547999978
 1614.0999800 23.535940170 1.0000000000 0.1488000005
 1614.1999800 6.0810580254 1.0000000000 0.1309999973
 1614.2999800 2.1163361073 1.0000000000 0.1131218299
 1614.3999800 0.6048539877 1.0000000000 0.1011999995
 1614.4999800 0.0010000000 0.0000000000 0.0833000019
 1614.5999800 0.0010000000 0.0000000000 0.0714000016
 1614.6999800 0.0010000000 0.0000000000 0.0595000014
 1614.7999800 0.0010000000 0.0000000000 0.0595000014
 1614.8999800 0.0010000000 0.0000000000 0.0595000014
 1614.9999800 0.0010000000 0.0000000000 0.0714000016
 1615.0999800 0.0010000000 0.0000000000 0.0892999992
 1615.1999800 2.5598871708 1.0000000000 0.1190999970
 1615.2999800 12.161184311 1.0000000000 0.1487637758
 1615.3999800 55.720958710 1.0000000000 0.1667000055
 1615.4999800 70.606063843 1.0000000000 0.1726000011
 1615.5999800 58.220043182 1.0000000000 0.1667000055
 1615.6999800 41.497287750 1.0000000000 0.1606999934
 1615.7999800 36.004585266 1.0000000000 0.1548071951
 1615.8999800 44.485656738 1.0000000000 0.1606999934
 1615.9999800 67.685997009 1.0000000000 0.1726000011
 1616.0999800 109.95574188 1.0000000000 0.1844999939
 1616.1999800 168.25289917 1.0000000000 0.2023999989
 1616.2999800 233.22314453 1.0000000000 0.2142854929
 1616.3999800 283.71362305 1.0000000000 0.2202000022
 1616.4999800 245.10777283 1.0000000000 0.2143000066
 1616.5999800 143.05084229 1.0000000000 0.1964000016
 1616.6999800 55.720958710 1.0000000000 0.1667000055
 1616.7999800 15.230314255 1.0000000000 0.1369363368
 1616.8999800 3.9168264866 1.0000000000 0.1130999997
 1616.9999800 1.7595543861 1.0000000000 0.1011999995
 1617.0999800 2.2672133446 1.0000000000 0.1011999995
 1617.1999800 5.7965440750 1.0000000000 0.1190999970
 1617.2999800 14.384991646 1.0000000000 0.1368782818
 1617.3999800 30.351881027 1.0000000000 0.1547999978
 1617.4999800 49.849029541 1.0000000000 0.1667000055
 1617.5999800 76.750991821 1.0000000000 0.1785999984
 1617.6999800 90.330734253 1.0000000000 0.1785999984
 1617.7999800 83.318542480 1.0000000000 0.1785999984
 1617.8999800 25.549957275 1.0000000000 0.1667000055
 1617.9999800 10.844885826 1.0000000000 0.1429000050
 1618.0999800 3.3067421913 1.0000000000 0.1250000000
 1618.1999800 0.0010000000 0.0000000000 0.1011999995
 1618.2999800 0.0010000000 0.0000000000 0.0893145129
 1618.3999800 0.0010000000 0.0000000000 0.0833000019
 1618.4999800 0.0010000000 0.0000000000 0.0952000022
 1618.5999800 1.8820116520 1.0000000000 0.1130999997
 1618.6999800 5.3408875465 1.0000000000 0.1309999973
 1618.7999800 9.0917501450 1.0000000000 0.1428854913
 1618.8999800 11.162454605 1.0000000000 0.1429000050
 1618.9999800 11.820383072 1.0000000000 0.1488000005
 1619.0999800 15.607349396 1.0000000000 0.1547999978
 1619.1999800 25.549957275 1.0000000000 0.1667000055
 1619.2999800 49.215362549 1.0000000000 0.1785854846
 1619.3999800 132.87316895 1.0000000000 0.1905000061
 1619.4999800 143.05084229 1.0000000000 0.1964000016
 1619.5999800 109.95574188 1.0000000000 0.1844999939
 1619.6999800 67.685997009 1.0000000000 0.1726000011
 1619.7999800 46.572380066 1.0000000000 0.1607145071
 1619.8999800 43.471000671 1.0000000000 0.1606999934
 1619.9999800 50.981796265 1.0000000000 0.1667000055
 1620.0999800 55.720958710 1.0000000000 0.1667000055
