# LAS format log file from PETREL
# Project units are specified as depth units
#==================================================================
~Version information
VERS.   2.0:
WRAP.   NO:
#==================================================================
~Well
STRT .m      1555.0999800 :
STOP .m      1749.8999800 :
STEP .m     0.10000000 :
NULL .        -999.250000 :
COMP.           : COMPANY
WELL.  F_IPE   : WELL
FLD.            : FIELD
LOC.            : LOCATION
SRVC.           : SERVICE COMPANY
DATE.  Friday, March 30 2012 17:04:30   : DATE
PROV.           : PROVINCE
UWI.      : UNIQUE WELL ID
API.            : API NUMBER
#==================================================================
~Curve
DEPT .m                   : DEPTH
Permeability*** .mD       : Permeability ***
NTG*** .                  : NTG ***
PORDENS268*** .m3/m3      : POR DENS 268 ***
~Parameter
#==================================================================
~Ascii
# ...
 1721.1999800 0.7665056586 1.0000000000 0.1011999995
 1721.2999800 1.6360183954 1.0000000000 0.1130854860
 1721.3999800 3.1902573109 1.0000000000 0.1250000000
 1721.4999800 20.077989578 1.0000000000 0.1429000050
 1721.5999800 32.282104492 1.0000000000 0.1547999978
 1721.6999800 49.849029541 1.0000000000 0.1667000055
 1721.7999800 62.136840820 1.0000000000 0.1725928038
 1721.8999800 73.626976013 1.0000000000 0.1726000011
 1721.9999800 86.767463684 1.0000000000 0.1785999984
 1722.0999800 79.980361938 1.0000000000 0.1785999984
 1722.1999800 69.133628845 1.0000000000 0.1726000011
 1722.2999800 59.502799988 1.0000000000 0.1667072028
 1722.3999800 64.863533020 1.0000000000 0.1726000011
 1722.4999800 72.862274170 1.0000000000 0.1726000011
 1722.5999800 81.635528564 1.0000000000 0.1785999984
 1722.6999800 130.42222595 1.0000000000 0.1905000061
 1722.7999800 169.75108337 1.0000000000 0.2023854852
 1722.8999800 218.10276794 1.0000000000 0.2082999945
 1722.9999800 332.19561768 1.0000000000 0.2261999995
 1723.0999800 327.06750488 1.0000000000 0.2261999995
 1723.1999800 322.00326538 1.0000000000 0.2261999995
 1723.2999800 332.19561768 1.0000000000 0.2261999995
 1723.3999800 342.64715576 1.0000000000 0.2261999995
 1723.4999800 353.36157227 1.0000000000 0.2261999995
 1723.5999800 274.73941040 1.0000000000 0.2202000022
 1723.6999800 210.84370422 1.0000000000 0.2082999945
 1723.7999800 159.48489380 1.0000000000 0.1964145154
 1723.8999800 123.28620148 1.0000000000 0.1905000061
 1723.9999800 102.73213959 1.0000000000 0.1844999939
 1724.0999800 85.028938293 1.0000000000 0.1785999984
 1724.1999800 55.720958710 1.0000000000 0.1667000055
 1724.2999800 46.572380066 1.0000000000 0.1607073098
 1724.3999800 38.672557831 1.0000000000 0.1606999934
 1724.4999800 28.159336090 1.0000000000 0.1488000005
 1724.5999800 20.077989578 1.0000000000 0.1429000050
 1724.6999800 14.384991646 1.0000000000 0.1368999928
 1724.7999800 3.6133549213 1.0000000000 0.1250145137
 1724.8999800 1.8088083267 1.0000000000 0.1130999997
 1724.9999800 1.6694433689 1.0000000000 0.1130999997
 1725.0999800 2.1163361073 1.0000000000 0.1130999997
 1725.1999800 2.6571519375 1.0000000000 0.1190999970
 1725.2999800 4.2240529060 1.0000000000 0.1249928027
 1725.3999800 4.8358426094 1.0000000000 0.1309999973
 1725.4999800 5.5186038017 1.0000000000 0.1309999973
 1725.5999800 5.8885416985 1.0000000000 0.1309999973
 1725.6999800 4.3706903458 1.0000000000 0.1250000000
 1725.7999800 3.1902573109 1.0000000000 0.1250000000
 1725.8999800 0.4723323286 1.0000000000 0.0952000022
 1725.9999800 1.2228193283 1.0000000000 0.1071000025
 1726.0999800 2.7574574947 1.0000000000 0.1190999970
 1726.1999800 5.8885416985 1.0000000000 0.1309999973
 1726.2999800 8.1816186905 1.0000000000 0.1368927956
 1726.3999800 11.162454605 1.0000000000 0.1429000050
 1726.4999800 17.377420425 1.0000000000 0.1547999978
 1726.5999800 15.188876152 1.0000000000 0.1547999978
 1726.6999800 13.232209206 1.0000000000 0.1488000005
 1726.7999800 21.751743317 1.0000000000 0.1429072022
 1726.8999800 18.509422302 1.0000000000 0.1429000050
 1726.9999800 15.667809486 1.0000000000 0.1368999928
 1727.0999800 13.188043594 1.0000000000 0.1309999973
 1727.1999800 11.034219742 1.0000000000 0.1309999973
 1727.2999800 1.3591595888 1.0000000000 0.1071291491
 1727.3999800 0.2347544730 1.0000000000 0.0892999992
 1727.4999800 0.1971637309 1.0000000000 0.0833000019
 1727.5999800 0.1646675766 1.0000000000 0.0833000019
 1727.6999800 0.0010000000 0.0000000000 0.0833000019
 1727.7999800 0.0010000000 0.0000000000 0.0833000019
 1727.8999800 1.9576139450 1.0000000000 0.1130999997
 1727.9999800 3.1902573109 1.0000000000 0.1250000000
 1728.0999800 4.9996266365 1.0000000000 0.1309999973
 1728.1999800 6.4815278053 1.0000000000 0.1368999928
 1728.2999800 5.7011070251 1.0000000000 0.1310071945
 1728.3999800 11.034219742 1.0000000000 0.1309999973
 1728.4999800 18.009099960 1.0000000000 0.1429000050
 1728.5999800 22.333892822 1.0000000000 0.1429000050
 1728.6999800 27.457553864 1.0000000000 0.1488000005
 1728.7999800 46.572380066 1.0000000000 0.1606854796
 1728.8999800 49.849029541 1.0000000000 0.1667000055
 1728.9999800 53.308887482 1.0000000000 0.1667000055
 1729.0999800 27.457553864 1.0000000000 0.1488000005
 1729.1999800 16.572908401 1.0000000000 0.1368999928
 1729.2999800 4.2240529060 1.0000000000 0.1250145137
 1729.3999800 1.0057438612 1.0000000000 0.1071000025
 1729.4999800 0.8027518392 1.0000000000 0.1011999995
 1729.5999800 0.6347061396 1.0000000000 0.1011999995
 1729.6999800 0.6347061396 1.0000000000 0.1011999995
 1729.7999800 1.5708019733 1.0000000000 0.1130854860
 1729.8999800 7.8225946426 1.0000000000 0.1250000000
 1729.9999800 26.769908905 1.0000000000 0.1488000005
 1730.0999800 42.474807739 1.0000000000 0.1606999934
 1730.1999800 64.863533020 1.0000000000 0.1726000011
 1730.2999800 103.73995972 1.0000000000 0.1844854802
 1730.3999800 105.77946472 1.0000000000 0.1844999939
 1730.4999800 107.85159302 1.0000000000 0.1844999939
 1730.5999800 71.352035522 1.0000000000 0.1726000011
 1730.6999800 45.519275665 1.0000000000 0.1606999934
 1730.7999800 39.596305847 1.0000000000 0.1606999934
 1730.8999800 46.043281555 1.0000000000 0.1606999934
 1730.9999800 53.308887482 1.0000000000 0.1667000055
 1731.0999800 31.112424850 1.0000000000 0.1547999978
 1731.1999800 41.015361786 1.0000000000 0.1606999934
 1731.2999800 53.308887482 1.0000000000 0.1666926891
 1731.3999800 78.352294922 1.0000000000 0.1785999984
 1731.4999800 75.175750732 1.0000000000 0.1785999984
 1731.5999800 72.103973389 1.0000000000 0.1726000011
 1731.6999800 53.308887482 1.0000000000 0.1667000055
 1731.7999800 10.083488464 1.0000000000 0.1429290324
 1731.8999800 2.8608293533 1.0000000000 0.1190999970
 1731.9999800 0.3646691144 1.0000000000 0.0952000022
 1732.0999800 0.0010000000 0.0000000000 0.0833000019
 1732.1999800 0.0010000000 0.0000000000 0.0654999986
 1732.2999800 0.0026131186 1.0000000000 0.0476218313
 1732.3999800 0.0001179589 1.0000000000 0.0417000018
 1732.4999800 0.0000000124 1.0000000000 0.0297999997
 1732.5999800 0.0000001692 1.0000000000 0.0297999997
 1732.6999800 0.0000326516 1.0000000000 0.0357000008
 1732.7999800 0.0004128666 1.0000000000 0.0416926853
 1732.8999800 0.0000034132 1.0000000000 0.0357000008
 1732.9999800 0.0000058487 1.0000000000  -999.250000
 1733.0999800 0.0000095192 1.0000000000  -999.250000
 1733.1999800 0.0002593562 1.0000000000  -999.250000
 1733.2999800 0.0003289639 1.0000000000  -999.250000
 1733.3999800 0.0004128666 1.0000000000  -999.250000
 1733.4999800 0.0001555012 1.0000000000  -999.250000
 1733.5999800 0.0000464552 1.0000000000  -999.250000
 1733.6999800 0.0001555012 1.0000000000  -999.250000
 1733.7999800 0.0022327749 1.0000000000  -999.250000
 1733.8999800 0.0011283734 1.0000000000  -999.250000
 1733.9999800 0.0005132084 1.0000000000  -999.250000
 1734.0999800 0.0001555012 1.0000000000  -999.250000
 1734.1999800 0.0000326516 1.0000000000  -999.250000
 1734.2999800 0.0000018696 1.0000000000  -999.250000
 1734.3999800 0.0000880780 1.0000000000  -999.250000
 1734.4999800 0.0007725910 1.0000000000  -999.250000
 1734.5999800 0.0022327749 1.0000000000  -999.250000
 1734.6999800 0.0009369893 1.0000000000  -999.250000
 1734.7999800 0.0003289639 1.0000000000  -999.250000
 1734.8999800 0.0010000000 0.0000000000  -999.250000
 1734.9999800 0.0010000000 0.0000000000  -999.250000
 1735.0999800 0.0010000000 0.0000000000  -999.250000
 1735.1999800 0.0010000000 0.0000000000  -999.250000
 1735.2999800 0.0000464552 1.0000000000  -999.250000
 1735.3999800 0.0016054662 1.0000000000  -999.250000
 1735.4999800 0.0000148499 1.0000000000  -999.250000
 1735.5999800 0.0000058487 1.0000000000  -999.250000
 1735.6999800 0.0000018696 1.0000000000  -999.250000
 1735.7999800 0.0000646069 1.0000000000  -999.250000
 1735.8999800 0.0000223553 1.0000000000  -999.250000
 1735.9999800 0.0000058487 1.0000000000  -999.250000
 1736.0999800 0.0010000000 0.0000000000  -999.250000
 1736.1999800 0.0000000005 1.0000000000  -999.250000
