# LAS format log file from PETREL
# Project units are specified as depth units
#==================================================================
~Version information
VERS.   2.0:
WRAP.   NO:
#==================================================================
~Well
STRT .m      1555.0999800 :
STOP .m      1749.8999800 :
STEP .m     0.10000000 :
NULL .        -999.250000 :
COMP.           : COMPANY
WELL.  F_IPE   : WELL
FLD.            : FIELD
LOC.            : LOCATION
SRVC.           : SERVICE COMPANY
DATE.  Friday, March 30 2012 17:04:30   : DATE
PROV.           : PROVINCE
UWI.      : UNIQUE WELL ID
API.            : API NUMBER
#==================================================================
~Curve
DEPT .m                   : DEPTH
Permeability*** .mD       : Permeability ***
NTG*** .                  : NTG ***
PORDENS268*** .m3/m3      : POR DENS 268 ***
~Parameter
#==================================================================
~Ascii
# ...
 1690.9999800 913.42999268 1.0000000000 0.2678999901
 1691.0999800 818.69042969 1.0000000000 0.2619000077
 1691.1999800 732.01794434 1.0000000000 0.2560000122
 1691.2999800 675.40661621 1.0000000000 0.2560000122
 1691.3999800 420.31985474 1.0000000000 0.2320999950
 1691.4999800 249.17546082 1.0000000000 0.2143000066
 1691.5999800 114.26363373 1.0000000000 0.1905000061
 1691.6999800 34.563438416 1.0000000000 0.1726000011
 1691.7999800 16.920116425 1.0000000000 0.1548217088
 1691.8999800 6.4815278053 1.0000000000 0.1368999928
 1691.9999800 4.9996266365 1.0000000000 0.1309999973
 1692.0999800 3.8082544804 1.0000000000 0.1250000000
 1692.1999800 4.0815162659 1.0000000000 0.1250000000
 1692.2999800 4.4455447197 1.0000000000 0.1309926808
 1692.3999800 4.8358426094 1.0000000000 0.1309999973
 1692.4999800 5.8885416985 1.0000000000 0.1309999973
 1692.5999800 7.1227326393 1.0000000000 0.1368999928
 1692.6999800 8.0578956604 1.0000000000 0.1368999928
 1692.7999800 9.9366149902 1.0000000000 0.1428926885
 1692.8999800 12.161184311 1.0000000000 0.1488000005
 1692.9999800 94.010772705 1.0000000000 0.1844999939
 1693.0999800 108.89958191 1.0000000000 0.1844999939
 1693.1999800 125.62887573 1.0000000000 0.1905000061
 1693.2999800 107.85159302 1.0000000000 0.1845073104
 1693.3999800 58.858612061 1.0000000000 0.1667000055
 1693.4999800 29.606363297 1.0000000000 0.1488000005
 1693.5999800 3.6773884296 1.0000000000 0.1250000000
 1693.6999800 2.5598871708 1.0000000000 0.1190999970
 1693.7999800 1.7379781008 1.0000000000 0.1131073162
 1693.8999800 0.7316235900 1.0000000000 0.1011999995
 1693.9999800 3.0218427181 1.0000000000 0.1190999970
 1694.0999800 19.543743134 1.0000000000 0.1429000050
 1694.1999800 26.769908905 1.0000000000 0.1488000005
 1694.2999800 22.333892822 1.0000000000 0.1429072022
 1694.3999800 18.509422302 1.0000000000 0.1429000050
 1694.4999800 2.1995646954 1.0000000000 0.1190999970
 1694.5999800 1.1465663910 1.0000000000 0.1071000025
 1694.6999800 0.5485984087 1.0000000000 0.0952000022
 1694.7999800 0.9620977044 1.0000000000 0.1070854887
 1694.8999800 1.5708019733 1.0000000000 0.1130999997
 1694.9999800 5.7965440750 1.0000000000 0.1190999970
 1695.0999800 6.6369876862 1.0000000000 0.1190999970
 1695.1999800 7.5727791786 1.0000000000 0.1250000000
 1695.2999800 1.1465663910 1.0000000000 0.1071218327
 1695.3999800 1.0510044098 1.0000000000 0.1071000025
 1695.4999800 0.9620977044 1.0000000000 0.1071000025
 1695.5999800 0.8794577718 1.0000000000 0.1011999995
 1695.6999800 1.4170883894 1.0000000000 0.1071000025
 1695.7999800 1.6694433689 1.0000000000 0.1130926833
 1695.8999800 1.9576139450 1.0000000000 0.1130999997
 1695.9999800 1.8088083267 1.0000000000 0.1130999997
 1696.0999800 1.6694433689 1.0000000000 0.1130999997
 1696.1999800 1.0979368687 1.0000000000 0.1071000025
 1696.2999800 1.0510044098 1.0000000000 0.1071000025
 1696.3999800 1.0057438612 1.0000000000 0.1071000025
 1696.4999800 1.1969523430 1.0000000000 0.1071000025
 1696.5999800 1.5390118361 1.0000000000 0.1130999997
 1696.6999800 1.9576139450 1.0000000000 0.1130999997
 1696.7999800 2.6571519375 1.0000000000 0.1190926805
 1696.8999800 1.9576139450 1.0000000000 0.1130999997
 1696.9999800 1.4170883894 1.0000000000 0.1071000025
 1697.0999800 3.4267289639 1.0000000000 0.1250000000
 1697.1999800 4.3706903458 1.0000000000 0.1250000000
 1697.2999800 5.5186038017 1.0000000000 0.1309926808
 1697.3999800 22.928653717 1.0000000000 0.1429000050
 1697.4999800 37.766220093 1.0000000000 0.1547999978
 1697.5999800 59.502799988 1.0000000000 0.1667000055
 1697.6999800 120.97879028 1.0000000000 0.1905000061
 1697.7999800 143.05084229 1.0000000000 0.1963928044
 1697.8999800 168.25289917 1.0000000000 0.2023999989
 1697.9999800 249.17546082 1.0000000000 0.2143000066
 1698.0999800 253.29727173 1.0000000000 0.2143000066
 1698.1999800 257.47473145 1.0000000000 0.2143000066
 1698.2999800 125.62887573 1.0000000000 0.1905290335
 1698.3999800 88.534896851 1.0000000000 0.1785999984
 1698.4999800 60.808193207 1.0000000000 0.1726000011
 1698.5999800 48.188304901 1.0000000000 0.1667000055
 1698.6999800 37.766220093 1.0000000000 0.1547999978
 1698.7999800 31.112424850 1.0000000000 0.1547999978
 1698.8999800 31.498588562 1.0000000000 0.1547999978
 1698.9999800 31.888410568 1.0000000000 0.1547999978
 1699.0999800 28.159336090 1.0000000000 0.1488000005
 1699.1999800 29.977258682 1.0000000000 0.1547999978
 1699.2999800 31.888410568 1.0000000000 0.1547999978
 1699.3999800 22.928653717 1.0000000000 0.1429000050
 1699.4999800 22.041273117 1.0000000000 0.1429000050
 1699.5999800 21.181861877 1.0000000000 0.1429000050
 1699.6999800 44.485656738 1.0000000000 0.1606999934
 1699.7999800 53.308887482 1.0000000000 0.1666926891
 1699.8999800 63.488414764 1.0000000000 0.1726000011
 1699.9999800 67.685997009 1.0000000000 0.1726000011
 1700.0999800 66.262512207 1.0000000000 0.1726000011
 1700.1999800 64.863533020 1.0000000000 0.1726000011
 1700.2999800 35.149005890 1.0000000000 0.1548217088
 1700.3999800 37.766220093 1.0000000000 0.1547999978
 1700.4999800 40.537948608 1.0000000000 0.1606999934
 1700.5999800 40.537948608 1.0000000000 0.1606999934
 1700.6999800 52.719264984 1.0000000000 0.1667000055
 1700.7999800 67.685997009 1.0000000000 0.1725928038
 1700.8999800 41.497287750 1.0000000000 0.1606999934
 1700.9999800 33.081218719 1.0000000000 0.1547999978
 1701.0999800 12.866865158 1.0000000000 0.1488000005
 1701.1999800 12.866865158 1.0000000000 0.1488000005
 1701.2999800 35.574726105 1.0000000000 0.1547926813
 1701.3999800 47.644733429 1.0000000000 0.1606999934
 1701.4999800 62.136840820 1.0000000000 0.1726000011
 1701.5999800 79.980361938 1.0000000000 0.1785999984
 1701.6999800 135.36100769 1.0000000000 0.1964000016
 1701.7999800 186.95234680 1.0000000000 0.2023926824
 1701.8999800 207.28819275 1.0000000000 0.2082999945
 1701.9999800 229.36659241 1.0000000000 0.2143000066
 1702.0999800 276.96124268 1.0000000000 0.2202000022
 1702.1999800 332.19561768 1.0000000000 0.2261999995
 1702.2999800 436.14410400 1.0000000000 0.2380854934
 1702.3999800 507.92477417 1.0000000000 0.2440000027
 1702.4999800 588.91577148 1.0000000000 0.2500000000
 1702.5999800 476.08303833 1.0000000000 0.2381000072
 1702.6999800 347.97055054 1.0000000000 0.2261999995
 1702.7999800 249.17546082 1.0000000000 0.2143145204
 1702.8999800 225.56060791 1.0000000000 0.2082999945
 1702.9999800 147.02568054 1.0000000000 0.1964000016
 1703.0999800 92.155761719 1.0000000000 0.1844999939
 1703.1999800 55.720958710 1.0000000000 0.1667000055
 1703.2999800 43.471000671 1.0000000000 0.1607073098
 1703.3999800 33.486701965 1.0000000000 0.1547999978
 1703.4999800 5.7011070251 1.0000000000 0.1309999973
 1703.5999800 4.9996266365 1.0000000000 0.1309999973
 1703.6999800 4.3706903458 1.0000000000 0.1250000000
 1703.7999800 11.718008995 1.0000000000 0.1309926808
 1703.8999800 13.188043594 1.0000000000 0.1309999973
 1703.9999800 14.802800179 1.0000000000 0.1368999928
 1704.0999800 20.077989578 1.0000000000 0.1429000050
 1704.1999800 20.077989578 1.0000000000 0.1429000050
 1704.2999800 20.077989578 1.0000000000 0.1429000050
 1704.3999800 22.333892822 1.0000000000 0.1429000050
 1704.4999800 21.181861877 1.0000000000 0.1429000050
 1704.5999800 20.077989578 1.0000000000 0.1429000050
 1704.6999800 19.020990372 1.0000000000 0.1429000050
 1704.7999800 21.751743317 1.0000000000 0.1429000050
 1704.8999800 24.789485931 1.0000000000 0.1488000005
 1704.9999800 24.789485931 1.0000000000 0.1488000005
 1705.0999800 24.789485931 1.0000000000 0.1488000005
 1705.1999800 7.1227326393 1.0000000000 0.1368999928
 1705.2999800 6.0810580254 1.0000000000 0.1310071945
 1705.3999800 5.1679425240 1.0000000000 0.1309999973
 1705.4999800 7.1227326393 1.0000000000 0.1368999928
 1705.5999800 8.9568080902 1.0000000000 0.1429000050
 1705.6999800 11.162454605 1.0000000000 0.1429000050
 1705.7999800 41.497287750 1.0000000000 0.1606782824
 1705.8999800 62.809703827 1.0000000000 0.1726000011
 1705.9999800 92.155761719 1.0000000000 0.1844999939
