# LAS format log file from PETREL
# Project units are specified as depth units
#==================================================================
~Version information
VERS.   2.0:
WRAP.   NO:
#==================================================================
~Well
STRT .m      1605.0999800 :
STOP .m      1769.9999800 :
STEP .m     0.10000000 :
NULL .        -999.250000 :
COMP.           : COMPANY
WELL.  E_IPE   : WELL
FLD.            : FIELD
LOC.            : LOCATION
SRVC.           : SERVICE COMPANY
DATE.  Friday, March 30 2012 17:04:18   : DATE
PROV.           : PROVINCE
UWI.      : UNIQUE WELL ID
API.            : API NUMBER
#==================================================================
~Curve
DEPT .m                   : DEPTH
Permeability*** .mD       : Permeability ***
NTG*** .                  : NTG ***
PORDENS268*** .m3/m3      : POR DENS 268 ***
~Parameter
#==================================================================
~Ascii
# ...
 1665.4999800 233.22314453 1.0000000000 0.2143000066
 1665.5999800 257.47473145 1.0000000000 0.2143000066
 1665.6999800 288.28939819 1.0000000000 0.2202000022
 1665.7999800 332.19561768 1.0000000000 0.2261926830
 1665.8999800 393.00238037 1.0000000000 0.2320999950
 1665.9999800 462.45587158 1.0000000000 0.2381000072
 1666.0999800 518.91235352 1.0000000000 0.2440000027
 1666.1999800 526.34185791 1.0000000000 0.2440000027
 1666.2999800 511.56570435 1.0000000000 0.2440000027
 1666.3999800 462.45587158 1.0000000000 0.2381000072
 1666.4999800 442.60580444 1.0000000000 0.2381000072
 1666.5999800 442.60580444 1.0000000000 0.2381000072
 1666.6999800 497.12680054 1.0000000000 0.2440000027
 1666.7999800 511.56570435 1.0000000000 0.2440000027
 1666.8999800 449.14581299 1.0000000000 0.2381000072
 1666.9999800 283.71362305 1.0000000000 0.2202000022
 1667.0999800 153.84704590 1.0000000000 0.1964000016
 1667.1999800 69.133628845 1.0000000000 0.1726000011
 1667.2999800 36.004585266 1.0000000000 0.1548217088
 1667.3999800 25.436008453 1.0000000000 0.1488000005
 1667.4999800 36.877048492 1.0000000000 0.1547999978
 1667.5999800 72.103973389 1.0000000000 0.1726000011
 1667.6999800 145.69120789 1.0000000000 0.1964000016
 1667.7999800 245.10777283 1.0000000000 0.2142781764
 1667.8999800 358.81823730 1.0000000000 0.2261999995
 1667.9999800 411.05007935 1.0000000000 0.2320999950
 1668.0999800 387.13067627 1.0000000000 0.2320999950
 1668.1999800 307.18655396 1.0000000000 0.2202000022
 1668.2999800 221.80647278 1.0000000000 0.2083145082
 1668.3999800 165.28845215 1.0000000000 0.2023999989
 1668.4999800 137.88679504 1.0000000000 0.1964000016
 1668.5999800 130.42222595 1.0000000000 0.1905000061
 1668.6999800 156.64556885 1.0000000000 0.1964000016
 1668.7999800 218.10276794 1.0000000000 0.2082854807
 1668.8999800 332.19561768 1.0000000000 0.2261999995
 1668.9999800 476.08303833 1.0000000000 0.2381000072
 1669.0999800 605.45867920 1.0000000000 0.2500000000
 1669.1999800 630.97100830 1.0000000000 0.2500000000
 1669.2999800 541.45935059 1.0000000000 0.2440073192
 1669.3999800 423.44683838 1.0000000000 0.2320999950
 1669.4999800 337.38946533 1.0000000000 0.2261999995
 1669.5999800 322.00326538 1.0000000000 0.2261999995
 1669.6999800 375.59759521 1.0000000000 0.2320999950
 1669.7999800 511.56570435 1.0000000000 0.2439854890
 1669.8999800 684.59020996 1.0000000000 0.2560000122
 1669.9999800 824.03436279 1.0000000000 0.2619000077
 1670.0999800 901.84790039 1.0000000000 0.2678999901
 1670.1999800 890.38446045 1.0000000000 0.2678999901
 1670.2999800 813.37445068 1.0000000000 0.2619073391
 1670.3999800 722.32763672 1.0000000000 0.2560000122
 1670.4999800 630.97100830 1.0000000000 0.2500000000
 1670.5999800 580.78277588 1.0000000000 0.2500000000
 1670.6999800 556.92224121 1.0000000000 0.2440000027
 1670.7999800 580.78277588 1.0000000000 0.2499926835
 1670.8999800 639.66394043 1.0000000000 0.2500000000
 1670.9999800 751.71472168 1.0000000000 0.2619000077
 1671.0999800 824.03436279 1.0000000000 0.2619000077
 1671.1999800 856.69287109 1.0000000000 0.2678999901
 1671.2999800 813.37445068 1.0000000000 0.2619073391
 1671.3999800 782.05590820 1.0000000000 0.2619000077
 1671.4999800 722.32763672 1.0000000000 0.2560000122
 1671.5999800 712.74072266 1.0000000000 0.2560000122
 1671.6999800 712.74072266 1.0000000000 0.2560000122
 1671.7999800 782.05590820 1.0000000000 0.2618928254
 1671.8999800 824.03436279 1.0000000000 0.2619000077
 1671.9999800 845.69396973 1.0000000000 0.2619000077
 1672.0999800 824.03436279 1.0000000000 0.2619000077
 1672.1999800 802.82324219 1.0000000000 0.2619000077
 1672.2999800 761.72045898 1.0000000000 0.2619000077
 1672.3999800 722.32763672 1.0000000000 0.2560000122
 1672.4999800 722.32763672 1.0000000000 0.2560000122
 1672.5999800 751.71472168 1.0000000000 0.2619000077
 1672.6999800 741.81494141 1.0000000000 0.2560000122
 1672.7999800 657.34094238 1.0000000000 0.2560000122
 1672.8999800 469.22885132 1.0000000000 0.2381000072
 1672.9999800 279.19750977 1.0000000000 0.2202000022
 1673.0999800 145.69120789 1.0000000000 0.1964000016
 1673.1999800 81.635528564 1.0000000000 0.1785999984
 1673.2999800 55.720958710 1.0000000000 0.1667145193
 1673.3999800 53.308887482 1.0000000000 0.1667000055
 1673.4999800 63.488414764 1.0000000000 0.1726000011
 1673.5999800 86.767463684 1.0000000000 0.1785999984
 1673.6999800 120.97879028 1.0000000000 0.1905000061
 1673.7999800 168.25289917 1.0000000000 0.2023854852
 1673.8999800 233.22314453 1.0000000000 0.2143000066
 1673.9999800 279.19750977 1.0000000000 0.2202000022
 1674.0999800 297.61679077 1.0000000000 0.2202000022
 1674.1999800 279.19750977 1.0000000000 0.2202000022
 1674.2999800 253.29727173 1.0000000000 0.2143072039
 1674.3999800 203.78024292 1.0000000000 0.2082999945
 1674.4999800 137.88679504 1.0000000000 0.1964000016
 1674.5999800 69.133628845 1.0000000000 0.1726000011
 1674.6999800 22.333892822 1.0000000000 0.1429000050
 1674.7999800 2.1163361073 1.0000000000 0.1131363437
 1674.8999800 0.2485222965 1.0000000000 0.0892999992
 1674.9999800 0.0355168507 1.0000000000 0.0714000016
 1675.0999800 0.0010000000 0.0000000000 0.0654999986
 1675.1999800 0.0700264797 1.0000000000 0.0773999989
 1675.2999800 0.5221308470 1.0000000000 0.0951782912
 1675.3999800 3.0771663189 1.0000000000 0.1190999970
 1675.4999800 26.769908905 1.0000000000 0.1488000005
 1675.5999800 54.504333496 1.0000000000 0.1667000055
 1675.6999800 73.626976013 1.0000000000 0.1726000011
 1675.7999800 55.720958710 1.0000000000 0.1667072028
 1675.8999800 31.888410568 1.0000000000 0.1547999978
 1675.9999800 13.188043594 1.0000000000 0.1309999973
 1676.0999800 7.5727791786 1.0000000000 0.1250000000
 1676.1999800 6.6369876862 1.0000000000 0.1190999970
 1676.2999800 8.8888320923 1.0000000000 0.1249928027
 1676.3999800 11.718008995 1.0000000000 0.1309999973
 1676.4999800 16.115249634 1.0000000000 0.1368999928
 1676.5999800 17.519712448 1.0000000000 0.1368999928
 1676.6999800 12.807313919 1.0000000000 0.1309999973
 1676.7999800 5.7965440750 1.0000000000 0.1191145107
 1676.8999800 0.9200105071 1.0000000000 0.1011999995
 1676.9999800 0.3646691144 1.0000000000 0.0952000022
 1677.0999800 0.2629432678 1.0000000000 0.0892999992
 1677.1999800 0.3844020665 1.0000000000 0.0952000022
 1677.2999800 1.2491565943 1.0000000000 0.1070854887
 1677.3999800 8.8888320923 1.0000000000 0.1250000000
 1677.4999800 22.928653717 1.0000000000 0.1429000050
 1677.5999800 45.519275665 1.0000000000 0.1606999934
 1677.6999800 81.635528564 1.0000000000 0.1785999984
 1677.7999800 114.26363373 1.0000000000 0.1904854923
 1677.8999800 143.05084229 1.0000000000 0.1964000016
 1677.9999800 151.08822632 1.0000000000 0.1964000016
 1678.0999800 145.69120789 1.0000000000 0.1964000016
 1678.1999800 116.46764374 1.0000000000 0.1905000061
 1678.2999800 85.028938293 1.0000000000 0.1786145121
 1678.3999800 55.720958710 1.0000000000 0.1667000055
 1678.4999800 36.004585266 1.0000000000 0.1547999978
 1678.5999800 24.789485931 1.0000000000 0.1488000005
 1678.6999800 20.624052048 1.0000000000 0.1429000050
 1678.7999800 22.928653717 1.0000000000 0.1429000050
 1678.8999800 28.875473022 1.0000000000 0.1488000005
 1678.9999800 31.888410568 1.0000000000 0.1547999978
 1679.0999800 30.351881027 1.0000000000 0.1547999978
 1679.1999800 28.159336090 1.0000000000 0.1488000005
 1679.2999800 25.436008453 1.0000000000 0.1488000005
 1679.3999800 29.606363297 1.0000000000 0.1488000005
 1679.4999800 47.644733429 1.0000000000 0.1606999934
 1679.5999800 88.534896851 1.0000000000 0.1785999984
 1679.6999800 148.36997986 1.0000000000 0.1964000016
 1679.7999800 214.44808960 1.0000000000 0.2082854807
 1679.8999800 265.99389648 1.0000000000 0.2143000066
 1679.9999800 270.33871460 1.0000000000 0.2202000022
 1680.0999800 218.10276794 1.0000000000 0.2082999945
 1680.1999800 143.05084229 1.0000000000 0.1964000016
 1680.2999800 78.352294922 1.0000000000 0.1786217093
 1680.3999800 35.149005890 1.0000000000 0.1547999978
 1680.4999800 16.572908401 1.0000000000 0.1368999928
