# LAS format log file from PETREL
# Project units are specified as depth units
#==================================================================
~Version information
VERS.   2.0:
WRAP.   NO:
#==================================================================
~Well
STRT .m      1610.0000000 :
STOP .m      1780.0000000 :
STEP .m     0.05000000 :
NULL .        -999.250000 :
COMP.           : COMPANY
WELL.  B_IPE   : WELL
FLD.            : FIELD
LOC.            : LOCATION
SRVC.           : SERVICE COMPANY
DATE.  Friday, March 30 2012 17:03:38   : DATE
PROV.           : PROVINCE
UWI.      : UNIQUE WELL ID
API.            : API NUMBER
#==================================================================
~Curve
DEPT .m                   : DEPTH
Permeability*** .mD       : Permeability ***
NTG*** .                  : NTG ***
PORDENS268*** .m3/m3      : POR DENS 268 ***
~Parameter
#==================================================================
~Ascii
# ...
 1700.6000000 807.62103271 1.0000000000 0.2500000000
 1700.6500000 700.01568604 1.0000000000 0.2440000027
 1700.7000000 589.83306885 1.0000000000 0.2381000072
 1700.7500000 493.93722534 1.0000000000 0.2320999950
 1700.8000000 411.09872437 1.0000000000 0.2261999995
 1700.8500000 328.94757080 1.0000000000 0.2143000066
 1700.9000000 260.54980469 1.0000000000 0.2082999945
 1700.9500000 204.08729553 1.0000000000 0.2023999989
 1701.0000000 165.97229004 1.0000000000 0.1905000061
 1701.0500000 133.80439758 1.0000000000 0.1844999939
 1701.1000000 60.525630951 1.0000000000 0.1785999984
 1701.1500000 59.623695374 1.0000000000 0.1785999984
 1701.2000000 58.752960205 1.0000000000 0.1785999984
 1701.2500000 102.61170197 1.0000000000 0.1785999984
 1701.3000000 128.67993164 1.0000000000 0.1844999939
 1701.3500000 159.92022705 1.0000000000 0.1905000061
 1701.4000000 196.88188171 1.0000000000 0.1964000016
 1701.4500000 253.23118591 1.0000000000 0.2082999945
 1701.5000000 321.88232422 1.0000000000 0.2143000066
 1701.5500000 404.76782227 1.0000000000 0.2261999995
 1701.6000000 462.61788940 1.0000000000 0.2320999950
 1701.6500000 526.93981934 1.0000000000 0.2320999950
 1701.7000000 598.39971924 1.0000000000 0.2381000072
 1701.7500000 598.39971924 1.0000000000 0.2381000072
 1701.8000000 598.39971924 1.0000000000 0.2381000072
 1701.8500000 598.39971924 1.0000000000 0.2381000072
 1701.9000000 537.55584717 1.0000000000 0.2381000072
 1701.9500000 481.67855835 1.0000000000 0.2320999950
 1702.0000000 430.67303467 1.0000000000 0.2261999995
 1702.0500000 384.10455322 1.0000000000 0.2202000022
 1702.1000000 341.59051514 1.0000000000 0.2202000022
 1702.1500000 303.02267456 1.0000000000 0.2143000066
 1702.2000000 288.28915405 1.0000000000 0.2143000066
 1702.2500000 274.13732910 1.0000000000 0.2082999945
 1702.3000000 260.54980469 1.0000000000 0.2082999945
 1702.3500000 269.56964111 1.0000000000 0.2082999945
 1702.4000000 278.76715088 1.0000000000 0.2082999945
 1702.4500000 288.28915405 1.0000000000 0.2143000066
 1702.5000000 320.11520386 1.0000000000 0.2143000066
 1702.5500000 354.70828247 1.0000000000 0.2202000022
 1702.6000000 392.24661255 1.0000000000 0.2202000022
 1702.6500000 453.31771851 1.0000000000 0.2261999995
 1702.7000000 521.81414795 1.0000000000 0.2320999950
 1702.7500000 598.39971924 1.0000000000 0.2381000072
 1702.8000000 690.14685059 1.0000000000 0.2440000027
 1702.8500000 793.04980469 1.0000000000 0.2500000000
 1702.9000000 907.94903564 1.0000000000 0.2560000122
 1702.9500000 1000.3065796 1.0000000000 0.2619000077
 1703.0000000 1100.2906494 1.0000000000 0.2678999901
 1703.0500000 1207.9274902 1.0000000000 0.2678999901
 1703.1000000 1233.5648193 1.0000000000 0.2737999856
 1703.1500000 1259.3972168 1.0000000000 0.2737999856
 1703.2000000 1285.9078369 1.0000000000 0.2737999856
 1703.2500000 1223.1635742 1.0000000000 0.2737999856
 1703.3000000 1162.9056396 1.0000000000 0.2678999901
 1703.3500000 1104.8414307 1.0000000000 0.2678999901
 1703.4000000 1056.0225830 1.0000000000 0.2619000077
 1703.4500000 1009.1553955 1.0000000000 0.2619000077
 1703.5000000 963.78125000 1.0000000000 0.2619000077
 1703.5500000 920.06274414 1.0000000000 0.2560000122
 1703.6000000 887.92303467 1.0000000000 0.2560000122
 1703.6500000 856.69262695 1.0000000000 0.2560000122
 1703.7000000 826.17974854 1.0000000000 0.2560000122
 1703.7500000 771.50885010 1.0000000000 0.2500000000
 1703.8000000 719.94000244 1.0000000000 0.2500000000
 1703.8500000 671.03533936 1.0000000000 0.2440000027
 1703.9000000 567.25848389 1.0000000000 0.2381000072
 1703.9500000 476.91040039 1.0000000000 0.2320999950
 1704.0000000 398.41986084 1.0000000000 0.2261999995
 1704.0500000 301.41571045 1.0000000000 0.2143000066
 1704.1000000 224.26359558 1.0000000000 0.2023999989
 1704.1500000 163.95039368 1.0000000000 0.1905000061
 1704.2000000 122.15567780 1.0000000000 0.1844999939
 1704.2500000 89.364509583 1.0000000000 0.1726000011
 1704.3000000 34.508167267 1.0000000000 0.1667000055
 1704.3500000 28.481420517 1.0000000000 0.1606999934
 1704.4000000 23.347970963 1.0000000000 0.1547999978
 1704.4500000 19.000637054 1.0000000000 0.1488000005
 1704.5000000 18.653070450 1.0000000000 0.1488000005
 1704.5500000 18.318466187 1.0000000000 0.1488000005
 1704.6000000 17.981204987 1.0000000000 0.1488000005
 1704.6500000 20.793581009 1.0000000000 0.1547999978
 1704.7000000 23.967430115 1.0000000000 0.1547999978
 1704.7500000 27.529022217 1.0000000000 0.1606999934
 1704.8000000 35.361541748 1.0000000000 0.1667000055
 1704.8500000 81.528984070 1.0000000000 0.1726000011
 1704.9000000 100.54249573 1.0000000000 0.1785999984
 1704.9500000 122.93309021 1.0000000000 0.1844999939
 1705.0000000 149.21379089 1.0000000000 0.1905000061
 1705.0500000 179.78526306 1.0000000000 0.1964000016
 1705.1000000 204.08729553 1.0000000000 0.2023999989
 1705.1500000 230.90264893 1.0000000000 0.2023999989
 1705.2000000 260.54980469 1.0000000000 0.2082999945
 1705.2500000 281.93670654 1.0000000000 0.2082999945
 1705.3000000 304.71356201 1.0000000000 0.2143000066
 1705.3500000 328.94757080 1.0000000000 0.2143000066
 1705.4000000 343.45233154 1.0000000000 0.2202000022
 1705.4500000 358.46701050 1.0000000000 0.2202000022
 1705.5000000 374.09616089 1.0000000000 0.2202000022
 1705.5500000 366.25918579 1.0000000000 0.2202000022
 1705.6000000 358.46701050 1.0000000000 0.2202000022
 1705.6500000 350.89501953 1.0000000000 0.2202000022
 1705.7000000 309.75369263 1.0000000000 0.2143000066
 1705.7500000 272.58438110 1.0000000000 0.2082999945
 1705.8000000 239.09001160 1.0000000000 0.2023999989
 1705.8500000 185.34580994 1.0000000000 0.1964000016
 1705.9000000 141.77680969 1.0000000000 0.1905000061
 1705.9500000 106.88614655 1.0000000000 0.1785999984
 1706.0000000 74.255798340 1.0000000000 0.1667000055
 1706.0500000 26.372880936 1.0000000000 0.1606999934
 1706.1000000 16.540216446 1.0000000000 0.1488000005
 1706.1500000 11.689000130 1.0000000000 0.1429000050
 1706.2000000 8.0697259903 1.0000000000 0.1368999928
 1706.2500000 5.4298639297 1.0000000000 0.1250000000
 1706.3000000 6.0794839859 1.0000000000 0.1309999973
 1706.3500000 6.7916588783 1.0000000000 0.1309999973
 1706.4000000 7.5710082054 1.0000000000 0.1309999973
 1706.4500000 10.925488472 1.0000000000 0.1429000050
 1706.5000000 15.415392876 1.0000000000 0.1488000005
 1706.5500000 41.319412231 1.0000000000 0.1547999978
 1706.6000000 54.629779816 1.0000000000 0.1606999934
 1706.6500000 79.809860229 1.0000000000 0.1726000011
 1706.7000000 113.54782867 1.0000000000 0.1785999984
 1706.7500000 157.91250610 1.0000000000 0.1905000061
 1706.8000000 193.38351440 1.0000000000 0.1964000016
 1706.8500000 234.99888611 1.0000000000 0.2023999989
 1706.9000000 283.53234863 1.0000000000 0.2082999945
 1706.9500000 308.04034424 1.0000000000 0.2143000066
 1707.0000000 334.30718994 1.0000000000 0.2143000066
 1707.0500000 362.34625244 1.0000000000 0.2202000022
 1707.1000000 370.11596680 1.0000000000 0.2202000022
 1707.1500000 378.11059570 1.0000000000 0.2202000022
 1707.2000000 386.05731201 1.0000000000 0.2202000022
 1707.2500000 386.05731201 1.0000000000 0.2202000022
 1707.3000000 386.05731201 1.0000000000 0.2202000022
 1707.3500000 386.05731201 1.0000000000 0.2202000022
 1707.4000000 398.41986084 1.0000000000 0.2261999995
 1707.4500000 411.09872437 1.0000000000 0.2261999995
 1707.5000000 424.10025024 1.0000000000 0.2261999995
 1707.5500000 460.25177002 1.0000000000 0.2320999950
 1707.6000000 498.95617676 1.0000000000 0.2320999950
 1707.6500000 540.11450195 1.0000000000 0.2381000072
 1707.7000000 592.58990479 1.0000000000 0.2381000072
 1707.7500000 649.09063721 1.0000000000 0.2440000027
 1707.8000000 709.84570313 1.0000000000 0.2440000027
 1707.8500000 736.86389160 1.0000000000 0.2500000000
 1707.9000000 764.54187012 1.0000000000 0.2500000000
 1707.9500000 793.04980469 1.0000000000 0.2500000000
 1708.0000000 757.46514893 1.0000000000 0.2500000000
 1708.0500000 723.17602539 1.0000000000 0.2500000000
 1708.1000000 690.14685059 1.0000000000 0.2440000027
