# LAS format log file from PETREL
# Project units are specified as depth units
#==================================================================
~Version information
VERS.   2.0:
WRAP.   NO:
#==================================================================
~Well
STRT .m      1580.0000000 :
STOP .m      1760.0000000 :
STEP .m     0.05000000 :
NULL .        -999.250000 :
COMP.           : COMPANY
WELL.  A_IPE   : WELL
FLD.            : FIELD
LOC.            : LOCATION
SRVC.           : SERVICE COMPANY
DATE.  Friday, March 30 2012 17:03:22   : DATE
PROV.           : PROVINCE
UWI.      : UNIQUE WELL ID
API.            : API NUMBER
#==================================================================
~Curve
DEPT .m                   : DEPTH
Permeability*** .mD       : Permeability ***
NTG*** .                  : NTG ***
PORDENS268*** .m3/m3      : POR DENS 268 ***
~Parameter
#==================================================================
~Ascii
# ...
 1670.6000000 910.54748535 1.0000000000 0.2500000000
 1670.6500000 919.87567139 1.0000000000 0.2500000000
 1670.7000000 931.92803955 1.0000000000 0.2500000000
 1670.7500000 944.29803467 1.0000000000 0.2500000000
 1670.8000000 952.55352783 1.0000000000 0.2500000000
 1670.8500000 960.86755371 1.0000000000 0.2500000000
 1670.9000000 969.23925781 1.0000000000 0.2500000000
 1670.9500000 1003.3160400 1.0000000000 0.2560000122
 1671.0000000 1038.3493652 1.0000000000 0.2560000122
 1671.0500000 1074.3605957 1.0000000000 0.2560000122
 1671.1000000 1139.7933350 1.0000000000 0.2619000077
 1671.1500000 1208.3939209 1.0000000000 0.2619000077
 1671.2000000 1280.2772217 1.0000000000 0.2619000077
 1671.2500000 1344.5926514 1.0000000000 0.2678999901
 1671.3000000 1411.4816895 1.0000000000 0.2678999901
 1671.3500000 1481.0222168 1.0000000000 0.2737999856
 1671.4000000 1516.8107910 1.0000000000 0.2737999856
 1671.4500000 1553.2916260 1.0000000000 0.2737999856
 1671.5000000 1590.4758301 1.0000000000 0.2737999856
 1671.5500000 1595.4285889 1.0000000000 0.2737999856
 1671.6000000 1600.1019287 1.0000000000 0.2737999856
 1671.6500000 1604.7854004 1.0000000000 0.2737999856
 1671.7000000 1609.4807129 1.0000000000 0.2737999856
 1671.7500000 1578.0020752 1.0000000000 0.2737999856
 1671.8000000 1547.3056641 1.0000000000 0.2737999856
 1671.8500000 1516.8107910 1.0000000000 0.2737999856
 1671.9000000 1493.1520996 1.0000000000 0.2737999856
 1671.9500000 1469.2451172 1.0000000000 0.2737999856
 1672.0000000 1445.9161377 1.0000000000 0.2678999901
 1672.0500000 1451.8554688 1.0000000000 0.2737999856
 1672.1000000 1457.8143311 1.0000000000 0.2737999856
 1672.1500000 1463.5203857 1.0000000000 0.2737999856
 1672.2000000 1498.9691162 1.0000000000 0.2737999856
 1672.2500000 1535.1060791 1.0000000000 0.2737999856
 1672.3000000 1571.9395752 1.0000000000 0.2737999856
 1672.3500000 1584.3739014 1.0000000000 0.2737999856
 1672.4000000 1596.8880615 1.0000000000 0.2737999856
 1672.4500000 1609.4807129 1.0000000000 0.2737999856
 1672.5000000 1559.5830078 1.0000000000 0.2737999856
 1672.5500000 1510.9381104 1.0000000000 0.2737999856
 1672.6000000 1463.5203857 1.0000000000 0.2737999856
 1672.6500000 1344.5926514 1.0000000000 0.2678999901
 1672.7000000 1233.8023682 1.0000000000 0.2619000077
 1672.7500000 1130.2547607 1.0000000000 0.2560000122
 1672.8000000 994.70764160 1.0000000000 0.2500000000
 1672.8500000 872.55450439 1.0000000000 0.2440000027
 1672.9000000 762.76776123 1.0000000000 0.2381000072
 1672.9500000 659.05792236 1.0000000000 0.2320999950
 1673.0000000 571.20599365 1.0000000000 0.2261999995
 1673.0500000 493.02899170 1.0000000000 0.2202000022
 1673.1000000 431.38562012 1.0000000000 0.2143000066
 1673.1500000 376.00778198 1.0000000000 0.2082999945
 1673.2000000 326.57885742 1.0000000000 0.2023999989
 1673.2500000 283.75045776 1.0000000000 0.2023999989
 1673.3000000 250.85073853 1.0000000000 0.1964000016
 1673.3500000 223.72232056 1.0000000000 0.1905000061
 1673.4000000 195.53038025 1.0000000000 0.1905000061
 1673.4500000 170.31732178 1.0000000000 0.1844999939
 1673.5000000 147.74487305 1.0000000000 0.1785999984
 1673.5500000 122.82180023 1.0000000000 0.1726000011
 1673.6000000 101.36611176 1.0000000000 0.1667000055
 1673.6500000 83.033843994 1.0000000000 0.1606999934
 1673.7000000 71.023002625 1.0000000000 0.1606999934
 1673.7500000 60.408996582 1.0000000000 0.1547999978
 1673.8000000 26.929952621 1.0000000000 0.1488000005
 1673.8500000 25.377878189 1.0000000000 0.1488000005
 1673.9000000 23.890464783 1.0000000000 0.1488000005
 1673.9500000 22.475471497 1.0000000000 0.1429000050
 1674.0000000 23.480264664 1.0000000000 0.1488000005
 1674.0500000 24.511886597 1.0000000000 0.1488000005
 1674.1000000 25.590620041 1.0000000000 0.1488000005
 1674.1500000 27.854419708 1.0000000000 0.1488000005
 1674.2000000 30.280284882 1.0000000000 0.1547999978
 1674.2500000 32.877132416 1.0000000000 0.1547999978
 1674.3000000 68.970275879 1.0000000000 0.1547999978
 1674.3500000 77.401016235 1.0000000000 0.1606999934
 1674.4000000 86.585494995 1.0000000000 0.1606999934
 1674.4500000 102.74018097 1.0000000000 0.1667000055
 1674.5000000 121.23524475 1.0000000000 0.1726000011
 1674.5500000 142.27705383 1.0000000000 0.1785999984
 1674.6000000 172.40206909 1.0000000000 0.1844999939
 1674.6500000 207.45748901 1.0000000000 0.1905000061
 1674.7000000 247.96574402 1.0000000000 0.1964000016
 1674.7500000 284.77032471 1.0000000000 0.2023999989
 1674.8000000 325.76519775 1.0000000000 0.2082999945
 1674.8500000 371.37863159 1.0000000000 0.2143000066
 1674.9000000 421.99404907 1.0000000000 0.2143000066
 1674.9500000 505.51889038 1.0000000000 0.2261999995
 1675.0000000 601.72106934 1.0000000000 0.2320999950
 1675.0500000 712.12982178 1.0000000000 0.2381000072
 1675.1000000 841.93524170 1.0000000000 0.2440000027
 1675.1500000 990.52557373 1.0000000000 0.2500000000
 1675.2000000 1159.0654297 1.0000000000 0.2619000077
 1675.2500000 1280.2772217 1.0000000000 0.2619000077
 1675.3000000 1411.4816895 1.0000000000 0.2678999901
 1675.3500000 1553.2916260 1.0000000000 0.2737999856
 1675.4000000 1565.8948975 1.0000000000 0.2737999856
 1675.4500000 1578.0020752 1.0000000000 0.2737999856
 1675.5000000 1590.4758301 1.0000000000 0.2737999856
 1675.5500000 1510.9381104 1.0000000000 0.2737999856
 1675.6000000 1434.3634033 1.0000000000 0.2678999901
 1675.6500000 1361.1987305 1.0000000000 0.2678999901
 1675.7000000 1317.6112061 1.0000000000 0.2678999901
 1675.7500000 1275.1527100 1.0000000000 0.2619000077
 1675.8000000 1233.8023682 1.0000000000 0.2619000077
 1675.8500000 1269.8023682 1.0000000000 0.2619000077
 1675.9000000 1306.8912354 1.0000000000 0.2678999901
 1675.9500000 1344.5926514 1.0000000000 0.2678999901
 1676.0000000 1405.9394531 1.0000000000 0.2678999901
 1676.0500000 1469.2451172 1.0000000000 0.2737999856
 1676.1000000 1535.1060791 1.0000000000 0.2737999856
 1676.1500000 1498.9691162 1.0000000000 0.2737999856
 1676.2000000 1463.5203857 1.0000000000 0.2737999856
 1676.2500000 1428.7490234 1.0000000000 0.2678999901
 1676.3000000 1264.7124023 1.0000000000 0.2619000077
 1676.3500000 1116.1763916 1.0000000000 0.2560000122
 1676.4000000 981.80847168 1.0000000000 0.2500000000
 1676.4500000 769.72167969 1.0000000000 0.2440000027
 1676.5000000 596.01763916 1.0000000000 0.2320999950
 1676.5500000 455.33587646 1.0000000000 0.2202000022
 1676.6000000 316.28677368 1.0000000000 0.2082999945
 1676.6500000 213.57878113 1.0000000000 0.1905000061
 1676.7000000 139.62538147 1.0000000000 0.1785999984
 1676.7500000 57.952400208 1.0000000000 0.1667000055
 1676.8000000 40.511779785 1.0000000000 0.1606999934
 1676.8500000 27.626317978 1.0000000000 0.1488000005
 1676.9000000 29.289928436 1.0000000000 0.1488000005
 1676.9500000 31.046913147 1.0000000000 0.1547999978
 1677.0000000 32.877132416 1.0000000000 0.1547999978
 1677.0500000 48.781852722 1.0000000000 0.1667000055
 1677.1000000 70.504829407 1.0000000000 0.1726000011
 1677.1500000 168.25297546 1.0000000000 0.1844999939
 1677.2000000 225.04722595 1.0000000000 0.1964000016
 1677.2500000 296.33450317 1.0000000000 0.2023999989
 1677.3000000 384.66174316 1.0000000000 0.2143000066
 1677.3500000 430.67303467 1.0000000000 0.2202000022
 1677.4000000 481.12222290 1.0000000000 0.2202000022
 1677.4500000 536.09820557 1.0000000000 0.2261999995
 1677.5000000 541.33612061 1.0000000000 0.2261999995
 1677.5500000 546.49212646 1.0000000000 0.2261999995
 1677.6000000 551.93591309 1.0000000000 0.2261999995
 1677.6500000 557.29803467 1.0000000000 0.2261999995
 1677.7000000 562.57586670 1.0000000000 0.2261999995
 1677.7500000 568.14782715 1.0000000000 0.2261999995
 1677.8000000 613.26013184 1.0000000000 0.2320999950
 1677.8500000 661.20959473 1.0000000000 0.2320999950
 1677.9000000 712.12982178 1.0000000000 0.2381000072
 1677.9500000 778.36322021 1.0000000000 0.2440000027
 1678.0000000 849.63952637 1.0000000000 0.2440000027
 1678.0500000 925.88580322 1.0000000000 0.2500000000
 1678.1000000 1007.5415039 1.0000000000 0.2560000122
