# LAS format log file from PETREL
# Project units are specified as depth units
#==================================================================
~Version information
VERS.   2.0:
WRAP.   NO:
#==================================================================
~Well
STRT .m      1555.0999800 :
STOP .m      1749.8999800 :
STEP .m     0.10000000 :
NULL .        -999.250000 :
COMP.           : COMPANY
WELL.  F_IPE   : WELL
FLD.            : FIELD
LOC.            : LOCATION
SRVC.           : SERVICE COMPANY
DATE.  Friday, March 30 2012 17:04:30   : DATE
PROV.           : PROVINCE
UWI.      : UNIQUE WELL ID
API.            : API NUMBER
#==================================================================
~Curve
DEPT .m                   : DEPTH
Permeability*** .mD       : Permeability ***
NTG*** .                  : NTG ***
PORDENS268*** .m3/m3      : POR DENS 268 ***
~Parameter
#==================================================================
~Ascii
# ...
 1585.2999800 11.162454605 1.0000000000 0.1429072022
 1585.3999800 6.9034733772 1.0000000000 0.1368999928
 1585.4999800 2.7069349289 1.0000000000 0.1190999970
 1585.5999800 0.0010000000 0.0000000000 0.1011999995
 1585.6999800 0.0010000000 0.0000000000 0.1011999995
 1585.7999800 0.0010000000 0.0000000000 0.1011999995
 1585.8999800 0.0010000000 0.0000000000 0.0952000022
 1585.9999800 0.0010000000 0.0000000000 0.1011999995
 1586.0999800 0.0010000000 0.0000000000 0.1011999995
 1586.1999800 0.0010000000 0.0000000000 0.1011999995
 1586.2999800 19.818601608 1.0000000000 0.1606274396
 1586.3999800 26.516540527 1.0000000000 0.1667000055
 1586.4999800 34.972084045 1.0000000000 0.1726000011
 1586.5999800 62.437152863 1.0000000000 0.1844999939
 1586.6999800 118.70571136 1.0000000000 0.1905000061
 1586.7999800 128.00721741 1.0000000000 0.1905000061
 1586.8999800 125.62887573 1.0000000000 0.1905000061
 1586.9999800 117.58238983 1.0000000000 0.1905000061
 1587.0999800 62.437152863 1.0000000000 0.1844999939
 1587.1999800 21.413902283 1.0000000000 0.1606999934
 1587.2999800 19.309120178 1.0000000000 0.1548071951
 1587.3999800 17.377420425 1.0000000000 0.1547999978
 1587.4999800 19.818601608 1.0000000000 0.1606999934
 1587.5999800 22.534967422 1.0000000000 0.1606999934
 1587.6999800 8.0578956604 1.0000000000 0.1368999928
 1587.7999800 5.5186038017 1.0000000000 0.1310071945
 1587.8999800 3.6773884296 1.0000000000 0.1250000000
 1587.9999800 145.69120789 1.0000000000 0.1964000016
 1588.0999800 219.94834900 1.0000000000 0.2082999945
 1588.1999800 322.00326538 1.0000000000 0.2261999995
 1588.2999800 455.76177979 1.0000000000 0.2380854934
 1588.3999800 483.01583862 1.0000000000 0.2381000072
 1588.4999800 511.56570435 1.0000000000 0.2440000027
 1588.5999800 455.76177979 1.0000000000 0.2381000072
 1588.6999800 309.61694336 1.0000000000 0.2202000022
 1588.7999800 203.78024292 1.0000000000 0.2083145082
 1588.8999800 5.5186038017 1.0000000000 0.1309999973
 1588.9999800 1.5708019733 1.0000000000 0.1130999997
 1589.0999800 0.0010000000 0.0000000000 0.0892999992
 1589.1999800 0.0010000000 0.0000000000 0.0952000022
 1589.2999800 0.0010000000 0.0000000000 0.0952000022
 1589.3999800 0.0010000000 0.0000000000 0.1011999995
 1589.4999800 0.0010000000 0.0000000000 0.0952000022
 1589.5999800 0.0010000000 0.0000000000 0.1011999995
 1589.6999800 0.0010000000 0.0000000000 0.1071000025
 1589.7999800 0.0010000000 0.0000000000 0.1012071967
 1589.8999800 0.0010000000 0.0000000000 0.0952000022
 1589.9999800 0.0010000000 0.0000000000 0.0892999992
 1590.0999800 0.0010000000 0.0000000000 0.0833000019
 1590.1999800 0.0010000000 0.0000000000 0.0833000019
 1590.2999800 0.0010000000 0.0000000000 0.0892926827
 1590.3999800 0.0010000000 0.0000000000 0.0892999992
 1590.4999800 0.0010000000 0.0000000000 0.0892999992
 1590.5999800 0.0010000000 0.0000000000 0.0892999992
 1590.6999800 0.0010000000 0.0000000000 0.0892999992
 1590.7999800 0.9837218523 1.0000000000 0.1070782915
 1590.8999800 3.0771663189 1.0000000000 0.1190999970
 1590.9999800 49.290420532 1.0000000000 0.1667000055
 1591.0999800 200.32102966 1.0000000000 0.2082999945
 1591.1999800 307.18655396 1.0000000000 0.2202000022
 1591.2999800 361.57186890 1.0000000000 0.2261926830
 1591.3999800 423.44683838 1.0000000000 0.2320999950
 1591.4999800 462.45587158 1.0000000000 0.2381000072
 1591.5999800 411.05007935 1.0000000000 0.2320999950
 1591.6999800 364.34249878 1.0000000000 0.2261999995
 1591.7999800 193.54345703 1.0000000000 0.2083218247
 1591.8999800 186.95234680 1.0000000000 0.2023999989
 1591.9999800 180.54223633 1.0000000000 0.2023999989
 1592.0999800 125.62887573 1.0000000000 0.1905000061
 1592.1999800 71.352035522 1.0000000000 0.1726000011
 1592.2999800 19.309120178 1.0000000000 0.1548217088
 1592.3999800 62.136840820 1.0000000000 0.1726000011
 1592.4999800 85.894660950 1.0000000000 0.1785999984
 1592.5999800 116.46764374 1.0000000000 0.1905000061
 1592.6999800 130.42222595 1.0000000000 0.1905000061
 1592.7999800 140.44972229 1.0000000000 0.1963928044
 1592.8999800 151.08822632 1.0000000000 0.1964000016
 1592.9999800 193.54345703 1.0000000000 0.2082999945
 1593.0999800 203.78024292 1.0000000000 0.2082999945
 1593.1999800 214.44808960 1.0000000000 0.2082999945
 1593.2999800 218.10276794 1.0000000000 0.2082999945
 1593.3999800 225.56060791 1.0000000000 0.2082999945
 1593.4999800 233.22314453 1.0000000000 0.2143000066
 1593.5999800 241.09271240 1.0000000000 0.2143000066
 1593.6999800 249.17546082 1.0000000000 0.2143000066
 1593.7999800 196.90919495 1.0000000000 0.2083073109
 1593.8999800 210.84370422 1.0000000000 0.2082999945
 1593.9999800 210.84370422 1.0000000000 0.2082999945
 1594.0999800 210.84370422 1.0000000000 0.2082999945
 1594.1999800 203.78024292 1.0000000000 0.2082999945
 1594.2999800 196.90919495 1.0000000000 0.2082999945
 1594.3999800 116.46764374 1.0000000000 0.1905000061
 1594.4999800 118.70571136 1.0000000000 0.1905000061
 1594.5999800 120.97879028 1.0000000000 0.1905000061
 1594.6999800 116.46764374 1.0000000000 0.1905000061
 1594.7999800 107.85159302 1.0000000000 0.1845073104
 1594.8999800 99.755828857 1.0000000000 0.1844999939
 1594.9999800 99.755828857 1.0000000000 0.1844999939
 1595.0999800 115.36140442 1.0000000000 0.1905000061
 1595.1999800 132.87316895 1.0000000000 0.1905000061
 1595.2999800 118.70571136 1.0000000000 0.1905000061
 1595.3999800 116.46764374 1.0000000000 0.1905000061
 1595.4999800 114.26363373 1.0000000000 0.1905000061
 1595.5999800 455.76177979 1.0000000000 0.2381000072
 1595.6999800 537.64630127 1.0000000000 0.2440000027
 1595.7999800 630.97100830 1.0000000000 0.2499926835
 1595.8999800 703.25421143 1.0000000000 0.2560000122
 1595.9999800 722.32763672 1.0000000000 0.2560000122
 1596.0999800 741.81494141 1.0000000000 0.2560000122
 1596.1999800 442.60580444 1.0000000000 0.2381000072
 1596.2999800 358.81823730 1.0000000000 0.2262145132
 1596.3999800 288.28939819 1.0000000000 0.2202000022
 1596.4999800 200.32102966 1.0000000000 0.2082999945
 1596.5999800 207.28819275 1.0000000000 0.2082999945
 1596.6999800 214.44808960 1.0000000000 0.2082999945
 1596.7999800 253.29727173 1.0000000000 0.2142926902
 1596.8999800 241.09271240 1.0000000000 0.2143000066
 1596.9999800 229.36659241 1.0000000000 0.2143000066
 1597.0999800 134.11244202 1.0000000000 0.1964000016
 1597.1999800 73.626976013 1.0000000000 0.1726000011
 1597.2999800 18.322299957 1.0000000000 0.1548217088
 1597.3999800 24.306592941 1.0000000000 0.1606999934
 1597.4999800 59.502799988 1.0000000000 0.1667000055
 1597.5999800 24.921903610 1.0000000000 0.1606999934
 1597.6999800 21.968490601 1.0000000000 0.1606999934
 1597.7999800 19.309120178 1.0000000000 0.1548071951
 1597.8999800 15.607349396 1.0000000000 0.1547999978
 1597.9999800 12.687368393 1.0000000000 0.1488000005
 1598.0999800 10.232141495 1.0000000000 0.1429000050
 1598.1999800 11.820383072 1.0000000000 0.1488000005
 1598.2999800 21.689739227 1.0000000000 0.1606854796
 1598.3999800 37.508415222 1.0000000000 0.1726000011
 1598.4999800 6.2786693573 1.0000000000 0.1368999928
 1598.5999800 4.2240529060 1.0000000000 0.1250000000
 1598.6999800 2.7574574947 1.0000000000 0.1190999970
 1598.7999800 5.1679425240 1.0000000000 0.1309854835
 1598.8999800 14.779668808 1.0000000000 0.1488000005
 1598.9999800 35.801284790 1.0000000000 0.1726000011
 1599.0999800 20.339080811 1.0000000000 0.1606999934
 1599.1999800 11.487547874 1.0000000000 0.1488000005
 1599.2999800 6.0810580254 1.0000000000 0.1310217083
 1599.3999800 1.8820116520 1.0000000000 0.1130999997
 1599.4999800 1.7379781008 1.0000000000 0.1130999997
 1599.5999800 1.6031299829 1.0000000000 0.1130999997
 1599.6999800 4.0815162659 1.0000000000 0.1250000000
 1599.7999800 7.3477368355 1.0000000000 0.1368854791
 1599.8999800 12.509935379 1.0000000000 0.1488000005
 1599.9999800 34.972084045 1.0000000000 0.1726000011
 1600.0999800 143.05084229 1.0000000000 0.1964000016
 1600.1999800 83.355590820 1.0000000000 0.1964000016
 1600.2999800 890.38446045 1.0000000000 0.2678127885
