# LAS format log file from PETREL
# Project units are specified as depth units
#==================================================================
~Version information
VERS.   2.0:
WRAP.   NO:
#==================================================================
~Well
STRT .m      1605.0999800 :
STOP .m      1769.9999800 :
STEP .m     0.10000000 :
NULL .        -999.250000 :
COMP.           : COMPANY
WELL.  E_IPE   : WELL
FLD.            : FIELD
LOC.            : LOCATION
SRVC.           : SERVICE COMPANY
DATE.  Friday, March 30 2012 17:04:18   : DATE
PROV.           : PROVINCE
UWI.      : UNIQUE WELL ID
API.            : API NUMBER
#==================================================================
~Curve
DEPT .m                   : DEPTH
Permeability*** .mD       : Permeability ***
NTG*** .                  : NTG ***
PORDENS268*** .m3/m3      : POR DENS 268 ***
~Parameter
#==================================================================
~Ascii
# ...
 1725.8999800 0.8403857946 1.0000000000 0.1011999995
 1725.9999800 0.9200105071 1.0000000000 0.1011999995
 1726.0999800 3.2435483932 1.0000000000 0.1071000025
 1726.1999800 4.3719115257 1.0000000000 0.1130999997
 1726.2999800 5.9981236458 1.0000000000 0.1190926805
 1726.3999800 7.5727791786 1.0000000000 0.1250000000
 1726.4999800 9.1728286743 1.0000000000 0.1250000000
 1726.5999800 10.068968773 1.0000000000 0.1309999973
 1726.6999800 11.718008995 1.0000000000 0.1309999973
 1726.7999800 13.188043594 1.0000000000 0.1309999973
 1726.8999800 16.572908401 1.0000000000 0.1368999928
 1726.9999800 24.156099319 1.0000000000 0.1488000005
 1727.0999800 40.537948608 1.0000000000 0.1606999934
 1727.1999800 66.262512207 1.0000000000 0.1726000011
 1727.2999800 97.809982300 1.0000000000 0.1844854802
 1727.3999800 132.87316895 1.0000000000 0.1905000061
 1727.4999800 151.08822632 1.0000000000 0.1964000016
 1727.5999800 148.36997986 1.0000000000 0.1964000016
 1727.6999800 125.62887573 1.0000000000 0.1905000061
 1727.7999800 99.755828857 1.0000000000 0.1845073104
 1727.8999800 70.606063843 1.0000000000 0.1726000011
 1727.9999800 52.134899139 1.0000000000 0.1667000055
 1728.0999800 43.471000671 1.0000000000 0.1606999934
 1728.1999800 48.736858368 1.0000000000 0.1667000055
 1728.2999800 64.863533020 1.0000000000 0.1725928038
 1728.3999800 94.010772705 1.0000000000 0.1844999939
 1728.4999800 128.00721741 1.0000000000 0.1905000061
 1728.5999800 153.84704590 1.0000000000 0.1964000016
 1728.6999800 162.36547852 1.0000000000 0.2023999989
 1728.7999800 165.28845215 1.0000000000 0.2023999989
 1728.8999800 171.25996399 1.0000000000 0.2023999989
 1728.9999800 180.54223633 1.0000000000 0.2023999989
 1729.0999800 186.95234680 1.0000000000 0.2023999989
 1729.1999800 183.72518921 1.0000000000 0.2023999989
 1729.2999800 162.36547852 1.0000000000 0.2023999989
 1729.3999800 120.97879028 1.0000000000 0.1905000061
 1729.4999800 86.767463684 1.0000000000 0.1785999984
 1729.5999800 59.502799988 1.0000000000 0.1667000055
 1729.6999800 43.471000671 1.0000000000 0.1606999934
 1729.7999800 34.309856415 1.0000000000 0.1548071951
 1729.8999800 32.679698944 1.0000000000 0.1547999978
 1729.9999800 37.766220093 1.0000000000 0.1547999978
 1730.0999800 45.519275665 1.0000000000 0.1606999934
 1730.1999800 53.308887482 1.0000000000 0.1667000055
 1730.2999800 58.220043182 1.0000000000 0.1667000055
 1730.3999800 55.720958710 1.0000000000 0.1667000055
 1730.4999800 48.736858368 1.0000000000 0.1667000055
 1730.5999800 43.471000671 1.0000000000 0.1606999934
 1730.6999800 41.497287750 1.0000000000 0.1606999934
 1730.7999800 46.572380066 1.0000000000 0.1606999934
 1730.8999800 55.720958710 1.0000000000 0.1667000055
 1730.9999800 62.136840820 1.0000000000 0.1726000011
 1731.0999800 66.262512207 1.0000000000 0.1726000011
 1731.1999800 70.606063843 1.0000000000 0.1726000011
 1731.2999800 75.175750732 1.0000000000 0.1785926819
 1731.3999800 81.635528564 1.0000000000 0.1785999984
 1731.4999800 97.809982300 1.0000000000 0.1844999939
 1731.5999800 128.00721741 1.0000000000 0.1905000061
 1731.6999800 171.25996399 1.0000000000 0.2023999989
 1731.7999800 233.22314453 1.0000000000 0.2142854929
 1731.8999800 307.18655396 1.0000000000 0.2202000022
 1731.9999800 375.59759521 1.0000000000 0.2320999950
 1732.0999800 436.14410400 1.0000000000 0.2381000072
 1732.1999800 462.45587158 1.0000000000 0.2381000072
 1732.2999800 504.30468750 1.0000000000 0.2439928055
 1732.3999800 533.85662842 1.0000000000 0.2440000027
 1732.4999800 564.78582764 1.0000000000 0.2440000027
 1732.5999800 526.34185791 1.0000000000 0.2440000027
 1732.6999800 423.44683838 1.0000000000 0.2320999950
 1732.7999800 274.73941040 1.0000000000 0.2202145159
 1732.8999800 174.31083679 1.0000000000 0.2023999989
 1732.9999800 105.77946472 1.0000000000 0.1844999939
 1733.0999800 76.750991821 1.0000000000 0.1785999984
 1733.1999800 66.262512207 1.0000000000 0.1726000011
 1733.2999800 72.103973389 1.0000000000 0.1726000011
 1733.3999800 78.352294922 1.0000000000 0.1785999984
 1733.4999800 78.352294922 1.0000000000 0.1785999984
 1733.5999800 60.808193207 1.0000000000 0.1726000011
 1733.6999800 43.471000671 1.0000000000 0.1606999934
 1733.7999800 31.112424850 1.0000000000 0.1548071951
 1733.8999800 23.535940170 1.0000000000 0.1488000005
 1733.9999800 18.509422302 1.0000000000 0.1429000050
 1734.0999800 16.115249634 1.0000000000 0.1368999928
 1734.1999800 17.519712448 1.0000000000 0.1368999928
 1734.2999800 20.624052048 1.0000000000 0.1428926885
 1734.3999800 26.096023560 1.0000000000 0.1488000005
 1734.4999800 36.004585266 1.0000000000 0.1547999978
 1734.5999800 49.849029541 1.0000000000 0.1667000055
 1734.6999800 55.720958710 1.0000000000 0.1667000055
 1734.7999800 52.134899139 1.0000000000 0.1667000055
 1734.8999800 45.519275665 1.0000000000 0.1606999934
 1734.9999800 36.004585266 1.0000000000 0.1547999978
 1735.0999800 26.096023560 1.0000000000 0.1488000005
 1735.1999800 24.156099319 1.0000000000 0.1488000005
 1735.2999800 31.112424850 1.0000000000 0.1547926813
 1735.3999800 49.849029541 1.0000000000 0.1667000055
 1735.4999800 79.980361938 1.0000000000 0.1785999984
 1735.5999800 132.87316895 1.0000000000 0.1905000061
 1735.6999800 200.32102966 1.0000000000 0.2082999945
 1735.7999800 261.70645142 1.0000000000 0.2142926902
 1735.8999800 288.28939819 1.0000000000 0.2202000022
 1735.9999800 317.00228882 1.0000000000 0.2261999995
 1736.0999800 332.19561768 1.0000000000 0.2261999995
 1736.1999800 327.06750488 1.0000000000 0.2261999995
 1736.2999800 288.28939819 1.0000000000 0.2202073187
 1736.3999800 245.10777283 1.0000000000 0.2143000066
 1736.4999800 200.32102966 1.0000000000 0.2082999945
 1736.5999800 171.25996399 1.0000000000 0.2023999989
 1736.6999800 165.28845215 1.0000000000 0.2023999989
 1736.7999800 177.40452576 1.0000000000 0.2023999989
 1736.8999800 200.32102966 1.0000000000 0.2082999945
 1736.9999800 200.32102966 1.0000000000 0.2082999945
 1737.0999800 159.48489380 1.0000000000 0.1964000016
 1737.1999800 94.010772705 1.0000000000 0.1844999939
 1737.2999800 43.471000671 1.0000000000 0.1607290208
 1737.3999800 15.667809486 1.0000000000 0.1368999928
 1737.4999800 1.6694433689 1.0000000000 0.1130999997
 1737.5999800 0.2629432678 1.0000000000 0.0892999992
 1737.6999800 0.0010000000 0.0000000000 0.0714000016
 1737.7999800 0.0010000000 0.0000000000 0.0655071959
 1737.8999800 0.0010000000 0.0000000000 0.0654999986
 1737.9999800 0.0010000000 0.0000000000 0.0654999986
 1738.0999800 0.0010000000 0.0000000000 0.0654999986
 1738.1999800 0.0010000000 0.0000000000 0.0595000014
 1738.2999800 0.0010000000 0.0000000000 0.0476145148
 1738.3999800 0.0010000000 0.0000000000 0.0357000008
 1738.4999800 0.0000000005 1.0000000000 0.0297999997
 1738.5999800 0.0000000005 1.0000000000 0.0297999997
 1738.6999800 0.0010000000 0.0000000000 0.0357000008
 1738.7999800 0.0010000000 0.0000000000 0.0475854874
 1738.8999800 0.0010000000 0.0000000000 0.0535999984
 1738.9999800 0.0136051234 1.0000000000 0.0654999986
 1739.0999800 0.0751500651 1.0000000000 0.0773999989
 1739.1999800 0.3646691144 1.0000000000 0.0952000022
 1739.2999800 1.3591595888 1.0000000000 0.1070854887
 1739.3999800 3.6773884296 1.0000000000 0.1250000000
 1739.4999800 17.519712448 1.0000000000 0.1368999928
 1739.5999800 33.486701965 1.0000000000 0.1547999978
 1739.6999800 55.720958710 1.0000000000 0.1667000055
 1739.7999800 86.767463684 1.0000000000 0.1785854846
 1739.8999800 120.97879028 1.0000000000 0.1905000061
 1739.9999800 153.84704590 1.0000000000 0.1964000016
 1740.0999800 162.36547852 1.0000000000 0.2023999989
 1740.1999800 132.87316895 1.0000000000 0.1905000061
 1740.2999800 92.155761719 1.0000000000 0.1845073104
 1740.3999800 54.504333496 1.0000000000 0.1667000055
 1740.4999800 27.457553864 1.0000000000 0.1488000005
 1740.5999800 12.072541237 1.0000000000 0.1309999973
 1740.6999800 6.8616795540 1.0000000000 0.1190999970
 1740.7999800 6.2053036690 1.0000000000 0.1190999970
 1740.8999800 8.3419876099 1.0000000000 0.1250000000
