# LAS format log file from PETREL
# Project units are specified as depth units
#==================================================================
~Version information
VERS.   2.0:
WRAP.   NO:
#==================================================================
~Well
STRT .m      1610.0000000 :
STOP .m      1780.0000000 :
STEP .m     0.05000000 :
NULL .        -999.250000 :
COMP.           : COMPANY
WELL.  B_IPE   : WELL
FLD.            : FIELD
LOC.            : LOCATION
SRVC.           : SERVICE COMPANY
DATE.  Friday, March 30 2012 17:03:38   : DATE
PROV.           : PROVINCE
UWI.      : UNIQUE WELL ID
API.            : API NUMBER
#==================================================================
~Curve
DEPT .m                   : DEPTH
Permeability*** .mD       : Permeability ***
NTG*** .                  : NTG ***
PORDENS268*** .m3/m3      : POR DENS 268 ***
~Parameter
#==================================================================
~Ascii
# ...
 1730.8000000 0.0010000000 0.0000000000 0.0952000022
 1730.8500000 0.0010000000 0.0000000000 0.0892999992
 1730.9000000 0.0010000000 0.0000000000 0.0892999992
 1730.9500000 0.0010000000 0.0000000000 0.0892999992
 1731.0000000 0.0010000000 0.0000000000 0.0892999992
 1731.0500000 0.0010000000 0.0000000000 0.0892999992
 1731.1000000 0.0010000000 0.0000000000 0.0892999992
 1731.1500000 0.0010000000 0.0000000000 0.0892999992
 1731.2000000 0.0010000000 0.0000000000 0.0952000022
 1731.2500000 0.0010000000 0.0000000000 0.0952000022
 1731.3000000 0.0010000000 0.0000000000 0.0952000022
 1731.3500000 0.0010000000 0.0000000000 0.1011999995
 1731.4000000 0.0010000000 0.0000000000 0.1011999995
 1731.4500000 0.0010000000 0.0000000000 0.1011999995
 1731.5000000 0.0010000000 0.0000000000 0.1011999995
 1731.5500000 0.0010000000 0.0000000000 0.1011999995
 1731.6000000 0.0010000000 0.0000000000 0.0952000022
 1731.6500000 0.0010000000 0.0000000000 0.0952000022
 1731.7000000 0.0010000000 0.0000000000 0.0892999992
 1731.7500000 0.0010000000 0.0000000000 0.0833000019
 1731.8000000 0.0010000000 0.0000000000 0.0833000019
 1731.8500000 0.0010000000 0.0000000000 0.0773999989
 1731.9000000 0.0010000000 0.0000000000 0.0773999989
 1731.9500000 0.0010000000 0.0000000000 0.0773999989
 1732.0000000 0.0010000000 0.0000000000 0.0773999989
 1732.0500000 0.0010000000 0.0000000000 0.0773999989
 1732.1000000 0.0010000000 0.0000000000 0.0833000019
 1732.1500000 0.0010000000 0.0000000000 0.0892999992
 1732.2000000 0.0010000000 0.0000000000 0.0952000022
 1732.2500000 2.9916806221 1.0000000000 0.1190999970
 1732.3000000 11.113689423 1.0000000000 0.1429000050
 1732.3500000 29.712688446 1.0000000000 0.1606999934
 1732.4000000 38.040424347 1.0000000000 0.1667000055
 1732.4500000 86.893913269 1.0000000000 0.1726000011
 1732.5000000 106.88614655 1.0000000000 0.1785999984
 1732.5500000 104.71507263 1.0000000000 0.1785999984
 1732.6000000 102.61170197 1.0000000000 0.1785999984
 1732.6500000 100.54249573 1.0000000000 0.1785999984
 1732.7000000 81.528984070 1.0000000000 0.1726000011
 1732.7500000 65.520973206 1.0000000000 0.1667000055
 1732.8000000 52.162868500 1.0000000000 0.1606999934
 1732.8500000 18.826194763 1.0000000000 0.1488000005
 1732.9000000 12.524053574 1.0000000000 0.1429000050
 1732.9500000 7.1869468689 1.0000000000 0.1368999928
 1733.0000000 3.6670844555 1.0000000000 0.1250000000
 1733.0500000 1.7069927454 1.0000000000 0.1190999970
 1733.1000000 0.7046648860 1.0000000000 0.1130999997
 1733.1500000 0.5071637034 1.0000000000 0.1071000025
 1733.2000000 0.3579228818 1.0000000000 0.1071000025
 1733.2500000 0.2534067035 1.0000000000 0.1011999995
 1733.3000000 0.4515124559 1.0000000000 0.1071000025
 1733.3500000 0.7782433033 1.0000000000 0.1130999997
 1733.4000000 1.2800557613 1.0000000000 0.1130999997
 1733.4500000 2.5598895550 1.0000000000 0.1190999970
 1733.5000000 4.7384133339 1.0000000000 0.1250000000
 1733.5500000 7.5710082054 1.0000000000 0.1309999973
 1733.6000000 9.3465032578 1.0000000000 0.1368999928
 1733.6500000 11.456011772 1.0000000000 0.1429000050
 1733.7000000 13.941987038 1.0000000000 0.1429000050
 1733.7500000 13.413499832 1.0000000000 0.1429000050
 1733.8000000 12.895801544 1.0000000000 0.1429000050
 1733.8500000 11.828498840 1.0000000000 0.1429000050
 1733.9000000 9.1483297348 1.0000000000 0.1368999928
 1733.9500000 6.9887547493 1.0000000000 0.1368999928
 1734.0000000 5.2642297745 1.0000000000 0.1309999973
 1734.0500000 4.0334053040 1.0000000000 0.1250000000
 1734.1000000 3.0496242046 1.0000000000 0.1190999970
 1734.1500000 2.2708466053 1.0000000000 0.1190999970
 1734.2000000 1.7246431112 1.0000000000 0.1130999997
 1734.2500000 1.2913684845 1.0000000000 0.1071000025
 1734.3000000 0.9518548250 1.0000000000 0.1011999995
 1734.3500000 0.0010000000 0.0000000000 0.1011999995
 1734.4000000 0.0010000000 0.0000000000 0.0952000022
 1734.4500000 0.0010000000 0.0000000000 0.0952000022
 1734.5000000 0.0010000000 0.0000000000 0.0892999992
 1734.5500000 0.0010000000 0.0000000000 0.0892999992
 1734.6000000 0.0010000000 0.0000000000 0.0892999992
 1734.6500000 0.0010000000 0.0000000000 0.0892999992
 1734.7000000 0.0010000000 0.0000000000 0.0892999992
 1734.7500000 0.0010000000 0.0000000000 0.0892999992
 1734.8000000 0.0010000000 0.0000000000 0.0892999992
 1734.8500000 0.0010000000 0.0000000000 0.0952000022
 1734.9000000 0.0010000000 0.0000000000 0.0952000022
 1734.9500000 0.0010000000 0.0000000000 0.0952000022
 1735.0000000 0.0010000000 0.0000000000 0.0952000022
 1735.0500000 0.0010000000 0.0000000000 0.0952000022
 1735.1000000 0.0010000000 0.0000000000 0.0952000022
 1735.1500000 0.0010000000 0.0000000000 0.0952000022
 1735.2000000 0.0010000000 0.0000000000 0.0952000022
 1735.2500000 0.0010000000 0.0000000000 0.0952000022
 1735.3000000 0.0010000000 0.0000000000 0.0952000022
 1735.3500000 0.0010000000 0.0000000000 0.0892999992
 1735.4000000 0.0010000000 0.0000000000 0.0892999992
 1735.4500000 0.0010000000 0.0000000000 0.0892999992
 1735.5000000 0.0010000000 0.0000000000 0.0892999992
 1735.5500000 0.0010000000 0.0000000000 0.0892999992
 1735.6000000 0.0010000000 0.0000000000 0.0892999992
 1735.6500000 0.0010000000 0.0000000000 0.0892999992
 1735.7000000 0.0010000000 0.0000000000 0.0952000022
 1735.7500000 0.0010000000 0.0000000000 0.0952000022
 1735.8000000 0.0010000000 0.0000000000 0.0952000022
 1735.8500000 0.0010000000 0.0000000000 0.1011999995
 1735.9000000 0.0010000000 0.0000000000 0.1071000025
 1735.9500000 0.8382394314 1.0000000000 0.1071000025
 1736.0000000 1.5476083755 1.0000000000 0.1130999997
 1736.0500000 2.9005143642 1.0000000000 0.1190999970
 1736.1000000 4.0023283958 1.0000000000 0.1250000000
 1736.1500000 5.4298639297 1.0000000000 0.1250000000
 1736.2000000 8.1567354202 1.0000000000 0.1368999928
 1736.2500000 11.920446396 1.0000000000 0.1429000050
 1736.3000000 17.007160187 1.0000000000 0.1488000005
 1736.3500000 26.144443512 1.0000000000 0.1606999934
 1736.4000000 71.597824097 1.0000000000 0.1667000055
 1736.4500000 100.54249573 1.0000000000 0.1785999984
 1736.5000000 136.40722656 1.0000000000 0.1844999939
 1736.5500000 182.01350403 1.0000000000 0.1964000016
 1736.6000000 239.09001160 1.0000000000 0.2023999989
 1736.6500000 289.91363525 1.0000000000 0.2143000066
 1736.7000000 349.08670044 1.0000000000 0.2202000022
 1736.7500000 373.82360840 1.0000000000 0.2261999995
 1736.8000000 425.00549316 1.0000000000 0.2261999995
 1736.8500000 481.67855835 1.0000000000 0.2320999950
 1736.9000000 524.43157959 1.0000000000 0.2320999950
 1736.9500000 495.75750732 1.0000000000 0.2320999950
 1737.0000000 450.88436890 1.0000000000 0.2320999950
 1737.0500000 409.24002075 1.0000000000 0.2320999950
 1737.1000000 405.93066406 1.0000000000 0.2320999950
 1737.1500000 402.54635620 1.0000000000 0.2320999950
 1737.2000000 399.28063965 1.0000000000 0.2261999995
 1737.2500000 440.32284546 1.0000000000 0.2261999995
 1737.3000000 441.87863159 1.0000000000 0.2261999995
 1737.3500000 437.32733154 1.0000000000 0.2261999995
 1737.4000000 460.25177002 1.0000000000 0.2320999950
 1737.4500000 484.13284302 1.0000000000 0.2320999950
 1737.5000000 509.00064087 1.0000000000 0.2320999950
 1737.5500000 567.25848389 1.0000000000 0.2381000072
 1737.6000000 630.90155029 1.0000000000 0.2440000027
 1737.6500000 700.01568604 1.0000000000 0.2440000027
 1737.7000000 803.91619873 1.0000000000 0.2500000000
 1737.7500000 920.06274414 1.0000000000 0.2560000122
 1737.8000000 1049.3406982 1.0000000000 0.2619000077
 1737.8500000 1152.9866943 1.0000000000 0.2678999901
 1737.9000000 1264.7124023 1.0000000000 0.2737999856
 1737.9500000 1385.2454834 1.0000000000 0.2797999978
 1738.0000000 1373.8264160 1.0000000000 0.2797999978
 1738.0500000 1362.7404785 1.0000000000 0.2737999856
 1738.1000000 1351.4709473 1.0000000000 0.2737999856
 1738.1500000 1192.6132813 1.0000000000 0.2678999901
 1738.2000000 1049.3406982 1.0000000000 0.2619000077
 1738.2500000 785.43145752 1.0000000000 0.2560000122
 1738.3000000 576.84655762 1.0000000000 0.2500000000
