# LAS format log file from PETREL
# Project units are specified as depth units
#==================================================================
~Version information
VERS.   2.0:
WRAP.   NO:
#==================================================================
~Well
STRT .m      1610.0000000 :
STOP .m      1780.0000000 :
STEP .m     0.05000000 :
NULL .        -999.250000 :
COMP.           : COMPANY
WELL.  B_IPE   : WELL
FLD.            : FIELD
LOC.            : LOCATION
SRVC.           : SERVICE COMPANY
DATE.  Friday, March 30 2012 17:03:38   : DATE
PROV.           : PROVINCE
UWI.      : UNIQUE WELL ID
API.            : API NUMBER
#==================================================================
~Curve
DEPT .m                   : DEPTH
Permeability*** .mD       : Permeability ***
NTG*** .                  : NTG ***
PORDENS268*** .m3/m3      : POR DENS 268 ***
~Parameter
#==================================================================
~Ascii
# ...
 1632.6500000 25.478994370 1.0000000000 0.1606999934
 1632.7000000 28.726478577 1.0000000000 0.1606999934
 1632.7500000 32.294364929 1.0000000000 0.1667000055
 1632.8000000 36.245716095 1.0000000000 0.1667000055
 1632.8500000 29.210498810 1.0000000000 0.1606999934
 1632.9000000 20.588701248 1.0000000000 0.1547999978
 1632.9500000 12.034839630 1.0000000000 0.1488000005
 1633.0000000 4.7029323578 1.0000000000 0.1429000050
 1633.0500000 2.4841961861 1.0000000000 0.1309999973
 1633.1000000 1.2931166887 1.0000000000 0.1250000000
 1633.1500000 0.0010000000 0.0000000000 0.1130999997
 1633.2000000 0.0010000000 0.0000000000 0.1071000025
 1633.2500000 0.0010000000 0.0000000000 0.1011999995
 1633.3000000 0.0010000000 0.0000000000 0.0952000022
 1633.3500000 0.0010000000 0.0000000000 0.0892999992
 1633.4000000 0.0010000000 0.0000000000 0.0892999992
 1633.4500000 0.0010000000 0.0000000000 0.0833000019
 1633.5000000 0.0010000000 0.0000000000 0.0833000019
 1633.5500000 0.0010000000 0.0000000000 0.0833000019
 1633.6000000 0.0010000000 0.0000000000 0.0773999989
 1633.6500000 0.0010000000 0.0000000000 0.0773999989
 1633.7000000 0.0010000000 0.0000000000 0.0714000016
 1633.7500000 0.0010000000 0.0000000000 0.0714000016
 1633.8000000 0.0010000000 0.0000000000 0.0654999986
 1633.8500000 0.0010000000 0.0000000000 0.0654999986
 1633.9000000 0.0010000000 0.0000000000 0.0595000014
 1633.9500000 0.0010000000 0.0000000000 0.0595000014
 1634.0000000 0.0010000000 0.0000000000 0.0595000014
 1634.0500000 0.0010000000 0.0000000000 0.0595000014
 1634.1000000 0.0010000000 0.0000000000 0.0595000014
 1634.1500000 0.0010000000 0.0000000000 0.0654999986
 1634.2000000 0.0010000000 0.0000000000 0.0714000016
 1634.2500000 0.0010000000 0.0000000000 0.0773999989
 1634.3000000 0.0010000000 0.0000000000 0.0892999992
 1634.3500000 0.0010000000 0.0000000000 0.0952000022
 1634.4000000 1.6517204046 1.0000000000 0.1071000025
 1634.4500000 4.0023283958 1.0000000000 0.1250000000
 1634.5000000 8.5992784500 1.0000000000 0.1368999928
 1634.5500000 18.149192810 1.0000000000 0.1488000005
 1634.6000000 65.052459717 1.0000000000 0.1667000055
 1634.6500000 111.26840210 1.0000000000 0.1785999984
 1634.7000000 154.00238037 1.0000000000 0.1905000061
 1634.7500000 208.98866272 1.0000000000 0.2023999989
 1634.8000000 278.76715088 1.0000000000 0.2082999945
 1634.8500000 269.56964111 1.0000000000 0.2082999945
 1634.9000000 260.54980469 1.0000000000 0.2082999945
 1634.9500000 225.77255249 1.0000000000 0.2082999945
 1635.0000000 105.86193085 1.0000000000 0.1964000016
 1635.0500000 63.118392944 1.0000000000 0.1844999939
 1635.1000000 20.058761597 1.0000000000 0.1726000011
 1635.1500000 9.0613698959 1.0000000000 0.1547999978
 1635.2000000 3.5874917507 1.0000000000 0.1368999928
 1635.2500000 1.1826671362 1.0000000000 0.1190999970
 1635.3000000 0.0010000000 0.0000000000 0.1130999997
 1635.3500000 0.0010000000 0.0000000000 0.1011999995
 1635.4000000 0.0010000000 0.0000000000 0.0892999992
 1635.4500000 0.0010000000 0.0000000000 0.0833000019
 1635.5000000 0.0010000000 0.0000000000 0.0833000019
 1635.5500000 0.0010000000 0.0000000000 0.0773999989
 1635.6000000 0.0010000000 0.0000000000 0.0833000019
 1635.6500000 0.0010000000 0.0000000000 0.0833000019
 1635.7000000 0.0010000000 0.0000000000 0.0892999992
 1635.7500000 0.0010000000 0.0000000000 0.0952000022
 1635.8000000 0.0010000000 0.0000000000 0.1011999995
 1635.8500000 0.8781867623 1.0000000000 0.1011999995
 1635.9000000 1.6982238293 1.0000000000 0.1071000025
 1635.9500000 2.3871066570 1.0000000000 0.1130999997
 1636.0000000 3.2907030582 1.0000000000 0.1190999970
 1636.0500000 3.9560806751 1.0000000000 0.1190999970
 1636.1000000 4.7282533646 1.0000000000 0.1250000000
 1636.1500000 5.6172785759 1.0000000000 0.1250000000
 1636.2000000 6.5724973679 1.0000000000 0.1309999973
 1636.2500000 7.6498084068 1.0000000000 0.1309999973
 1636.3000000 8.8724431992 1.0000000000 0.1368999928
 1636.3500000 11.232014656 1.0000000000 0.1429000050
 1636.4000000 14.072083473 1.0000000000 0.1429000050
 1636.4500000 17.492326736 1.0000000000 0.1488000005
 1636.5000000 25.256944656 1.0000000000 0.1606999934
 1636.5500000 66.014694214 1.0000000000 0.1667000055
 1636.6000000 88.734489441 1.0000000000 0.1726000011
 1636.6500000 112.95716095 1.0000000000 0.1785999984
 1636.7000000 142.23530579 1.0000000000 0.1905000061
 1636.7500000 177.32974243 1.0000000000 0.1964000016
 1636.8000000 219.07539368 1.0000000000 0.2023999989
 1636.8500000 251.77430725 1.0000000000 0.2082999945
 1636.9000000 288.28915405 1.0000000000 0.2143000066
 1636.9500000 328.94757080 1.0000000000 0.2143000066
 1637.0000000 308.04034424 1.0000000000 0.2143000066
 1637.0500000 288.28915405 1.0000000000 0.2143000066
 1637.1000000 269.56964111 1.0000000000 0.2082999945
 1637.1500000 240.48759460 1.0000000000 0.2082999945
 1637.2000000 213.98419189 1.0000000000 0.2023999989
 1637.2500000 189.88259888 1.0000000000 0.1964000016
 1637.3000000 206.55445862 1.0000000000 0.2023999989
 1637.3500000 224.26359558 1.0000000000 0.2023999989
 1637.4000000 243.23823547 1.0000000000 0.2082999945
 1637.4500000 309.75369263 1.0000000000 0.2143000066
 1637.5000000 390.17471313 1.0000000000 0.2202000022
 1637.5500000 486.59719849 1.0000000000 0.2320999950
 1637.6000000 598.39971924 1.0000000000 0.2381000072
 1637.6500000 729.99414063 1.0000000000 0.2500000000
 1637.7000000 883.92449951 1.0000000000 0.2560000122
 1637.7500000 965.92260742 1.0000000000 0.2619000077
 1637.8000000 1053.7219238 1.0000000000 0.2619000077
 1637.8500000 1148.0528564 1.0000000000 0.2678999901
 1637.9000000 1123.8577881 1.0000000000 0.2678999901
 1637.9500000 1100.2906494 1.0000000000 0.2678999901
 1638.0000000 1076.6973877 1.0000000000 0.2678999901
 1638.0500000 953.32489014 1.0000000000 0.2619000077
 1638.1000000 841.23779297 1.0000000000 0.2560000122
 1638.1500000 740.16088867 1.0000000000 0.2500000000
 1638.2000000 612.98980713 1.0000000000 0.2381000072
 1638.2500000 503.90048218 1.0000000000 0.2320999950
 1638.3000000 411.09872437 1.0000000000 0.2261999995
 1638.3500000 356.62734985 1.0000000000 0.2202000022
 1638.4000000 308.04034424 1.0000000000 0.2143000066
 1638.4500000 264.99444580 1.0000000000 0.2082999945
 1638.5000000 257.57528687 1.0000000000 0.2082999945
 1638.5500000 250.39002991 1.0000000000 0.2082999945
 1638.6000000 243.23823547 1.0000000000 0.2082999945
 1638.6500000 234.99888611 1.0000000000 0.2023999989
 1638.7000000 226.92486572 1.0000000000 0.2023999989
 1638.7500000 219.07539368 1.0000000000 0.2023999989
 1638.8000000 193.38351440 1.0000000000 0.1964000016
 1638.8500000 170.12446594 1.0000000000 0.1964000016
 1638.9000000 149.21379089 1.0000000000 0.1905000061
 1638.9500000 133.80439758 1.0000000000 0.1844999939
 1639.0000000 119.73792267 1.0000000000 0.1844999939
 1639.0500000 106.88614655 1.0000000000 0.1785999984
 1639.1000000 112.02404785 1.0000000000 0.1785999984
 1639.1500000 117.39456940 1.0000000000 0.1844999939
 1639.2000000 122.93309021 1.0000000000 0.1844999939
 1639.2500000 139.99586487 1.0000000000 0.1905000061
 1639.3000000 158.86819458 1.0000000000 0.1905000061
 1639.3500000 179.78526306 1.0000000000 0.1964000016
 1639.4000000 184.21250916 1.0000000000 0.1964000016
 1639.4500000 188.77941895 1.0000000000 0.1964000016
 1639.5000000 193.38351440 1.0000000000 0.1964000016
 1639.5500000 162.92369080 1.0000000000 0.1905000061
 1639.6000000 136.40722656 1.0000000000 0.1844999939
 1639.6500000 90.055892944 1.0000000000 0.1785999984
 1639.7000000 30.585046768 1.0000000000 0.1726000011
 1639.7500000 17.769260406 1.0000000000 0.1606999934
 1639.8000000 9.7488431931 1.0000000000 0.1547999978
 1639.8500000 8.1210498810 1.0000000000 0.1488000005
 1639.9000000 6.7202057838 1.0000000000 0.1429000050
 1639.9500000 5.5243597031 1.0000000000 0.1368999928
 1640.0000000 4.5092306137 1.0000000000 0.1368999928
 1640.0500000 6.0670142174 1.0000000000 0.1309999973
 1640.1000000 7.3276839256 1.0000000000 0.1309999973
 1640.1500000 6.8637328148 1.0000000000 0.1309999973
