# LAS format log file from PETREL
# Project units are specified as depth units
#==================================================================
~Version information
VERS.   2.0:
WRAP.   NO:
#==================================================================
~Well
STRT .m      1550.0000000 :
STOP .m      1779.8000000 :
STEP .m     0.30000000 :
NULL .        -999.250000 :
COMP.           : COMPANY
WELL.  D_IPE   : WELL
FLD.            : FIELD
LOC.            : LOCATION
SRVC.           : SERVICE COMPANY
DATE.  Friday, March 30 2012 17:04:05   : DATE
PROV.           : PROVINCE
UWI.      : UNIQUE WELL ID
API.            : API NUMBER
#==================================================================
~Curve
DEPT .m                   : DEPTH
Permeability*** .mD       : Permeability ***
NTG*** .                  : NTG ***
PORDENS268*** .m3/m3      : POR DENS 268 ***
~Parameter
#==================================================================
~Ascii
# ...
 1640.6000000 183.40449524 1.0000000000 0.2023999989
 1640.9000000 272.97186279 1.0000000000 0.2202000022
 1641.2000000 165.58271790 1.0000000000 0.2023999989
 1641.5000000 37.075542450 1.0000000000 0.1726000011
 1641.8000000 3.9566228390 1.0000000000 0.1250000000
 1642.1000000 13.605946541 1.0000000000 0.1488000005
 1642.4000000 20.077455521 1.0000000000 0.1606999934
 1642.7000000 5.2021660805 1.0000000000 0.1309999973
 1643.0000000 5.7011070251 1.0000000000 0.1309999973
 1643.3000000 55.475845337 1.0000000000 0.1667000055
 1643.6000000 71.202194214 1.0000000000 0.1726000011
 1643.9000000 17.193294525 1.0000000000 0.1547999978
 1644.2000000 40.656547546 1.0000000000 0.1785999984
 1644.5000000 756.70428467 1.0000000000 0.2619000077
 1644.8000000 731.04516602 1.0000000000 0.2560000122
 1645.1000000 182.76521301 1.0000000000 0.2023999989
 1645.4000000 7.0784187317 1.0000000000 0.1368999928
 1645.7000000 6.0615534782 1.0000000000 0.1309999973
 1646.0000000 20.978586197 1.0000000000 0.1606999934
 1646.3000000 31.963491440 1.0000000000 0.1726000011
 1646.6000000 248.76666260 1.0000000000 0.2143000066
 1646.9000000 754.70477295 1.0000000000 0.2619000077
 1647.2000000 505.02636719 1.0000000000 0.2440000027
 1647.5000000 279.64712524 1.0000000000 0.2202000022
 1647.8000000 189.56660461 1.0000000000 0.2023999989
 1648.1000000 474.70578003 1.0000000000 0.2381000072
 1648.4000000 618.95996094 1.0000000000 0.2500000000
 1648.7000000 251.64260864 1.0000000000 0.2143000066
 1649.0000000 128.00721741 1.0000000000 0.1905000061
 1649.3000000 337.91180420 1.0000000000 0.2261999995
 1649.6000000 140.96701050 1.0000000000 0.1964000016
 1649.9000000 15.734804153 1.0000000000 0.1547999978
 1650.2000000 56.470653534 1.0000000000 0.1844999939
 1650.5000000 617.25897217 1.0000000000 0.2500000000
 1650.8000000 229.74955750 1.0000000000 0.2143000066
 1651.1000000 22.363710403 1.0000000000 0.1606999934
 1651.4000000 7.6960864067 1.0000000000 0.1368999928
 1651.7000000 3.1219842434 1.0000000000 0.1250000000
 1652.0000000 0.0010000000 0.0000000000 0.0892999992
 1652.3000000 0.0010000000 0.0000000000 0.0952000022
 1652.6000000 0.0010000000 0.0000000000 0.1071000025
 1652.9000000 5.3937220573 1.0000000000 0.1309999973
 1653.2000000 127.29006195 1.0000000000 0.1905000061
 1653.5000000 701.36914063 1.0000000000 0.2560000122
 1653.8000000 915.76123047 1.0000000000 0.2678999901
 1654.1000000 352.27801514 1.0000000000 0.2261999995
 1654.4000000 143.57580566 1.0000000000 0.1964000016
 1654.7000000 164.70050049 1.0000000000 0.2023999989
 1655.0000000 704.19940186 1.0000000000 0.2560000122
 1655.3000000 1067.2702637 1.0000000000 0.2737999856
 1655.6000000 443.25711060 1.0000000000 0.2381000072
 1655.9000000 185.01016235 1.0000000000 0.2023999989
 1656.2000000 109.10996246 1.0000000000 0.1844999939
 1656.5000000 126.10179138 1.0000000000 0.1905000061
 1656.8000000 116.02401733 1.0000000000 0.1905000061
 1657.1000000 273.41339111 1.0000000000 0.2202000022
 1657.4000000 826.18029785 1.0000000000 0.2619000077
 1657.7000000 863.34613037 1.0000000000 0.2678999901
 1658.0000000 662.71850586 1.0000000000 0.2560000122
 1658.3000000 636.17443848 1.0000000000 0.2500000000
 1658.6000000 375.02752686 1.0000000000 0.2320999950
 1658.9000000 76.117744446 1.0000000000 0.1785999984
 1659.2000000 44.383438110 1.0000000000 0.1606999934
 1659.5000000 98.003417969 1.0000000000 0.1844999939
 1659.8000000 222.92721558 1.0000000000 0.2082999945
 1660.1000000 452.44406128 1.0000000000 0.2381000072
 1660.4000000 419.69726563 1.0000000000 0.2320999950
 1660.7000000 143.57580566 1.0000000000 0.1964000016
 1661.0000000 91.972106934 1.0000000000 0.1844999939
 1661.3000000 187.92916870 1.0000000000 0.2023999989
 1661.6000000 183.08500671 1.0000000000 0.2023999989
 1661.9000000 610.49438477 1.0000000000 0.2500000000
 1662.2000000 1571.2928467 1.0000000000 0.2976000011
 1662.5000000 2074.2963867 1.0000000000 0.3095000088
 1662.8000000 2285.0869141 1.0000000000 0.3154999912
 1663.1000000 2096.9118652 1.0000000000 0.3095000088
 1663.4000000 1382.9678955 1.0000000000 0.2856999934
 1663.7000000 781.02752686 1.0000000000 0.2619000077
 1664.0000000 711.78631592 1.0000000000 0.2560000122
 1664.3000000 407.99697876 1.0000000000 0.2320999950
 1664.6000000 311.57284546 1.0000000000 0.2202000022
 1664.9000000 573.53973389 1.0000000000 0.2500000000
 1665.2000000 883.56121826 1.0000000000 0.2678999901
 1665.5000000 677.23535156 1.0000000000 0.2560000122
 1665.8000000 635.30554199 1.0000000000 0.2500000000
 1666.1000000 531.59356689 1.0000000000 0.2440000027
 1666.4000000 296.20263672 1.0000000000 0.2202000022
 1666.7000000 90.693481445 1.0000000000 0.1844999939
 1667.0000000 4.1522817612 1.0000000000 0.1250000000
 1667.3000000 15.935013771 1.0000000000 0.1368999928
 1667.6000000 82.473785400 1.0000000000 0.1785999984
 1667.9000000 326.04931641 1.0000000000 0.2261999995
 1668.2000000 784.11346436 1.0000000000 0.2619000077
 1668.5000000 730.07110596 1.0000000000 0.2560000122
 1668.8000000 247.13488770 1.0000000000 0.2143000066
 1669.1000000 12.866865158 1.0000000000 0.1488000005
 1669.4000000 11.034522057 1.0000000000 0.1429000050
 1669.7000000 98.584625244 1.0000000000 0.1844999939
 1670.0000000 195.22088623 1.0000000000 0.2082999945
 1670.3000000 313.04568481 1.0000000000 0.2261999995
 1670.6000000 283.71362305 1.0000000000 0.2202000022
 1670.9000000 366.01409912 1.0000000000 0.2320999950
 1671.2000000 422.82055664 1.0000000000 0.2320999950
 1671.5000000 270.33871460 1.0000000000 0.2202000022
 1671.8000000 188.91011047 1.0000000000 0.2023999989
 1672.1000000 222.17926025 1.0000000000 0.2082999945
 1672.4000000 285.53686523 1.0000000000 0.2202000022
 1672.7000000 221.06153870 1.0000000000 0.2082999945
 1673.0000000 255.79714966 1.0000000000 0.2143000066
 1673.3000000 253.71304321 1.0000000000 0.2143000066
 1673.6000000 163.52963257 1.0000000000 0.2023999989
 1673.9000000 215.90400696 1.0000000000 0.2082999945
 1674.2000000 202.04467773 1.0000000000 0.2082999945
 1674.5000000 108.47930908 1.0000000000 0.1844999939
 1674.8000000 13.757885933 1.0000000000 0.1488000005
 1675.1000000 6.1201748848 1.0000000000 0.1368999928
 1675.4000000 2.2854642868 1.0000000000 0.1190999970
 1675.7000000 0.9968848825 1.0000000000 0.1071000025
 1676.0000000 3.7423512936 1.0000000000 0.1250000000
 1676.3000000 27.947336197 1.0000000000 0.1488000005
 1676.6000000 61.869258881 1.0000000000 0.1726000011
 1676.9000000 210.48629761 1.0000000000 0.2082999945
 1677.2000000 194.21287537 1.0000000000 0.2082999945
 1677.5000000 110.59328461 1.0000000000 0.1905000061
 1677.8000000 109.10996246 1.0000000000 0.1844999939
 1678.1000000 129.45187378 1.0000000000 0.1905000061
 1678.4000000 76.750991821 1.0000000000 0.1785999984
 1678.7000000 184.68843079 1.0000000000 0.2023999989
 1679.0000000 494.27807617 1.0000000000 0.2440000027
 1679.3000000 705.14331055 1.0000000000 0.2560000122
 1679.6000000 759.71032715 1.0000000000 0.2619000077
 1679.9000000 356.62698364 1.0000000000 0.2261999995
 1680.2000000 75.019851685 1.0000000000 0.1785999984
 1680.5000000 64.448570251 1.0000000000 0.1726000011
 1680.8000000 110.59328461 1.0000000000 0.1905000061
 1681.1000000 116.24592590 1.0000000000 0.1905000061
 1681.4000000 111.44830322 1.0000000000 0.1905000061
 1681.7000000 143.05084229 1.0000000000 0.1964000016
 1682.0000000 114.92118073 1.0000000000 0.1905000061
 1682.3000000 202.73764038 1.0000000000 0.2082999945
 1682.6000000 447.17492676 1.0000000000 0.2381000072
 1682.9000000 328.59896851 1.0000000000 0.2261999995
 1683.2000000 234.00085449 1.0000000000 0.2143000066
 1683.5000000 63.761608124 1.0000000000 0.1726000011
 1683.8000000 144.36585999 1.0000000000 0.1964000016
 1684.1000000 335.30413818 1.0000000000 0.2261999995
 1684.4000000 287.82861328 1.0000000000 0.2202000022
 1684.7000000 159.48489380 1.0000000000 0.1964000016
 1685.0000000 105.57427216 1.0000000000 0.1844999939
 1685.3000000 57.084552765 1.0000000000 0.1667000055
 1685.6000000 13.719725609 1.0000000000 0.1488000005
