# LAS format log file from PETREL
# Project units are specified as depth units
#==================================================================
~Version information
VERS.   2.0:
WRAP.   NO:
#==================================================================
~Well
STRT .m      1550.0000000 :
STOP .m      1779.8000000 :
STEP .m     0.30000000 :
NULL .        -999.250000 :
COMP.           : COMPANY
WELL.  D_IPE   : WELL
FLD.            : FIELD
LOC.            : LOCATION
SRVC.           : SERVICE COMPANY
DATE.  Friday, March 30 2012 17:04:05   : DATE
PROV.           : PROVINCE
UWI.      : UNIQUE WELL ID
API.            : API NUMBER
#==================================================================
~Curve
DEPT .m                   : DEPTH
Permeability*** .mD       : Permeability ***
NTG*** .                  : NTG ***
PORDENS268*** .m3/m3      : POR DENS 268 ***
~Parameter
#==================================================================
~Ascii
# ...
 1731.2000000 0.1869059503 1.0000000000 0.0833000019
 1731.5000000 0.0010000000 0.0000000000 0.0773999989
 1731.8000000 0.0010000000 0.0000000000 0.0833000019
 1732.1000000 0.0010000000 0.0000000000 0.0714000016
 1732.4000000 0.0010000000 0.0000000000 0.0417000018
 1732.7000000 0.0010000000 0.0000000000 0.0714000016
 1733.0000000 0.4868448079 1.0000000000 0.0952000022
 1733.3000000 1.1867299080 1.0000000000 0.1071000025
 1733.6000000 0.7594204545 1.0000000000 0.1011999995
 1733.9000000 5.5618696213 1.0000000000 0.1190999970
 1734.2000000 9.0583400726 1.0000000000 0.1250000000
 1734.5000000 7.4991288185 1.0000000000 0.1250000000
 1734.8000000 10.007109642 1.0000000000 0.1309999973
 1735.1000000 3.8482775688 1.0000000000 0.1250000000
 1735.4000000 16.024927139 1.0000000000 0.1368999928
 1735.7000000 64.310508728 1.0000000000 0.1726000011
 1736.0000000 99.951873779 1.0000000000 0.1844999939
 1736.3000000 66.828987122 1.0000000000 0.1726000011
 1736.6000000 75.802696228 1.0000000000 0.1785999984
 1736.9000000 76.117744446 1.0000000000 0.1785999984
 1737.2000000 85.028938293 1.0000000000 0.1785999984
 1737.5000000 184.36639404 1.0000000000 0.2023999989
 1737.8000000 314.52413940 1.0000000000 0.2261999995
 1738.1000000 507.19976807 1.0000000000 0.2440000027
 1738.4000000 375.59759521 1.0000000000 0.2320999950
 1738.7000000 299.98727417 1.0000000000 0.2202000022
 1739.0000000 214.08578491 1.0000000000 0.2082999945
 1739.3000000 80.309295654 1.0000000000 0.1785999984
 1739.6000000 3.9566228390 1.0000000000 0.1250000000
 1739.9000000 0.6377538443 1.0000000000 0.1011999995
 1740.2000000 1.7102854252 1.0000000000 0.1130999997
 1740.5000000 9.1188993454 1.0000000000 0.1429000050
 1740.8000000 43.571525574 1.0000000000 0.1606999934
 1741.1000000 146.75761414 1.0000000000 0.1964000016
 1741.4000000 154.96119690 1.0000000000 0.1964000016
 1741.7000000 243.49534607 1.0000000000 0.2143000066
 1742.0000000 248.35742188 1.0000000000 0.2143000066
 1742.3000000 152.73869324 1.0000000000 0.1964000016
 1742.6000000 174.92622375 1.0000000000 0.2023999989
 1742.9000000 202.73764038 1.0000000000 0.2082999945
 1743.2000000 196.57011414 1.0000000000 0.2082999945
 1743.5000000 93.637390137 1.0000000000 0.1844999939
 1743.8000000 4.0815162659 1.0000000000 0.1250000000
 1744.1000000 4.0674958229 1.0000000000 0.1250000000
 1744.4000000 5.5728344917 1.0000000000 0.1309999973
 1744.7000000 1.5836713314 1.0000000000 0.1130999997
 1745.0000000 1.7731025219 1.0000000000 0.1130999997
 1745.3000000 38.947799683 1.0000000000 0.1606999934
 1745.6000000 132.62664795 1.0000000000 0.1905000061
 1745.9000000 166.17320251 1.0000000000 0.2023999989
 1746.2000000 117.35897064 1.0000000000 0.1905000061
 1746.5000000 46.043281555 1.0000000000 0.1606999934
 1746.8000000 127.29006195 1.0000000000 0.1905000061
 1747.1000000 103.73995972 1.0000000000 0.1844999939
 1747.4000000 59.762119293 1.0000000000 0.1726000011
 1747.7000000 121.66722870 1.0000000000 0.1905000061
 1748.0000000 246.32223511 1.0000000000 0.2143000066
 1748.3000000 230.13304138 1.0000000000 0.2143000066
 1748.6000000 230.90246582 1.0000000000 0.2143000066
 1748.9000000 2.0198733807 1.0000000000 0.1130999997
 1749.2000000 0.8064482212 1.0000000000 0.1011999995
 1749.5000000 0.7146782875 1.0000000000 0.1011999995
 1749.8000000 6.3794360161 1.0000000000 0.1368999928
 1750.1000000 153.56903076 1.0000000000 0.1964000016
 1750.4000000 151.91133118 1.0000000000 0.1964000016
 1750.7000000 80.970428467 1.0000000000 0.1785999984
 1751.0000000 22.216585159 1.0000000000 0.1429000050
 1751.3000000 3.5377094746 1.0000000000 0.1250000000
 1751.6000000 3.3423554897 1.0000000000 0.1250000000
 1751.9000000 4.5061984062 1.0000000000 0.1309999973
 1752.2000000 17.665367126 1.0000000000 0.1429000050
 1752.5000000 5.9075880051 1.0000000000 0.1309999973
 1752.8000000 80.309295654 1.0000000000 0.1785999984
 1753.1000000 189.56660461 1.0000000000 0.2023999989
 1753.4000000 140.96701050 1.0000000000 0.1964000016
 1753.7000000 87.824478149 1.0000000000 0.1785999984
 1754.0000000 34.811306000 1.0000000000 0.1547999978
 1754.3000000 1.9195069075 1.0000000000 0.1130999997
 1754.6000000 0.4699513316 1.0000000000 0.0952000022
 1754.9000000 0.0010000000 0.0000000000 0.0833000019
 1755.2000000 1.4648642540 1.0000000000 0.1130999997
 1755.5000000 2.2421765327 1.0000000000 0.1190999970
 1755.8000000 15.187162399 1.0000000000 0.1368999928
 1756.1000000 20.513895035 1.0000000000 0.1429000050
 1756.4000000 6.0227451324 1.0000000000 0.1309999973
 1756.7000000 15.015334129 1.0000000000 0.1368999928
 1757.0000000 40.823810577 1.0000000000 0.1606999934
 1757.3000000 54.143318176 1.0000000000 0.1667000055
 1757.6000000 150.54125977 1.0000000000 0.1964000016
 1757.9000000 132.13414001 1.0000000000 0.1905000061
 1758.2000000 94.760681152 1.0000000000 0.1844999939
 1758.5000000 68.551483154 1.0000000000 0.1726000011
 1758.8000000 48.297512054 1.0000000000 0.1667000055
 1759.1000000 29.312242508 1.0000000000 0.1488000005
 1759.4000000 4.1665754318 1.0000000000 0.1250000000
 1759.7000000 1.9119483232 1.0000000000 0.1130999997
 1760.0000000 0.7880880833 1.0000000000 0.1011999995
 1760.3000000 6.0421466827 1.0000000000 0.1309999973
 1760.6000000 95.137664795 1.0000000000 0.1844999939
 1760.9000000 171.56346130 1.0000000000 0.2023999989
 1761.2000000 310.59365845 1.0000000000 0.2202000022
 1761.5000000 280.09628296 1.0000000000 0.2202000022
 1761.8000000 164.70050049 1.0000000000 0.2023999989
 1762.1000000 24.003509521 1.0000000000 0.1606999934
 1762.4000000 26.296819687 1.0000000000 0.1488000005
 1762.7000000 3.8215677738 1.0000000000 0.1250000000
 1763.0000000 0.4353663325 1.0000000000 0.0952000022
 1763.3000000 0.0010000000 0.0000000000 0.0892999992
 1763.6000000 0.0010000000 0.0000000000 0.1071000025
 1763.9000000 0.4992136955 1.0000000000 0.0952000022
 1764.2000000 0.0010000000 0.0000000000 0.0833000019
 1764.5000000 0.1084301397 1.0000000000 0.0833000019
 1764.8000000 0.3439296186 1.0000000000 0.0892999992
 1765.1000000 1.0281695127 1.0000000000 0.1071000025
 1765.4000000 13.420722008 1.0000000000 0.1368999928
 1765.7000000 76.909774780 1.0000000000 0.1785999984
 1766.0000000 82.137733459 1.0000000000 0.1785999984
 1766.3000000 58.474555969 1.0000000000 0.1667000055
 1766.6000000 34.309856415 1.0000000000 0.1547999978
 1766.9000000 13.303973198 1.0000000000 0.1368999928
 1767.2000000 1.7034274340 1.0000000000 0.1130999997
 1767.5000000 0.5990229249 1.0000000000 0.1011999995
 1767.8000000 0.6196323037 1.0000000000 0.1011999995
 1768.1000000 1.1269019842 1.0000000000 0.1071000025
 1768.4000000 33.896171570 1.0000000000 0.1547999978
 1768.7000000 44.179328918 1.0000000000 0.1606999934
 1769.0000000 41.594127655 1.0000000000 0.1606999934
 1769.3000000 4.9335589409 1.0000000000 0.1309999973
 1769.6000000 0.0010000000 0.0000000000 0.0833000019
 1769.9000000 0.6019291878 1.0000000000 0.1011999995
 1770.2000000 26.229696274 1.0000000000 0.1488000005
 1770.5000000 2.5312898159 1.0000000000 0.1190999970
 1770.8000000 0.0010000000 0.0000000000 0.0892999992
 1771.1000000 1.3087080717 1.0000000000 0.1071000025
 1771.4000000 18.711975098 1.0000000000 0.1547999978
 1771.7000000 11.098337173 1.0000000000 0.1429000050
 1772.0000000 15.649773598 1.0000000000 0.1547999978
 1772.3000000 104.14540863 1.0000000000 0.1844999939
 1772.6000000 124.68732452 1.0000000000 0.1905000061
 1772.9000000 130.17880249 1.0000000000 0.1905000061
 1773.2000000 115.36140442 1.0000000000 0.1905000061
 1773.5000000 64.310508728 1.0000000000 0.1726000011
 1773.8000000 18.610839844 1.0000000000 0.1429000050
 1774.1000000 4.4304685593 1.0000000000 0.1309999973
 1774.4000000 8.9168825150 1.0000000000 0.1250000000
 1774.7000000 18.308040619 1.0000000000 0.1429000050
 1775.0000000 35.574726105 1.0000000000 0.1547999978
 1775.3000000 57.460952759 1.0000000000 0.1667000055
 1775.6000000 90.511741638 1.0000000000 0.1844999939
 1775.9000000 44.690902710 1.0000000000 0.1606999934
 1776.2000000 1.7944523096 1.0000000000 0.1130999997
