# LAS format log file from PETREL
# Project units are specified as depth units
#==================================================================
~Version information
VERS.   2.0:
WRAP.   NO:
#==================================================================
~Well
STRT .m      1605.0999800 :
STOP .m      1769.9999800 :
STEP .m     0.10000000 :
NULL .        -999.250000 :
COMP.           : COMPANY
WELL.  E_IPE   : WELL
FLD.            : FIELD
LOC.            : LOCATION
SRVC.           : SERVICE COMPANY
DATE.  Friday, March 30 2012 17:04:18   : DATE
PROV.           : PROVINCE
UWI.      : UNIQUE WELL ID
API.            : API NUMBER
#==================================================================
~Curve
DEPT .m                   : DEPTH
Permeability*** .mD       : Permeability ***
NTG*** .                  : NTG ***
PORDENS268*** .m3/m3      : POR DENS 268 ***
~Parameter
#==================================================================
~Ascii
# ...
 1695.6999800 70.606063843 1.0000000000 0.1726000011
 1695.7999800 95.895248413 1.0000000000 0.1844854802
 1695.8999800 116.46764374 1.0000000000 0.1905000061
 1695.9999800 114.26363373 1.0000000000 0.1905000061
 1696.0999800 90.330734253 1.0000000000 0.1785999984
 1696.1999800 63.488414764 1.0000000000 0.1726000011
 1696.2999800 46.572380066 1.0000000000 0.1607145071
 1696.3999800 37.766220093 1.0000000000 0.1547999978
 1696.4999800 34.309856415 1.0000000000 0.1547999978
 1696.5999800 36.004585266 1.0000000000 0.1547999978
 1696.6999800 35.149005890 1.0000000000 0.1547999978
 1696.7999800 33.486701965 1.0000000000 0.1547999978
 1696.8999800 31.888410568 1.0000000000 0.1547999978
 1696.9999800 38.672557831 1.0000000000 0.1606999934
 1697.0999800 45.519275665 1.0000000000 0.1606999934
 1697.1999800 54.504333496 1.0000000000 0.1667000055
 1697.2999800 60.808193207 1.0000000000 0.1725928038
 1697.3999800 67.685997009 1.0000000000 0.1726000011
 1697.4999800 72.103973389 1.0000000000 0.1726000011
 1697.5999800 85.028938293 1.0000000000 0.1785999984
 1697.6999800 118.70571136 1.0000000000 0.1905000061
 1697.7999800 186.95234680 1.0000000000 0.2023854852
 1697.8999800 292.92321777 1.0000000000 0.2202000022
 1697.9999800 442.60580444 1.0000000000 0.2381000072
 1698.0999800 605.45867920 1.0000000000 0.2500000000
 1698.1999800 684.59020996 1.0000000000 0.2560000122
 1698.2999800 572.74029541 1.0000000000 0.2500073314
 1698.3999800 307.18655396 1.0000000000 0.2202000022
 1698.4999800 103.73995972 1.0000000000 0.1844999939
 1698.5999800 24.156099319 1.0000000000 0.1488000005
 1698.6999800 5.6004033089 1.0000000000 0.1190999970
 1698.7999800 0.9620977044 1.0000000000 0.1071146354
 1698.8999800 1.1465663910 1.0000000000 0.1071000025
 1698.9999800 2.5598871708 1.0000000000 0.1190999970
 1699.0999800 12.807313919 1.0000000000 0.1309999973
 1699.1999800 20.624052048 1.0000000000 0.1429000050
 1699.2999800 25.436008453 1.0000000000 0.1487928033
 1699.3999800 26.096023560 1.0000000000 0.1488000005
 1699.4999800 24.789485931 1.0000000000 0.1488000005
 1699.5999800 24.156099319 1.0000000000 0.1488000005
 1699.6999800 22.333892822 1.0000000000 0.1429000050
 1699.7999800 20.077989578 1.0000000000 0.1429000050
 1699.8999800 20.624052048 1.0000000000 0.1429000050
 1699.9999800 24.789485931 1.0000000000 0.1488000005
 1700.0999800 28.159336090 1.0000000000 0.1488000005
 1700.1999800 26.769908905 1.0000000000 0.1488000005
 1700.2999800 20.624052048 1.0000000000 0.1429072022
 1700.3999800 13.577730179 1.0000000000 0.1368999928
 1700.4999800 3.4267289639 1.0000000000 0.1250000000
 1700.5999800 2.1163361073 1.0000000000 0.1130999997
 1700.6999800 2.1163361073 1.0000000000 0.1130999997
 1700.7999800 3.6773884296 1.0000000000 0.1249854863
 1700.8999800 8.0578956604 1.0000000000 0.1368999928
 1700.9999800 31.112424850 1.0000000000 0.1547999978
 1701.0999800 46.572380066 1.0000000000 0.1606999934
 1701.1999800 52.134899139 1.0000000000 0.1667000055
 1701.2999800 48.736858368 1.0000000000 0.1667000055
 1701.3999800 46.572380066 1.0000000000 0.1606999934
 1701.4999800 55.720958710 1.0000000000 0.1667000055
 1701.5999800 83.318542480 1.0000000000 0.1785999984
 1701.6999800 130.42222595 1.0000000000 0.1905000061
 1701.7999800 200.32102966 1.0000000000 0.2082782835
 1701.8999800 265.99389648 1.0000000000 0.2143000066
 1701.9999800 283.71362305 1.0000000000 0.2202000022
 1702.0999800 241.09271240 1.0000000000 0.2143000066
 1702.1999800 174.31083679 1.0000000000 0.2023999989
 1702.2999800 114.26363373 1.0000000000 0.1905145198
 1702.3999800 66.262512207 1.0000000000 0.1726000011
 1702.4999800 34.309856415 1.0000000000 0.1547999978
 1702.5999800 15.230314255 1.0000000000 0.1368999928
 1702.6999800 6.6369876862 1.0000000000 0.1190999970
 1702.7999800 3.1208240986 1.0000000000 0.1071146354
 1702.8999800 1.6123577356 1.0000000000 0.1011999995
 1702.9999800 0.8355444074 1.0000000000 0.0892999992
 1703.0999800 0.5503938198 1.0000000000 0.0833000019
 1703.1999800 0.4663128853 1.0000000000 0.0833000019
 1703.2999800 0.6810390949 1.0000000000 0.0892926827
 1703.3999800 1.0670790672 1.0000000000 0.0952000022
 1703.4999800 0.6980568171 1.0000000000 0.1011999995
 1703.5999800 1.0979368687 1.0000000000 0.1071000025
 1703.6999800 1.3032044172 1.0000000000 0.1071000025
 1703.7999800 1.3032044172 1.0000000000 0.1071000025
 1703.8999800 1.7379781008 1.0000000000 0.1130999997
 1703.9999800 3.4267289639 1.0000000000 0.1250000000
 1704.0999800 17.040966034 1.0000000000 0.1368999928
 1704.1999800 31.888410568 1.0000000000 0.1547999978
 1704.2999800 48.736858368 1.0000000000 0.1666854918
 1704.3999800 55.720958710 1.0000000000 0.1667000055
 1704.4999800 52.134899139 1.0000000000 0.1667000055
 1704.5999800 45.519275665 1.0000000000 0.1606999934
 1704.6999800 47.644733429 1.0000000000 0.1606999934
 1704.7999800 56.959327698 1.0000000000 0.1666926891
 1704.8999800 66.262512207 1.0000000000 0.1726000011
 1704.9999800 54.504333496 1.0000000000 0.1667000055
 1705.0999800 30.351881027 1.0000000000 0.1547999978
 1705.1999800 9.7627916336 1.0000000000 0.1250000000
 1705.2999800 1.9173910618 1.0000000000 0.1012290269
 1705.3999800 0.2413865477 1.0000000000 0.0773999989
 1705.4999800 0.0149512757 1.0000000000 0.0654999986
 1705.5999800 0.0123605030 1.0000000000 0.0654999986
 1705.6999800 0.0384599157 1.0000000000 0.0714000016
 1705.7999800 0.1127765849 1.0000000000 0.0832854882
 1705.8999800 0.2938524783 1.0000000000 0.0892999992
 1705.9999800 0.5221308470 1.0000000000 0.0952000022
 1706.0999800 0.7316235900 1.0000000000 0.1011999995
 1706.1999800 0.8403857946 1.0000000000 0.1011999995
 1706.2999800 1.0057438612 1.0000000000 0.1070928052
 1706.3999800 1.1465663910 1.0000000000 0.1071000025
 1706.4999800 1.4770164490 1.0000000000 0.1130999997
 1706.5999800 1.5390118361 1.0000000000 0.1130999997
 1706.6999800 1.8088083267 1.0000000000 0.1130999997
 1706.7999800 1.8088083267 1.0000000000 0.1130999997
 1706.8999800 2.0356945992 1.0000000000 0.1130999997
 1706.9999800 2.1995646954 1.0000000000 0.1190999970
 1707.0999800 2.9673650265 1.0000000000 0.1190999970
 1707.1999800 9.4640779495 1.0000000000 0.1250000000
 1707.2999800 13.976625443 1.0000000000 0.1368854791
 1707.3999800 19.020990372 1.0000000000 0.1429000050
 1707.4999800 24.156099319 1.0000000000 0.1488000005
 1707.5999800 26.769908905 1.0000000000 0.1488000005
 1707.6999800 28.875473022 1.0000000000 0.1488000005
 1707.7999800 30.351881027 1.0000000000 0.1547926813
 1707.8999800 35.149005890 1.0000000000 0.1547999978
 1707.9999800 36.004585266 1.0000000000 0.1547999978
 1708.0999800 42.474807739 1.0000000000 0.1606999934
 1708.1999800 48.736858368 1.0000000000 0.1667000055
 1708.2999800 59.502799988 1.0000000000 0.1667000055
 1708.3999800 62.136840820 1.0000000000 0.1726000011
 1708.4999800 69.133628845 1.0000000000 0.1726000011
 1708.5999800 72.103973389 1.0000000000 0.1726000011
 1708.6999800 76.750991821 1.0000000000 0.1785999984
 1708.7999800 81.635528564 1.0000000000 0.1785999984
 1708.8999800 86.767463684 1.0000000000 0.1785999984
 1708.9999800 86.767463684 1.0000000000 0.1785999984
 1709.0999800 75.175750732 1.0000000000 0.1785999984
 1709.1999800 60.808193207 1.0000000000 0.1726000011
 1709.2999800 46.572380066 1.0000000000 0.1607145071
 1709.3999800 49.849029541 1.0000000000 0.1667000055
 1709.4999800 67.685997009 1.0000000000 0.1726000011
 1709.5999800 114.26363373 1.0000000000 0.1905000061
 1709.6999800 174.31083679 1.0000000000 0.2023999989
 1709.7999800 233.22314453 1.0000000000 0.2142854929
 1709.8999800 237.13166809 1.0000000000 0.2143000066
 1709.9999800 203.78024292 1.0000000000 0.2082999945
 1710.0999800 165.28845215 1.0000000000 0.2023999989
 1710.1999800 156.64556885 1.0000000000 0.1964000016
 1710.2999800 168.25289917 1.0000000000 0.2023926824
 1710.3999800 203.78024292 1.0000000000 0.2082999945
 1710.4999800 229.36659241 1.0000000000 0.2143000066
 1710.5999800 233.22314453 1.0000000000 0.2143000066
 1710.6999800 186.95234680 1.0000000000 0.2023999989
