# LAS format log file from PETREL
# Project units are specified as depth units
#==================================================================
~Version information
VERS.   2.0:
WRAP.   NO:
#==================================================================
~Well
STRT .m      1605.0999800 :
STOP .m      1769.9999800 :
STEP .m     0.10000000 :
NULL .        -999.250000 :
COMP.           : COMPANY
WELL.  E_IPE   : WELL
FLD.            : FIELD
LOC.            : LOCATION
SRVC.           : SERVICE COMPANY
DATE.  Friday, March 30 2012 17:04:18   : DATE
PROV.           : PROVINCE
UWI.      : UNIQUE WELL ID
API.            : API NUMBER
#==================================================================
~Curve
DEPT .m                   : DEPTH
Permeability*** .mD       : Permeability ***
NTG*** .                  : NTG ***
PORDENS268*** .m3/m3      : POR DENS 268 ***
~Parameter
#==================================================================
~Ascii
# ...
 1756.0999800 132.87316895 1.0000000000 0.1905000061
 1756.1999800 109.95574188 1.0000000000 0.1844999939
 1756.2999800 75.175750732 1.0000000000 0.1786071956
 1756.3999800 40.537948608 1.0000000000 0.1606999934
 1756.4999800 18.009099960 1.0000000000 0.1429000050
 1756.5999800 6.2053036690 1.0000000000 0.1190999970
 1756.6999800 0.7665056586 1.0000000000 0.1011999995
 1756.7999800 0.1971637309 1.0000000000 0.0833218321
 1756.8999800 0.0010000000 0.0000000000 0.0773999989
 1756.9999800 0.0010000000 0.0000000000 0.0714000016
 1757.0999800 0.0010000000 0.0000000000 0.0714000016
 1757.1999800 0.1455580741 1.0000000000 0.0833000019
 1757.2999800 0.7665056586 1.0000000000 0.1011781693
 1757.3999800 3.3067421913 1.0000000000 0.1250000000
 1757.4999800 22.333892822 1.0000000000 0.1429000050
 1757.5999800 43.471000671 1.0000000000 0.1606999934
 1757.6999800 66.262512207 1.0000000000 0.1726000011
 1757.7999800 83.318542480 1.0000000000 0.1785926819
 1757.8999800 99.755828857 1.0000000000 0.1844999939
 1757.9999800 105.77946472 1.0000000000 0.1844999939
 1758.0999800 88.534896851 1.0000000000 0.1785999984
 1758.1999800 55.720958710 1.0000000000 0.1667000055
 1758.2999800 26.096023560 1.0000000000 0.1488218307
 1758.3999800 11.371980667 1.0000000000 0.1309999973
 1758.4999800 2.0356945992 1.0000000000 0.1130999997
 1758.5999800 1.3032044172 1.0000000000 0.1071000025
 1758.6999800 1.0057438612 1.0000000000 0.1071000025
 1758.7999800 2.7748520374 1.0000000000 0.1071000025
 1758.8999800 3.0018348694 1.0000000000 0.1071000025
 1758.9999800 3.6352322102 1.0000000000 0.1130999997
 1759.0999800 4.0640921593 1.0000000000 0.1130999997
 1759.1999800 4.3719115257 1.0000000000 0.1130999997
 1759.2999800 5.0439062119 1.0000000000 0.1130999997
 1759.3999800 7.5727791786 1.0000000000 0.1250000000
 1759.4999800 13.976625443 1.0000000000 0.1368999928
 1759.5999800 27.457553864 1.0000000000 0.1488000005
 1759.6999800 53.308887482 1.0000000000 0.1667000055
 1759.7999800 81.635528564 1.0000000000 0.1785854846
 1759.8999800 99.755828857 1.0000000000 0.1844999939
 1759.9999800 90.330734253 1.0000000000 0.1785999984
 1760.0999800 75.175750732 1.0000000000 0.1785999984
 1760.1999800 56.959327698 1.0000000000 0.1667000055
 1760.2999800 41.497287750 1.0000000000 0.1607073098
 1760.3999800 24.156099319 1.0000000000 0.1488000005
 1760.4999800 12.807313919 1.0000000000 0.1309999973
 1760.5999800 2.9673650265 1.0000000000 0.1190999970
 1760.6999800 2.3741021156 1.0000000000 0.1190999970
 1760.7999800 3.1902573109 1.0000000000 0.1249928027
 1760.8999800 13.188043594 1.0000000000 0.1309999973
 1760.9999800 23.535940170 1.0000000000 0.1488000005
 1761.0999800 33.486701965 1.0000000000 0.1547999978
 1761.1999800 34.309856415 1.0000000000 0.1547999978
 1761.2999800 27.457553864 1.0000000000 0.1488073170
 1761.3999800 18.509422302 1.0000000000 0.1429000050
 1761.4999800 11.371980667 1.0000000000 0.1309999973
 1761.5999800 7.5727791786 1.0000000000 0.1250000000
 1761.6999800 6.6369876862 1.0000000000 0.1190999970
 1761.7999800 7.8225946426 1.0000000000 0.1249928027
 1761.8999800 9.7627916336 1.0000000000 0.1250000000
 1761.9999800 11.718008995 1.0000000000 0.1309999973
 1762.0999800 12.807313919 1.0000000000 0.1309999973
 1762.1999800 10.704575539 1.0000000000 0.1309999973
 1762.2999800 8.6118869781 1.0000000000 0.1250073165
 1762.3999800 7.8225946426 1.0000000000 0.1250000000
 1762.4999800 10.068968773 1.0000000000 0.1309999973
 1762.5999800 13.577730179 1.0000000000 0.1368999928
 1762.6999800 18.009099960 1.0000000000 0.1429000050
 1762.7999800 20.624052048 1.0000000000 0.1429000050
 1762.8999800 20.624052048 1.0000000000 0.1429000050
 1762.9999800 18.509422302 1.0000000000 0.1429000050
 1763.0999800 16.572908401 1.0000000000 0.1368999928
 1763.1999800 16.115249634 1.0000000000 0.1368999928
 1763.2999800 16.115249634 1.0000000000 0.1368999928
 1763.3999800 16.115249634 1.0000000000 0.1368999928
 1763.4999800 13.976625443 1.0000000000 0.1368999928
 1763.5999800 11.718008995 1.0000000000 0.1309999973
 1763.6999800 3.9429564476 1.0000000000 0.1250000000
 1763.7999800 7.3294782639 1.0000000000 0.1250000000
 1763.8999800 7.5727791786 1.0000000000 0.1250000000
 1763.9999800 10.382822990 1.0000000000 0.1309999973
 1764.0999800 16.572908401 1.0000000000 0.1368999928
 1764.1999800 26.769908905 1.0000000000 0.1488000005
 1764.2999800 36.004585266 1.0000000000 0.1547926813
 1764.3999800 38.672557831 1.0000000000 0.1606999934
 1764.4999800 31.112424850 1.0000000000 0.1547999978
 1764.5999800 22.333892822 1.0000000000 0.1429000050
 1764.6999800 16.115249634 1.0000000000 0.1368999928
 1764.7999800 14.384991646 1.0000000000 0.1368999928
 1764.8999800 14.802800179 1.0000000000 0.1368999928
 1764.9999800 17.519712448 1.0000000000 0.1368999928
 1765.0999800 19.543743134 1.0000000000 0.1429000050
 1765.1999800 19.020990372 1.0000000000 0.1429000050
 1765.2999800 11.371980667 1.0000000000 0.1310145110
 1765.3999800 1.6694433689 1.0000000000 0.1130999997
 1765.4999800 0.3844020665 1.0000000000 0.0952000022
 1765.5999800 0.0010000000 0.0000000000 0.0773999989
 1765.6999800 0.0010000000 0.0000000000 0.0714000016
 1765.7999800 0.0010000000 0.0000000000 0.0714000016
 1765.8999800 0.0010000000 0.0000000000 0.0833000019
 1765.9999800 0.6980568171 1.0000000000 0.1011999995
 1766.0999800 2.0356945992 1.0000000000 0.1130999997
 1766.1999800 4.6764564514 1.0000000000 0.1309999973
 1766.2999800 11.162454605 1.0000000000 0.1428854913
 1766.3999800 49.849029541 1.0000000000 0.1667000055
 1766.4999800 99.755828857 1.0000000000 0.1844999939
 1766.5999800 183.72518921 1.0000000000 0.2023999989
 1766.6999800 283.71362305 1.0000000000 0.2202000022
 1766.7999800 353.36157227 1.0000000000 0.2261926830
 1766.8999800 292.92321777 1.0000000000 0.2202000022
 1766.9999800 118.70571136 1.0000000000 0.1905000061
 1767.0999800 8.8235797882 1.0000000000 0.1429000050
 1767.1999800 0.0010000000 0.0000000000 0.0833000019
 1767.2999800 0.0010000000 0.0000000000 0.0298652444
 1767.3999800 0.0000000005 1.0000000000  -999.250000
 1767.4999800 0.0000000005 1.0000000000  -999.250000
 1767.5999800 0.0000000005 1.0000000000  -999.250000
 1767.6999800 0.0000000005 1.0000000000  -999.250000
 1767.7999800 0.0000000005 1.0000000000  -999.250000
 1767.8999800 0.0000000005 1.0000000000  -999.250000
 1767.9999800 0.0000000005 1.0000000000  -999.250000
 1768.0999800 0.0000000005 1.0000000000  -999.250000
 1768.1999800 0.0000000005 1.0000000000  -999.250000
 1768.2999800 0.0000000005 1.0000000000  -999.250000
 1768.3999800 0.0000000005 1.0000000000  -999.250000
 1768.4999800 0.0000000005 1.0000000000  -999.250000
 1768.5999800 0.0000000005 1.0000000000  -999.250000
 1768.6999800 0.0000000005 1.0000000000  -999.250000
 1768.7999800 0.0000000005 1.0000000000  -999.250000
 1768.8999800 0.0000000005 1.0000000000  -999.250000
 1768.9999800 0.0000000005 1.0000000000  -999.250000
 1769.0999800 0.0000000005 1.0000000000  -999.250000
 1769.1999800 0.0000000005 1.0000000000  -999.250000
 1769.2999800 0.0000000005 1.0000000000  -999.250000
 1769.3999800 0.0000000005 1.0000000000  -999.250000
 1769.4999800 0.0000000005 1.0000000000  -999.250000
 1769.5999800 0.0000000005 1.0000000000  -999.250000
 1769.6999800 0.0000000005 1.0000000000  -999.250000
 1769.7999800 0.0000000005 1.0000000000  -999.250000
 1769.8999800 0.0000000005 1.0000000000  -999.250000
 1769.9999800 0.0010000000 1.0000000000  -999.250000
