# LAS format log file from PETREL
# Project units are specified as depth units
#==================================================================
~Version information
VERS.   2.0:
WRAP.   NO:
#==================================================================
~Well
STRT .m      1610.0000000 :
STOP .m      1780.0000000 :
STEP .m     0.05000000 :
NULL .        -999.250000 :
COMP.           : COMPANY
WELL.  B_IPE   : WELL
FLD.            : FIELD
LOC.            : LOCATION
SRVC.           : SERVICE COMPANY
DATE.  Friday, March 30 2012 17:03:38   : DATE
PROV.           : PROVINCE
UWI.      : UNIQUE WELL ID
API.            : API NUMBER
#==================================================================
~Curve
DEPT .m                   : DEPTH
Permeability*** .mD       : Permeability ***
NTG*** .                  : NTG ***
PORDENS268*** .m3/m3      : POR DENS 268 ***
~Parameter
#==================================================================
~Ascii
# ...
 1617.5500000 0.0010000000 0.0000000000 0.0892999992
 1617.6000000 0.0010000000 0.0000000000 0.0892999992
 1617.6500000 0.0010000000 0.0000000000 0.0892999992
 1617.7000000 0.0010000000 0.0000000000 0.0833000019
 1617.7500000 0.0010000000 0.0000000000 0.0833000019
 1617.8000000 0.0010000000 0.0000000000 0.0833000019
 1617.8500000 0.0010000000 0.0000000000 0.0773999989
 1617.9000000 0.0010000000 0.0000000000 0.0773999989
 1617.9500000 0.0010000000 0.0000000000 0.0773999989
 1618.0000000 0.0010000000 0.0000000000 0.0773999989
 1618.0500000 0.0010000000 0.0000000000 0.0714000016
 1618.1000000 0.0010000000 0.0000000000 0.0714000016
 1618.1500000 0.0010000000 0.0000000000 0.0714000016
 1618.2000000 0.0010000000 0.0000000000 0.0714000016
 1618.2500000 0.0010000000 0.0000000000 0.0714000016
 1618.3000000 0.0010000000 0.0000000000 0.0714000016
 1618.3500000 0.0010000000 0.0000000000 0.0714000016
 1618.4000000 0.0010000000 0.0000000000 0.0654999986
 1618.4500000 0.0010000000 0.0000000000 0.0654999986
 1618.5000000 0.0010000000 0.0000000000 0.0654999986
 1618.5500000 0.0010000000 0.0000000000 0.0654999986
 1618.6000000 0.0010000000 0.0000000000 0.0654999986
 1618.6500000 0.0010000000 0.0000000000 0.0595000014
 1618.7000000 0.0010000000 0.0000000000 0.0654999986
 1618.7500000 0.0010000000 0.0000000000 0.0654999986
 1618.8000000 0.0010000000 0.0000000000 0.0654999986
 1618.8500000 0.0010000000 0.0000000000 0.0654999986
 1618.9000000 0.0010000000 0.0000000000 0.0714000016
 1618.9500000 0.0010000000 0.0000000000 0.0714000016
 1619.0000000 0.0010000000 0.0000000000 0.0714000016
 1619.0500000 0.0010000000 0.0000000000 0.0773999989
 1619.1000000 0.0010000000 0.0000000000 0.0773999989
 1619.1500000 0.0010000000 0.0000000000 0.0773999989
 1619.2000000 0.0010000000 0.0000000000 0.0773999989
 1619.2500000 0.0010000000 0.0000000000 0.0773999989
 1619.3000000 0.0010000000 0.0000000000 0.0773999989
 1619.3500000 0.0010000000 0.0000000000 0.0773999989
 1619.4000000 0.0010000000 0.0000000000 0.0773999989
 1619.4500000 0.0010000000 0.0000000000 0.0833000019
 1619.5000000 0.0010000000 0.0000000000 0.0833000019
 1619.5500000 0.0010000000 0.0000000000 0.0833000019
 1619.6000000 0.0010000000 0.0000000000 0.0833000019
 1619.6500000 0.0010000000 0.0000000000 0.0892999992
 1619.7000000 0.0010000000 0.0000000000 0.0892999992
 1619.7500000 0.0010000000 0.0000000000 0.0892999992
 1619.8000000 0.0010000000 0.0000000000 0.0952000022
 1619.8500000 0.0010000000 0.0000000000 0.0952000022
 1619.9000000 0.0010000000 0.0000000000 0.0952000022
 1619.9500000 0.0010000000 0.0000000000 0.0952000022
 1620.0000000 0.0010000000 0.0000000000 0.1011999995
 1620.0500000 0.7073234916 1.0000000000 0.1011999995
 1620.1000000 0.8218408823 1.0000000000 0.1011999995
 1620.1500000 0.9498177171 1.0000000000 0.1071000025
 1620.2000000 0.9863429666 1.0000000000 0.1071000025
 1620.2500000 1.0232937336 1.0000000000 0.1071000025
 1620.3000000 1.0621176958 1.0000000000 0.1071000025
 1620.3500000 0.9682835937 1.0000000000 0.1130999997
 1620.4000000 0.8807341456 1.0000000000 0.1130999997
 1620.4500000 0.7997982502 1.0000000000 0.1130999997
 1620.5000000 0.6878437400 1.0000000000 0.1071000025
 1620.5500000 0.5886445642 1.0000000000 0.1071000025
 1620.6000000 0.0010000000 0.0000000000 0.1071000025
 1620.6500000 0.0010000000 0.0000000000 0.1071000025
 1620.7000000 0.0010000000 0.0000000000 0.1011999995
 1620.7500000 0.0010000000 0.0000000000 0.1011999995
 1620.8000000 0.0010000000 0.0000000000 0.1011999995
 1620.8500000 0.0010000000 0.0000000000 0.1011999995
 1620.9000000 0.0010000000 0.0000000000 0.1011999995
 1620.9500000 0.0010000000 0.0000000000 0.1011999995
 1621.0000000 0.0010000000 0.0000000000 0.1011999995
 1621.0500000 0.0010000000 0.0000000000 0.1011999995
 1621.1000000 0.0010000000 0.0000000000 0.1011999995
 1621.1500000 0.0010000000 0.0000000000 0.1011999995
 1621.2000000 0.0010000000 0.0000000000 0.1071000025
 1621.2500000 0.0010000000 0.0000000000 0.1071000025
 1621.3000000 1.2415224314 1.0000000000 0.1071000025
 1621.3500000 1.6062695980 1.0000000000 0.1130999997
 1621.4000000 2.0560956001 1.0000000000 0.1130999997
 1621.4500000 2.3029758930 1.0000000000 0.1130999997
 1621.5000000 2.5737140179 1.0000000000 0.1130999997
 1621.5500000 2.8700771332 1.0000000000 0.1190999970
 1621.6000000 2.8683941364 1.0000000000 0.1190999970
 1621.6500000 2.8700771332 1.0000000000 0.1190999970
 1621.7000000 2.8683941364 1.0000000000 0.1190999970
 1621.7500000 3.0266878605 1.0000000000 0.1190999970
 1621.8000000 3.1884188652 1.0000000000 0.1190999970
 1621.8500000 3.3610184193 1.0000000000 0.1190999970
 1621.9000000 4.2495713234 1.0000000000 0.1250000000
 1621.9500000 4.8955826759 1.0000000000 0.1250000000
 1622.0000000 5.6172785759 1.0000000000 0.1250000000
 1622.0500000 6.7168192863 1.0000000000 0.1309999973
 1622.1000000 7.9873871803 1.0000000000 0.1368999928
 1622.1500000 9.4446649551 1.0000000000 0.1368999928
 1622.2000000 10.680292130 1.0000000000 0.1368999928
 1622.2500000 12.040308952 1.0000000000 0.1429000050
 1622.3000000 13.539533615 1.0000000000 0.1429000050
 1622.3500000 14.347901344 1.0000000000 0.1429000050
 1622.4000000 15.195508003 1.0000000000 0.1488000005
 1622.4500000 16.083850861 1.0000000000 0.1488000005
 1622.5000000 16.689912796 1.0000000000 0.1488000005
 1622.5500000 17.329357147 1.0000000000 0.1488000005
 1622.6000000 17.981204987 1.0000000000 0.1488000005
 1622.6500000 18.481256485 1.0000000000 0.1488000005
 1622.7000000 19.000637054 1.0000000000 0.1488000005
 1622.7500000 19.523801804 1.0000000000 0.1547999978
 1622.8000000 19.523801804 1.0000000000 0.1547999978
 1622.8500000 19.523801804 1.0000000000 0.1547999978
 1622.9000000 19.523801804 1.0000000000 0.1547999978
 1622.9500000 19.345418930 1.0000000000 0.1547999978
 1623.0000000 19.168388367 1.0000000000 0.1547999978
 1623.0500000 19.000637054 1.0000000000 0.1488000005
 1623.1000000 20.614215851 1.0000000000 0.1547999978
 1623.1500000 22.338745117 1.0000000000 0.1547999978
 1623.2000000 24.180126190 1.0000000000 0.1547999978
 1623.2500000 30.726554871 1.0000000000 0.1606999934
 1623.3000000 38.664157867 1.0000000000 0.1667000055
 1623.3500000 48.214519501 1.0000000000 0.1726000011
 1623.4000000 115.05305481 1.0000000000 0.1844999939
 1623.4500000 150.12692261 1.0000000000 0.1905000061
 1623.5000000 193.38351440 1.0000000000 0.1964000016
 1623.5500000 236.31443787 1.0000000000 0.2023999989
 1623.6000000 286.67202759 1.0000000000 0.2143000066
 1623.6500000 345.32229614 1.0000000000 0.2202000022
 1623.7000000 378.11059570 1.0000000000 0.2202000022
 1623.7500000 413.16107178 1.0000000000 0.2261999995
 1623.8000000 450.98995972 1.0000000000 0.2261999995
 1623.8500000 464.99380493 1.0000000000 0.2320999950
 1623.9000000 475.58657837 1.0000000000 0.2320999950
 1623.9500000 437.53350830 1.0000000000 0.2320999950
 1624.0000000 427.42703247 1.0000000000 0.2320999950
 1624.0500000 417.50915527 1.0000000000 0.2320999950
 1624.1000000 407.87463379 1.0000000000 0.2320999950
 1624.1500000 398.32431030 1.0000000000 0.2320999950
 1624.2000000 405.44573975 1.0000000000 0.2320999950
 1624.2500000 412.76766968 1.0000000000 0.2320999950
 1624.3000000 420.09570313 1.0000000000 0.2320999950
 1624.3500000 411.00073242 1.0000000000 0.2320999950
 1624.4000000 402.06481934 1.0000000000 0.2320999950
 1624.4500000 393.38043213 1.0000000000 0.2320999950
 1624.5000000 351.67233276 1.0000000000 0.2261999995
 1624.5500000 313.67611694 1.0000000000 0.2261999995
 1624.6000000 278.98229980 1.0000000000 0.2202000022
 1624.6500000 231.21098328 1.0000000000 0.2202000022
 1624.7000000 190.19869995 1.0000000000 0.2143000066
 1624.7500000 155.25224304 1.0000000000 0.2082999945
 1624.8000000 129.56802368 1.0000000000 0.2023999989
 1624.8500000 109.80318451 1.0000000000 0.1964000016
 1624.9000000 92.539215088 1.0000000000 0.1905000061
 1624.9500000 83.876419067 1.0000000000 0.1905000061
 1625.0000000 82.386161804 1.0000000000 0.1905000061
 1625.0500000 82.037055969 1.0000000000 0.1844999939
