# LAS format log file from PETREL
# Project units are specified as depth units
#==================================================================
~Version information
VERS.   2.0:
WRAP.   NO:
#==================================================================
~Well
STRT .m      1610.0000000 :
STOP .m      1780.0000000 :
STEP .m     0.05000000 :
NULL .        -999.250000 :
COMP.           : COMPANY
WELL.  B_IPE   : WELL
FLD.            : FIELD
LOC.            : LOCATION
SRVC.           : SERVICE COMPANY
DATE.  Friday, March 30 2012 17:03:38   : DATE
PROV.           : PROVINCE
UWI.      : UNIQUE WELL ID
API.            : API NUMBER
#==================================================================
~Curve
DEPT .m                   : DEPTH
Permeability*** .mD       : Permeability ***
NTG*** .                  : NTG ***
PORDENS268*** .m3/m3      : POR DENS 268 ***
~Parameter
#==================================================================
~Ascii
# ...
 1640.2000000 7.9873871803 1.0000000000 0.1368999928
 1640.2500000 9.2491817474 1.0000000000 0.1368999928
 1640.3000000 10.680292130 1.0000000000 0.1368999928
 1640.3500000 13.806757927 1.0000000000 0.1429000050
 1640.4000000 17.649063110 1.0000000000 0.1488000005
 1640.4500000 22.338745117 1.0000000000 0.1547999978
 1640.5000000 55.917644501 1.0000000000 0.1606999934
 1640.5500000 71.597824097 1.0000000000 0.1667000055
 1640.6000000 90.635337830 1.0000000000 0.1726000011
 1640.6500000 112.78386688 1.0000000000 0.1785999984
 1640.7000000 139.09165955 1.0000000000 0.1905000061
 1640.7500000 170.12446594 1.0000000000 0.1964000016
 1640.8000000 184.21250916 1.0000000000 0.1964000016
 1640.8500000 199.27880859 1.0000000000 0.1964000016
 1640.9000000 215.26252747 1.0000000000 0.2023999989
 1640.9500000 189.88259888 1.0000000000 0.1964000016
 1641.0000000 167.01448059 1.0000000000 0.1905000061
 1641.0500000 146.37306213 1.0000000000 0.1905000061
 1641.1000000 97.117233276 1.0000000000 0.1785999984
 1641.1500000 62.190307617 1.0000000000 0.1667000055
 1641.2000000 19.523801804 1.0000000000 0.1547999978
 1641.2500000 8.7834205627 1.0000000000 0.1368999928
 1641.3000000 3.4579942226 1.0000000000 0.1190999970
 1641.3500000 1.1308153868 1.0000000000 0.1011999995
 1641.4000000 0.0010000000 0.0000000000 0.0952000022
 1641.4500000 0.0010000000 0.0000000000 0.0833000019
 1641.5000000 0.0010000000 0.0000000000 0.0773999989
 1641.5500000 0.0010000000 0.0000000000 0.0773999989
 1641.6000000 0.0010000000 0.0000000000 0.0833000019
 1641.6500000 0.0010000000 0.0000000000 0.0892999992
 1641.7000000 0.0010000000 0.0000000000 0.1011999995
 1641.7500000 1.9240447283 1.0000000000 0.1130999997
 1641.8000000 4.1006693840 1.0000000000 0.1250000000
 1641.8500000 7.1690654755 1.0000000000 0.1309999973
 1641.9000000 11.920446396 1.0000000000 0.1429000050
 1641.9500000 19.000637054 1.0000000000 0.1488000005
 1642.0000000 23.141313553 1.0000000000 0.1547999978
 1642.0500000 28.007366180 1.0000000000 0.1606999934
 1642.1000000 33.671791077 1.0000000000 0.1667000055
 1642.1500000 35.948993683 1.0000000000 0.1667000055
 1642.2000000 38.351249695 1.0000000000 0.1667000055
 1642.2500000 40.883892059 1.0000000000 0.1667000055
 1642.3000000 42.200824738 1.0000000000 0.1726000011
 1642.3500000 43.568157196 1.0000000000 0.1726000011
 1642.4000000 44.955539703 1.0000000000 0.1726000011
 1642.4500000 82.090721130 1.0000000000 0.1726000011
 1642.5000000 82.709510803 1.0000000000 0.1726000011
 1642.5500000 83.277732849 1.0000000000 0.1726000011
 1642.6000000 82.090721130 1.0000000000 0.1726000011
 1642.6500000 80.943824768 1.0000000000 0.1726000011
 1642.7000000 79.809860229 1.0000000000 0.1726000011
 1642.7500000 79.234649658 1.0000000000 0.1726000011
 1642.8000000 78.662780762 1.0000000000 0.1726000011
 1642.8500000 78.094238281 1.0000000000 0.1726000011
 1642.9000000 81.528984070 1.0000000000 0.1726000011
 1642.9500000 85.084175110 1.0000000000 0.1726000011
 1643.0000000 88.734489441 1.0000000000 0.1726000011
 1643.0500000 97.455474854 1.0000000000 0.1785999984
 1643.1000000 106.88614655 1.0000000000 0.1785999984
 1643.1500000 117.00167847 1.0000000000 0.1844999939
 1643.2000000 127.87334442 1.0000000000 0.1844999939
 1643.2500000 160.88566589 1.0000000000 0.1905000061
 1643.3000000 200.43106079 1.0000000000 0.1964000016
 1643.3500000 247.50929260 1.0000000000 0.2082999945
 1643.4000000 321.88232422 1.0000000000 0.2143000066
 1643.4500000 413.16107178 1.0000000000 0.2261999995
 1643.5000000 524.43157959 1.0000000000 0.2320999950
 1643.5500000 649.09063721 1.0000000000 0.2440000027
 1643.6000000 796.71435547 1.0000000000 0.2500000000
 1643.6500000 970.02093506 1.0000000000 0.2619000077
 1643.7000000 1090.8039551 1.0000000000 0.2678999901
 1643.7500000 1223.1635742 1.0000000000 0.2737999856
 1643.8000000 1368.1453857 1.0000000000 0.2737999856
 1643.8500000 1368.1453857 1.0000000000 0.2737999856
 1643.9000000 1368.1453857 1.0000000000 0.2737999856
 1643.9500000 1368.1453857 1.0000000000 0.2737999856
 1644.0000000 1285.9078369 1.0000000000 0.2737999856
 1644.0500000 1207.9274902 1.0000000000 0.2678999901
 1644.1000000 1133.5748291 1.0000000000 0.2678999901
 1644.1500000 1067.5861816 1.0000000000 0.2678999901
 1644.2000000 1004.7231445 1.0000000000 0.2619000077
 1644.2500000 944.87237549 1.0000000000 0.2619000077
 1644.3000000 940.66876221 1.0000000000 0.2619000077
 1644.3500000 936.48016357 1.0000000000 0.2619000077
 1644.4000000 932.30664063 1.0000000000 0.2560000122
 1644.4500000 957.38018799 1.0000000000 0.2619000077
 1644.5000000 982.99334717 1.0000000000 0.2619000077
 1644.5500000 1009.1553955 1.0000000000 0.2619000077
 1644.6000000 991.71893311 1.0000000000 0.2619000077
 1644.6500000 974.32965088 1.0000000000 0.2619000077
 1644.7000000 957.38018799 1.0000000000 0.2619000077
 1644.7500000 852.63140869 1.0000000000 0.2560000122
 1644.8000000 757.46514893 1.0000000000 0.2500000000
 1644.8500000 671.03533936 1.0000000000 0.2440000027
 1644.9000000 509.00064087 1.0000000000 0.2320999950
 1644.9500000 351.32675171 1.0000000000 0.2202000022
 1645.0000000 232.13783264 1.0000000000 0.2082999945
 1645.0500000 74.572837830 1.0000000000 0.1964000016
 1645.1000000 36.070121765 1.0000000000 0.1785999984
 1645.1500000 15.658239365 1.0000000000 0.1606999934
 1645.2000000 6.5194511414 1.0000000000 0.1488000005
 1645.2500000 2.3057870865 1.0000000000 0.1309999973
 1645.3000000 0.0010000000 0.0000000000 0.1130999997
 1645.3500000 0.0010000000 0.0000000000 0.1071000025
 1645.4000000 0.0010000000 0.0000000000 0.1011999995
 1645.4500000 0.0010000000 0.0000000000 0.0952000022
 1645.5000000 0.0010000000 0.0000000000 0.0952000022
 1645.5500000 0.0010000000 0.0000000000 0.0952000022
 1645.6000000 0.0010000000 0.0000000000 0.0952000022
 1645.6500000 0.0010000000 0.0000000000 0.1011999995
 1645.7000000 0.0010000000 0.0000000000 0.1071000025
 1645.7500000 0.0010000000 0.0000000000 0.1071000025
 1645.8000000 0.0010000000 0.0000000000 0.1130999997
 1645.8500000 2.4514789581 1.0000000000 0.1130999997
 1645.9000000 2.8700771332 1.0000000000 0.1190999970
 1645.9500000 3.5013866425 1.0000000000 0.1190999970
 1646.0000000 4.1505775452 1.0000000000 0.1250000000
 1646.0500000 4.8955826759 1.0000000000 0.1250000000
 1646.1000000 7.5710082054 1.0000000000 0.1309999973
 1646.1500000 11.340954781 1.0000000000 0.1429000050
 1646.2000000 16.540216446 1.0000000000 0.1488000005
 1646.2500000 27.004234314 1.0000000000 0.1606999934
 1646.3000000 42.385169983 1.0000000000 0.1726000011
 1646.3500000 112.95716095 1.0000000000 0.1785999984
 1646.4000000 160.88566589 1.0000000000 0.1905000061
 1646.4500000 263.55184937 1.0000000000 0.2082999945
 1646.5000000 413.16107178 1.0000000000 0.2261999995
 1646.5500000 624.83898926 1.0000000000 0.2440000027
 1646.6000000 829.96691895 1.0000000000 0.2560000122
 1646.6500000 1086.0853271 1.0000000000 0.2678999901
 1646.7000000 1402.2539063 1.0000000000 0.2797999978
 1646.7500000 1570.2100830 1.0000000000 0.2856999934
 1646.8000000 1753.9821777 1.0000000000 0.2917000055
 1646.8500000 1954.6699219 1.0000000000 0.2917000055
 1646.9000000 1992.3990479 1.0000000000 0.2976000011
 1646.9500000 2030.7117920 1.0000000000 0.2976000011
 1647.0000000 2069.6159668 1.0000000000 0.2976000011
 1647.0500000 2022.9315186 1.0000000000 0.2976000011
 1647.1000000 1930.7436523 1.0000000000 0.2976000011
 1647.1500000 1730.8087158 1.0000000000 0.2917000055
 1647.2000000 1596.8880615 1.0000000000 0.2917000055
 1647.2500000 1470.8837891 1.0000000000 0.2917000055
 1647.3000000 1353.2590332 1.0000000000 0.2917000055
 1647.3500000 1353.2590332 1.0000000000 0.2917000055
 1647.4000000 1353.7700195 1.0000000000 0.2917000055
 1647.4500000 1353.7700195 1.0000000000 0.2856999934
 1647.5000000 1461.8883057 1.0000000000 0.2917000055
 1647.5500000 1575.9788818 1.0000000000 0.2917000055
 1647.6000000 1698.0455322 1.0000000000 0.2917000055
 1647.6500000 1900.3292236 1.0000000000 0.2917000055
 1647.7000000 2007.4428711 1.0000000000 0.2976000011
