# LAS format log file from PETREL
# Project units are specified as depth units
#==================================================================
~Version information
VERS.   2.0:
WRAP.   NO:
#==================================================================
~Well
STRT .m      1580.0000000 :
STOP .m      1760.0000000 :
STEP .m     0.05000000 :
NULL .        -999.250000 :
COMP.           : COMPANY
WELL.  A_IPE   : WELL
FLD.            : FIELD
LOC.            : LOCATION
SRVC.           : SERVICE COMPANY
DATE.  Friday, March 30 2012 17:03:22   : DATE
PROV.           : PROVINCE
UWI.      : UNIQUE WELL ID
API.            : API NUMBER
#==================================================================
~Curve
DEPT .m                   : DEPTH
Permeability*** .mD       : Permeability ***
NTG*** .                  : NTG ***
PORDENS268*** .m3/m3      : POR DENS 268 ***
~Parameter
#==================================================================
~Ascii
# ...
 1640.4000000 2060.6401367 1.0000000000 0.2856999934
 1640.4500000 1938.5792236 1.0000000000 0.2856999934
 1640.5000000 1738.2969971 1.0000000000 0.2797999978
 1640.5500000 1571.9395752 1.0000000000 0.2737999856
 1640.6000000 1428.7490234 1.0000000000 0.2678999901
 1640.6500000 1254.1000977 1.0000000000 0.2619000077
 1640.7000000 1097.4809570 1.0000000000 0.2560000122
 1640.7500000 956.60675049 1.0000000000 0.2500000000
 1640.8000000 819.67126465 1.0000000000 0.2440000027
 1640.8500000 699.11376953 1.0000000000 0.2381000072
 1640.9000000 593.11633301 1.0000000000 0.2320999950
 1640.9500000 505.51889038 1.0000000000 0.2261999995
 1641.0000000 428.54061890 1.0000000000 0.2143000066
 1641.0500000 361.28497314 1.0000000000 0.2082999945
 1641.1000000 291.47109985 1.0000000000 0.2023999989
 1641.1500000 232.94352722 1.0000000000 0.1964000016
 1641.2000000 184.26388550 1.0000000000 0.1844999939
 1641.2500000 78.371620178 1.0000000000 0.1785999984
 1641.3000000 54.611324310 1.0000000000 0.1667000055
 1641.3500000 37.120349884 1.0000000000 0.1547999978
 1641.4000000 28.326347351 1.0000000000 0.1488000005
 1641.4500000 21.321868896 1.0000000000 0.1429000050
 1641.5000000 16.195209503 1.0000000000 0.1368999928
 1641.5500000 18.295310974 1.0000000000 0.1368999928
 1641.6000000 20.605707169 1.0000000000 0.1429000050
 1641.6500000 23.160036087 1.0000000000 0.1429000050
 1641.7000000 32.789787292 1.0000000000 0.1488000005
 1641.7500000 45.474861145 1.0000000000 0.1606999934
 1641.8000000 61.962581635 1.0000000000 0.1667000055
 1641.8500000 83.074401855 1.0000000000 0.1726000011
 1641.9000000 109.73585510 1.0000000000 0.1785999984
 1641.9500000 143.10165405 1.0000000000 0.1905000061
 1642.0000000 155.39486694 1.0000000000 0.1905000061
 1642.0500000 168.54299927 1.0000000000 0.1964000016
 1642.1000000 292.14056396 1.0000000000 0.1964000016
 1642.1500000 160.38354492 1.0000000000 0.1905000061
 1642.2000000 140.44480896 1.0000000000 0.1844999939
 1642.2500000 122.58999634 1.0000000000 0.1785999984
 1642.3000000 89.988578796 1.0000000000 0.1726000011
 1642.3500000 64.898818970 1.0000000000 0.1606999934
 1642.4000000 45.851200104 1.0000000000 0.1547999978
 1642.4500000 34.223194122 1.0000000000 0.1488000005
 1642.5000000 25.136501312 1.0000000000 0.1368999928
 1642.5500000 18.133869171 1.0000000000 0.1309999973
 1642.6000000 19.507532120 1.0000000000 0.1368999928
 1642.6500000 20.965595245 1.0000000000 0.1368999928
 1642.7000000 22.512039185 1.0000000000 0.1429000050
 1642.7500000 35.774585724 1.0000000000 0.1547999978
 1642.8000000 54.896259308 1.0000000000 0.1667000055
 1642.8500000 81.692611694 1.0000000000 0.1785999984
 1642.9000000 135.37255859 1.0000000000 0.1905000061
 1642.9500000 339.14865112 1.0000000000 0.2082999945
 1643.0000000 500.79132080 1.0000000000 0.2202000022
 1643.0500000 611.36968994 1.0000000000 0.2320999950
 1643.1000000 740.79016113 1.0000000000 0.2381000072
 1643.1500000 891.38806152 1.0000000000 0.2440000027
 1643.2000000 1065.6870117 1.0000000000 0.2560000122
 1643.2500000 1112.2421875 1.0000000000 0.2560000122
 1643.3000000 1160.1933594 1.0000000000 0.2619000077
 1643.3500000 1209.7941895 1.0000000000 0.2619000077
 1643.4000000 1095.9702148 1.0000000000 0.2560000122
 1643.4500000 990.72467041 1.0000000000 0.2500000000
 1643.5000000 893.94805908 1.0000000000 0.2440000027
 1643.5500000 802.06890869 1.0000000000 0.2440000027
 1643.6000000 718.09613037 1.0000000000 0.2381000072
 1643.6500000 641.20434570 1.0000000000 0.2320999950
 1643.7000000 634.92321777 1.0000000000 0.2320999950
 1643.7500000 628.55371094 1.0000000000 0.2320999950
 1643.8000000 622.37255859 1.0000000000 0.2320999950
 1643.8500000 655.05639648 1.0000000000 0.2320999950
 1643.9000000 689.10662842 1.0000000000 0.2320999950
 1643.9500000 724.56652832 1.0000000000 0.2381000072
 1644.0000000 737.02056885 1.0000000000 0.2381000072
 1644.0500000 749.32855225 1.0000000000 0.2381000072
 1644.1000000 762.12329102 1.0000000000 0.2381000072
 1644.1500000 727.97436523 1.0000000000 0.2381000072
 1644.2000000 695.21667480 1.0000000000 0.2320999950
 1644.2500000 663.51116943 1.0000000000 0.2320999950
 1644.3000000 611.90924072 1.0000000000 0.2320999950
 1644.3500000 563.58557129 1.0000000000 0.2261999995
 1644.4000000 518.37994385 1.0000000000 0.2261999995
 1644.4500000 470.10244751 1.0000000000 0.2202000022
 1644.5000000 425.50900269 1.0000000000 0.2143000066
 1644.5500000 384.66174316 1.0000000000 0.2143000066
 1644.6000000 350.46383667 1.0000000000 0.2082999945
 1644.6500000 318.99475098 1.0000000000 0.2023999989
 1644.7000000 289.91363525 1.0000000000 0.2023999989
 1644.7500000 287.70025635 1.0000000000 0.1964000016
 1644.8000000 285.42739868 1.0000000000 0.1964000016
 1644.8500000 283.16912842 1.0000000000 0.1964000016
 1644.9000000 315.01885986 1.0000000000 0.1964000016
 1644.9500000 349.68869019 1.0000000000 0.2023999989
 1645.0000000 387.45697021 1.0000000000 0.2082999945
 1645.0500000 424.10025024 1.0000000000 0.2082999945
 1645.1000000 463.48062134 1.0000000000 0.2143000066
 1645.1500000 505.63464355 1.0000000000 0.2143000066
 1645.2000000 485.69985962 1.0000000000 0.2143000066
 1645.2500000 466.40231323 1.0000000000 0.2143000066
 1645.3000000 447.72619629 1.0000000000 0.2143000066
 1645.3500000 379.30343628 1.0000000000 0.2082999945
 1645.4000000 319.55465698 1.0000000000 0.1964000016
 1645.4500000 267.62091064 1.0000000000 0.1905000061
 1645.5000000 222.58311462 1.0000000000 0.1844999939
 1645.5500000 183.90443420 1.0000000000 0.1844999939
 1645.6000000 88.315704346 1.0000000000 0.1785999984
 1645.6500000 79.732963562 1.0000000000 0.1726000011
 1645.7000000 71.824211121 1.0000000000 0.1726000011
 1645.7500000 67.046142578 1.0000000000 0.1726000011
 1645.8000000 71.516136169 1.0000000000 0.1726000011
 1645.8500000 131.82945251 1.0000000000 0.1785999984
 1645.9000000 139.62538147 1.0000000000 0.1785999984
 1645.9500000 161.20848083 1.0000000000 0.1844999939
 1646.0000000 185.34580994 1.0000000000 0.1844999939
 1646.0500000 212.36608887 1.0000000000 0.1905000061
 1646.1000000 278.91058350 1.0000000000 0.2023999989
 1646.1500000 361.28497314 1.0000000000 0.2082999945
 1646.2000000 462.18685913 1.0000000000 0.2202000022
 1646.2500000 582.66168213 1.0000000000 0.2320999950
 1646.3000000 727.04382324 1.0000000000 0.2381000072
 1646.3500000 898.90216064 1.0000000000 0.2500000000
 1646.4000000 1102.0223389 1.0000000000 0.2560000122
 1646.4500000 1344.5926514 1.0000000000 0.2678999901
 1646.5000000 1628.6678467 1.0000000000 0.2737999856
 1646.5500000 1958.7946777 1.0000000000 0.2856999934
 1646.6000000 2056.7009277 1.0000000000 0.2917000055
 1646.6500000 2158.8767090 1.0000000000 0.2917000055
 1646.7000000 2264.7102051 1.0000000000 0.2917000055
 1646.7500000 2142.9260254 1.0000000000 0.2917000055
 1646.8000000 2026.1115723 1.0000000000 0.2856999934
 1646.8500000 1914.8127441 1.0000000000 0.2856999934
 1646.9000000 1787.6090088 1.0000000000 0.2797999978
 1646.9500000 1667.2932129 1.0000000000 0.2797999978
 1647.0000000 1553.2916260 1.0000000000 0.2737999856
 1647.0500000 1516.8107910 1.0000000000 0.2737999856
 1647.1000000 1481.0222168 1.0000000000 0.2737999856
 1647.1500000 1445.9161377 1.0000000000 0.2678999901
 1647.2000000 1463.5203857 1.0000000000 0.2737999856
 1647.2500000 1481.0222168 1.0000000000 0.2737999856
 1647.3000000 1510.1003418 1.0000000000 0.2737999856
 1647.3500000 1443.2224121 1.0000000000 0.2678999901
 1647.4000000 1379.0075684 1.0000000000 0.2678999901
 1647.4500000 1316.8608398 1.0000000000 0.2619000077
 1647.5000000 1069.4881592 1.0000000000 0.2560000122
 1647.5500000 860.76928711 1.0000000000 0.2440000027
 1647.6000000 686.43804932 1.0000000000 0.2320999950
 1647.6500000 503.09298706 1.0000000000 0.2202000022
 1647.7000000 361.37329102 1.0000000000 0.2023999989
 1647.7500000 156.38226318 1.0000000000 0.1905000061
 1647.8000000 126.13093567 1.0000000000 0.1844999939
 1647.8500000 100.86412048 1.0000000000 0.1785999984
 1647.9000000 79.914230347 1.0000000000 0.1667000055
