# LAS format log file from PETREL
# Project units are specified as depth units
#==================================================================
~Version information
VERS.   2.0:
WRAP.   NO:
#==================================================================
~Well
STRT .m      1555.0999800 :
STOP .m      1749.8999800 :
STEP .m     0.10000000 :
NULL .        -999.250000 :
COMP.           : COMPANY
WELL.  F_IPE   : WELL
FLD.            : FIELD
LOC.            : LOCATION
SRVC.           : SERVICE COMPANY
DATE.  Friday, March 30 2012 17:04:30   : DATE
PROV.           : PROVINCE
UWI.      : UNIQUE WELL ID
API.            : API NUMBER
#==================================================================
~Curve
DEPT .m                   : DEPTH
Permeability*** .mD       : Permeability ***
NTG*** .                  : NTG ***
PORDENS268*** .m3/m3      : POR DENS 268 ***
~Parameter
#==================================================================
~Ascii
# ...
 1736.2999800 0.0000000541 1.0000000000  -999.250000
 1736.3999800 0.0001555012 1.0000000000  -999.250000
 1736.4999800 0.0018983590 1.0000000000  -999.250000
 1736.5999800 0.0101085072 1.0000000000  -999.250000
 1736.6999800 0.0079243509 1.0000000000  -999.250000
 1736.7999800 0.0089628976 1.0000000000  -999.250000
 1736.8999800 0.0101085072 1.0000000000  -999.250000
 1736.9999800 0.0101085072 1.0000000000  -999.250000
 1737.0999800 0.0101085072 1.0000000000  -999.250000
 1737.1999800 0.0061369380 1.0000000000  -999.250000
 1737.2999800 0.0013500146 1.0000000000  -999.250000
 1737.3999800 0.0001555012 1.0000000000  -999.250000
 1737.4999800 0.0000034132 1.0000000000  -999.250000
 1737.5999800 0.0000058487 1.0000000000  -999.250000
 1737.6999800 0.0000095192 1.0000000000  -999.250000
 1737.7999800 0.0000095192 1.0000000000  -999.250000
 1737.8999800 0.0000058487 1.0000000000  -999.250000
 1737.9999800 0.0000034132 1.0000000000  -999.250000
 1738.0999800 0.0000464552 1.0000000000  -999.250000
 1738.1999800 0.0001356885 1.0000000000  -999.250000
 1738.2999800 0.0003289639 1.0000000000  -999.250000
 1738.3999800 0.0016054662 1.0000000000  -999.250000
 1738.4999800 0.0016054662 1.0000000000  -999.250000
 1738.5999800 0.0016054662 1.0000000000  -999.250000
 1738.6999800 0.0022327749 1.0000000000  -999.250000
 1738.7999800 0.0011283734 1.0000000000  -999.250000
 1738.8999800 0.0005132084 1.0000000000  -999.250000
 1738.9999800 0.0000018696 1.0000000000  -999.250000
 1739.0999800 0.0005132084 1.0000000000  -999.250000
 1739.1999800 0.0069848690 1.0000000000  -999.250000
 1739.2999800 0.0069848690 1.0000000000  -999.250000
 1739.3999800 0.0127523765 1.0000000000  -999.250000
 1739.4999800 0.0218505319 1.0000000000  -999.250000
 1739.5999800 0.0229904167 1.0000000000  -999.250000
 1739.6999800 0.0241776500 1.0000000000  -999.250000
 1739.7999800 0.0079243509 1.0000000000  -999.250000
 1739.8999800 0.0030438127 1.0000000000  -999.250000
 1739.9999800 0.0030438127 1.0000000000  -999.250000
 1740.0999800 0.0030438127 1.0000000000  -999.250000
 1740.1999800 0.0037952377 1.0000000000  -999.250000
 1740.2999800 0.0046893046 1.0000000000  -999.250000
 1740.3999800 0.0018983590 1.0000000000  -999.250000
 1740.4999800 0.0010000000 0.0000000000  -999.250000
 1740.5999800 0.0010000000 0.0000000000  -999.250000
 1740.6999800 0.0159264226 1.0000000000  -999.250000
 1740.7999800 0.0267000906 1.0000000000  -999.250000
 1740.8999800 0.0426874235 1.0000000000  -999.250000
 1740.9999800 0.5503938198 1.0000000000  -999.250000
 1741.0999800 0.5211170316 1.0000000000  -999.250000
 1741.1999800 0.4930995703 1.0000000000  -999.250000
 1741.2999800 0.0355642661 1.0000000000  -999.250000
 1741.3999800 0.0487475507 1.0000000000  -999.250000
 1741.4999800 0.0656042770 1.0000000000  -999.250000
 1741.5999800 0.0554823503 1.0000000000  -999.250000
 1741.6999800 0.1219882146 1.0000000000  -999.250000
 1741.7999800 0.2413865477 1.0000000000  -999.250000
 1741.8999800 1.2872430086 1.0000000000  -999.250000
 1741.9999800 1.6846632957 1.0000000000  -999.250000
 1742.0999800 2.1753070354 1.0000000000  -999.250000
 1742.1999800 1.2872430086 1.0000000000  -999.250000
 1742.2999800 1.0170820951 1.0000000000  -999.250000
 1742.3999800 0.7945152521 1.0000000000  -999.250000
 1742.4999800 0.6462605596 1.0000000000  -999.250000
 1742.5999800 0.5503938198 1.0000000000  -999.250000
 1742.6999800 0.4663128853 1.0000000000  -999.250000
 1742.7999800 0.0177356228 1.0000000000  -999.250000
 1742.8999800 0.0040764455 1.0000000000  -999.250000
 1742.9999800 0.0005132084 1.0000000000  -999.250000
 1743.0999800 0.0011283734 1.0000000000  -999.250000
 1743.1999800 0.0022327749 1.0000000000  -999.250000
 1743.2999800 0.0069848690 1.0000000000  -999.250000
 1743.3999800 0.0009369893 1.0000000000  -999.250000
 1743.4999800 0.0000326516 1.0000000000  -999.250000
 1743.5999800 0.0010000000 0.0000000000  -999.250000
 1743.6999800 0.0010000000 0.0000000000  -999.250000
 1743.7999800 0.0010000000 0.0000000000  -999.250000
 1743.8999800 0.0010000000 0.0000000000  -999.250000
 1743.9999800 0.0010000000 0.0000000000  -999.250000
 1744.0999800 0.0000018696 1.0000000000  -999.250000
 1744.1999800 0.0040764455 1.0000000000  -999.250000
 1744.2999800 0.0005132084 1.0000000000  -999.250000
 1744.3999800 0.0000148499 1.0000000000  -999.250000
 1744.4999800 0.0010000000 0.0000000000  -999.250000
 1744.5999800 0.0010000000 0.0000000000  -999.250000
 1744.6999800 0.0010000000 0.0000000000  -999.250000
 1744.7999800 0.0010000000 0.0000000000  -999.250000
 1744.8999800 0.0010000000 0.0000000000  -999.250000
 1744.9999800 0.0010000000 0.0000000000  -999.250000
 1745.0999800 0.0010000000 0.0000000000  -999.250000
 1745.1999800 0.0010000000 0.0000000000  -999.250000
 1745.2999800 0.0010000000 0.0000000000  -999.250000
 1745.3999800 0.0010000000 0.0000000000  -999.250000
 1745.4999800 0.0010000000 0.0000000000  -999.250000
 1745.5999800 0.0010000000 0.0000000000  -999.250000
 1745.6999800 0.0010000000 0.0000000000  -999.250000
 1745.7999800 0.0010000000 0.0000000000  -999.250000
 1745.8999800 0.0010000000 0.0000000000  -999.250000
 1745.9999800 0.0010000000 0.0000000000  -999.250000
 1746.0999800 0.0010000000 0.0000000000  -999.250000
 1746.1999800 0.0010000000 0.0000000000  -999.250000
 1746.2999800 0.0010000000 0.0000000000  -999.250000
 1746.3999800 0.0010000000 0.0000000000  -999.250000
 1746.4999800 0.0010000000 0.0000000000  -999.250000
 1746.5999800 0.0010000000 0.0000000000  -999.250000
 1746.6999800 0.0000000124 1.0000000000  -999.250000
 1746.7999800 0.0007725910 1.0000000000  -999.250000
 1746.8999800 0.0011283734 1.0000000000  -999.250000
 1746.9999800 0.0016054662 1.0000000000  -999.250000
 1747.0999800 0.0007725910 1.0000000000  -999.250000
 1747.1999800 0.0022327749 1.0000000000  -999.250000
 1747.2999800 0.0053740144 1.0000000000  -999.250000
 1747.3999800 0.0069848690 1.0000000000  -999.250000
 1747.4999800 0.0069848690 1.0000000000  -999.250000
 1747.5999800 0.0069848690 1.0000000000  -999.250000
 1747.6999800 0.0069848690 1.0000000000  -999.250000
 1747.7999800 0.0016054662 1.0000000000  -999.250000
 1747.8999800 0.0002021188 1.0000000000  -999.250000
 1747.9999800 0.0000018696 1.0000000000  -999.250000
 1748.0999800 0.0000001692 1.0000000000  -999.250000
 1748.1999800 0.0000000016 1.0000000000  -999.250000
 1748.2999800 0.0000646069 1.0000000000  -999.250000
 1748.3999800 0.0001555012 1.0000000000  -999.250000
 1748.4999800 0.0003289639 1.0000000000  -999.250000
 1748.5999800 0.0002021188 1.0000000000  -999.250000
 1748.6999800 0.0005702410 1.0000000000  -999.250000
 1748.7999800 0.0013500146 1.0000000000  -999.250000
 1748.8999800 0.0046893046 1.0000000000  -999.250000
 1748.9999800 0.0040764455 1.0000000000  -999.250000
 1749.0999800 0.0035298481 1.0000000000  -999.250000
 1749.1999800 0.0002593562 1.0000000000  -999.250000
 1749.2999800 0.0000880780 1.0000000000  -999.250000
 1749.3999800 0.0000223553 1.0000000000  -999.250000
 1749.4999800 0.0000058487 1.0000000000  -999.250000
 1749.5999800 0.0000009449 1.0000000000  -999.250000
 1749.6999800 0.0000095192 1.0000000000  -999.250000
 1749.7999800 0.0000148499 1.0000000000  -999.250000
 1749.8999800 0.0010000000 1.0000000000  -999.250000
