# LAS format log file from PETREL
# Project units are specified as depth units
#==================================================================
~Version information
VERS.   2.0:
WRAP.   NO:
#==================================================================
~Well
STRT .m      1550.0000000 :
STOP .m      1779.8000000 :
STEP .m     0.30000000 :
NULL .        -999.250000 :
COMP.           : COMPANY
WELL.  D_IPE   : WELL
FLD.            : FIELD
LOC.            : LOCATION
SRVC.           : SERVICE COMPANY
DATE.  Friday, March 30 2012 17:04:05   : DATE
PROV.           : PROVINCE
UWI.      : UNIQUE WELL ID
API.            : API NUMBER
#==================================================================
~Curve
DEPT .m                   : DEPTH
Permeability*** .mD       : Permeability ***
NTG*** .                  : NTG ***
PORDENS268*** .m3/m3      : POR DENS 268 ***
~Parameter
#==================================================================
~Ascii
# ...
 1685.9000000 16.165569305 1.0000000000 0.1547999978
 1686.2000000 94.760681152 1.0000000000 0.1844999939
 1686.5000000 110.16776276 1.0000000000 0.1905000061
 1686.8000000 108.26991272 1.0000000000 0.1844999939
 1687.1000000 77.548324585 1.0000000000 0.1785999984
 1687.4000000 92.894195557 1.0000000000 0.1844999939
 1687.7000000 159.19938660 1.0000000000 0.1964000016
 1688.0000000 273.85446167 1.0000000000 0.2202000022
 1688.3000000 453.76913452 1.0000000000 0.2381000072
 1688.6000000 342.64715576 1.0000000000 0.2261999995
 1688.9000000 204.82798767 1.0000000000 0.2082999945
 1689.2000000 162.94671631 1.0000000000 0.2023999989
 1689.5000000 175.54261780 1.0000000000 0.2023999989
 1689.8000000 116.91262054 1.0000000000 0.1905000061
 1690.1000000 58.474555969 1.0000000000 0.1667000055
 1690.4000000 131.64311218 1.0000000000 0.1905000061
 1690.7000000 230.51794434 1.0000000000 0.2143000066
 1691.0000000 356.62698364 1.0000000000 0.2261999995
 1691.3000000 331.68041992 1.0000000000 0.2261999995
 1691.6000000 403.75302124 1.0000000000 0.2320999950
 1691.9000000 642.29010010 1.0000000000 0.2500000000
 1692.2000000 804.92462158 1.0000000000 0.2619000077
 1692.5000000 1130.7523193 1.0000000000 0.2797999978
 1692.8000000 1278.9951172 1.0000000000 0.2856999934
 1693.1000000 929.84643555 1.0000000000 0.2678999901
 1693.4000000 923.95678711 1.0000000000 0.2678999901
 1693.7000000 971.92767334 1.0000000000 0.2737999856
 1694.0000000 877.90875244 1.0000000000 0.2678999901
 1694.3000000 739.84710693 1.0000000000 0.2560000122
 1694.6000000 1046.3253174 1.0000000000 0.2737999856
 1694.9000000 1320.7426758 1.0000000000 0.2856999934
 1695.2000000 982.99273682 1.0000000000 0.2737999856
 1695.5000000 459.09902954 1.0000000000 0.2381000072
 1695.8000000 470.59329224 1.0000000000 0.2381000072
 1696.1000000 644.04638672 1.0000000000 0.2500000000
 1696.4000000 738.86364746 1.0000000000 0.2560000122
 1696.7000000 316.00936890 1.0000000000 0.2261999995
 1697.0000000 155.24124146 1.0000000000 0.1964000016
 1697.3000000 145.16001892 1.0000000000 0.1964000016
 1697.6000000 280.99737549 1.0000000000 0.2202000022
 1697.9000000 330.13742065 1.0000000000 0.2261999995
 1698.2000000 159.48489380 1.0000000000 0.1964000016
 1698.5000000 89.608741760 1.0000000000 0.1785999984
 1698.8000000 158.06010437 1.0000000000 0.1964000016
 1699.1000000 161.20867920 1.0000000000 0.2023999989
 1699.4000000 106.81173706 1.0000000000 0.1844999939
 1699.7000000 96.848808289 1.0000000000 0.1844999939
 1700.0000000 57.966121674 1.0000000000 0.1667000055
 1700.3000000 36.526046753 1.0000000000 0.1547999978
 1700.6000000 284.62405396 1.0000000000 0.2202000022
 1700.9000000 451.12213135 1.0000000000 0.2381000072
 1701.2000000 333.74758911 1.0000000000 0.2261999995
 1701.5000000 49.179412842 1.0000000000 0.1667000055
 1701.8000000 34.143936157 1.0000000000 0.1547999978
 1702.1000000 47.428638458 1.0000000000 0.1606999934
 1702.4000000 49.849029541 1.0000000000 0.1667000055
 1702.7000000 35.403903961 1.0000000000 0.1547999978
 1703.0000000 50.526229858 1.0000000000 0.1667000055
 1703.3000000 51.210815430 1.0000000000 0.1667000055
 1703.6000000 8.3573770523 1.0000000000 0.1429000050
 1703.9000000 0.0010000000 0.0000000000 0.0773999989
 1704.2000000 0.0010000000 0.0000000000 0.0833000019
 1704.5000000 0.7488977313 1.0000000000 0.1011999995
 1704.8000000 8.7707338333 1.0000000000 0.1429000050
 1705.1000000 11.586563110 1.0000000000 0.1488000005
 1705.4000000 14.222001076 1.0000000000 0.1488000005
 1705.7000000 17.101835251 1.0000000000 0.1547999978
 1706.0000000 93.450920105 1.0000000000 0.1844999939
 1706.3000000 193.54345703 1.0000000000 0.2082999945
 1706.6000000 388.88446045 1.0000000000 0.2320999950
 1706.9000000 310.10556030 1.0000000000 0.2202000022
 1707.2000000 256.21524048 1.0000000000 0.2143000066
 1707.5000000 256.21524048 1.0000000000 0.2143000066
 1707.8000000 71.952865601 1.0000000000 0.1726000011
 1708.1000000 18.419088364 1.0000000000 0.1547999978
 1708.4000000 4.6295104027 1.0000000000 0.1309999973
 1708.7000000 8.6397867203 1.0000000000 0.1429000050
 1709.0000000 12.369428635 1.0000000000 0.1488000005
 1709.3000000 59.244388580 1.0000000000 0.1667000055
 1709.6000000 95.705169678 1.0000000000 0.1844999939
 1709.9000000 85.894660950 1.0000000000 0.1785999984
 1710.2000000 51.210815430 1.0000000000 0.1667000055
 1710.5000000 7.4017868042 1.0000000000 0.1250000000
 1710.8000000 0.5874994397 1.0000000000 0.1011999995
 1711.1000000 0.1960028708 1.0000000000 0.0833000019
 1711.4000000 9.0015287399 1.0000000000 0.1250000000
 1711.7000000 30.959249496 1.0000000000 0.1547999978
 1712.0000000 14.930007935 1.0000000000 0.1368999928
 1712.3000000 10.068968773 1.0000000000 0.1309999973
 1712.6000000 8.8049745560 1.0000000000 0.1250000000
 1712.9000000 2.9999747276 1.0000000000 0.1190999970
 1713.2000000 1.2385687828 1.0000000000 0.1071000025
 1713.5000000 0.7880880833 1.0000000000 0.1011999995
 1713.8000000 1.7731025219 1.0000000000 0.1130999997
 1714.1000000 6.0391173363 1.0000000000 0.1190999970
 1714.4000000 17.326932907 1.0000000000 0.1368999928
 1714.7000000 40.728420258 1.0000000000 0.1606999934
 1715.0000000 86.068908691 1.0000000000 0.1785999984
 1715.3000000 126.10179138 1.0000000000 0.1905000061
 1715.6000000 18.358190536 1.0000000000 0.1429000050
 1715.9000000 11.683062553 1.0000000000 0.1309999973
 1716.2000000 29.977258682 1.0000000000 0.1547999978
 1716.5000000 32.920097351 1.0000000000 0.1547999978
 1716.8000000 45.310974121 1.0000000000 0.1606999934
 1717.1000000 45.000080109 1.0000000000 0.1606999934
 1717.4000000 49.961521149 1.0000000000 0.1667000055
 1717.7000000 50.867462158 1.0000000000 0.1667000055
 1718.0000000 65.002555847 1.0000000000 0.1726000011
 1718.3000000 62.539794922 1.0000000000 0.1726000011
 1718.6000000 70.457832336 1.0000000000 0.1726000011
 1718.9000000 116.46764374 1.0000000000 0.1905000061
 1719.2000000 81.136192322 1.0000000000 0.1785999984
 1719.5000000 92.155761719 1.0000000000 0.1844999939
 1719.8000000 39.040039063 1.0000000000 0.1606999934
 1720.1000000 10.038037300 1.0000000000 0.1309999973
 1720.4000000 20.901460648 1.0000000000 0.1429000050
 1720.7000000 13.643755913 1.0000000000 0.1488000005
 1721.0000000 152.73869324 1.0000000000 0.1964000016
 1721.3000000 217.73461914 1.0000000000 0.2082999945
 1721.6000000 137.37863159 1.0000000000 0.1964000016
 1721.9000000 76.433837891 1.0000000000 0.1785999984
 1722.2000000 89.789016724 1.0000000000 0.1785999984
 1722.5000000 214.44808960 1.0000000000 0.2082999945
 1722.8000000 363.78753662 1.0000000000 0.2261999995
 1723.1000000 300.93835449 1.0000000000 0.2202000022
 1723.4000000 308.64270020 1.0000000000 0.2202000022
 1723.7000000 412.89047241 1.0000000000 0.2320999950
 1724.0000000 212.27990723 1.0000000000 0.2082999945
 1724.3000000 110.16776276 1.0000000000 0.1905000061
 1724.6000000 29.383806229 1.0000000000 0.1667000055
 1724.9000000 60.283485413 1.0000000000 0.1726000011
 1725.2000000 105.57427216 1.0000000000 0.1844999939
 1725.5000000 0.0010000000 0.0000000000 0.0952000022
 1725.8000000 0.0010000000 0.0000000000 0.0535999984
 1726.1000000 0.0010000000 0.0000000000 0.0535999984
 1726.4000000 0.0010000000 0.0000000000 0.0654999986
 1726.7000000 0.0010000000 0.0000000000 0.0773999989
 1727.0000000 1.6031299829 1.0000000000 0.1130999997
 1727.3000000 13.232209206 1.0000000000 0.1488000005
 1727.6000000 254.54524231 1.0000000000 0.2143000066
 1727.9000000 230.51794434 1.0000000000 0.2143000066
 1728.2000000 68.987892151 1.0000000000 0.1726000011
 1728.5000000 1.3705868721 1.0000000000 0.1071000025
 1728.8000000 0.0010000000 0.0000000000 0.0654999986
 1729.1000000 2.7371513844 1.0000000000 0.1190999970
 1729.4000000 81.969924927 1.0000000000 0.1785999984
 1729.7000000 185.33311462 1.0000000000 0.2023999989
 1730.0000000 190.88511658 1.0000000000 0.2082999945
 1730.3000000 186.62712097 1.0000000000 0.2023999989
 1730.6000000 91.239578247 1.0000000000 0.1844999939
 1730.9000000 4.1522817612 1.0000000000 0.1250000000
