# LAS format log file from PETREL
# Project units are specified as depth units
#==================================================================
~Version information
VERS.   2.0:
WRAP.   NO:
#==================================================================
~Well
STRT .m      1580.0000000 :
STOP .m      1760.0000000 :
STEP .m     0.05000000 :
NULL .        -999.250000 :
COMP.           : COMPANY
WELL.  A_IPE   : WELL
FLD.            : FIELD
LOC.            : LOCATION
SRVC.           : SERVICE COMPANY
DATE.  Friday, March 30 2012 17:03:22   : DATE
PROV.           : PROVINCE
UWI.      : UNIQUE WELL ID
API.            : API NUMBER
#==================================================================
~Curve
DEPT .m                   : DEPTH
Permeability*** .mD       : Permeability ***
NTG*** .                  : NTG ***
PORDENS268*** .m3/m3      : POR DENS 268 ***
~Parameter
#==================================================================
~Ascii
# ...
 1685.7000000 9.0570402145 1.0000000000 0.1250000000
 1685.7500000 9.8272895813 1.0000000000 0.1250000000
 1685.8000000 10.650581360 1.0000000000 0.1309999973
 1685.8500000 11.529725075 1.0000000000 0.1309999973
 1685.9000000 14.952046394 1.0000000000 0.1368999928
 1685.9500000 19.160362244 1.0000000000 0.1429000050
 1686.0000000 24.629867554 1.0000000000 0.1488000005
 1686.0500000 32.479431152 1.0000000000 0.1547999978
 1686.1000000 42.277568817 1.0000000000 0.1606999934
 1686.1500000 54.384269714 1.0000000000 0.1667000055
 1686.2000000 65.600875854 1.0000000000 0.1726000011
 1686.2500000 78.652587891 1.0000000000 0.1785999984
 1686.3000000 93.737060547 1.0000000000 0.1785999984
 1686.3500000 188.67463684 1.0000000000 0.1905000061
 1686.4000000 226.31781006 1.0000000000 0.1964000016
 1686.4500000 269.77908325 1.0000000000 0.2023999989
 1686.5000000 319.63467407 1.0000000000 0.2082999945
 1686.5500000 376.73818970 1.0000000000 0.2143000066
 1686.6000000 441.77478027 1.0000000000 0.2202000022
 1686.6500000 490.76443481 1.0000000000 0.2202000022
 1686.7000000 543.90924072 1.0000000000 0.2261999995
 1686.7500000 601.72106934 1.0000000000 0.2320999950
 1686.8000000 627.86437988 1.0000000000 0.2320999950
 1686.8500000 655.05639648 1.0000000000 0.2320999950
 1686.9000000 683.04010010 1.0000000000 0.2381000072
 1686.9500000 715.33752441 1.0000000000 0.2381000072
 1687.0000000 749.01098633 1.0000000000 0.2381000072
 1687.0500000 783.78308105 1.0000000000 0.2440000027
 1687.1000000 841.93524170 1.0000000000 0.2440000027
 1687.1500000 903.87811279 1.0000000000 0.2500000000
 1687.2000000 969.23925781 1.0000000000 0.2500000000
 1687.2500000 1020.7120972 1.0000000000 0.2560000122
 1687.3000000 1074.3605957 1.0000000000 0.2560000122
 1687.3500000 1130.2547607 1.0000000000 0.2560000122
 1687.4000000 1112.4600830 1.0000000000 0.2560000122
 1687.4500000 1095.1079102 1.0000000000 0.2560000122
 1687.5000000 1077.7609863 1.0000000000 0.2560000122
 1687.5500000 1060.6358643 1.0000000000 0.2560000122
 1687.6000000 936.10021973 1.0000000000 0.2500000000
 1687.6500000 823.43438721 1.0000000000 0.2440000027
 1687.7000000 721.94207764 1.0000000000 0.2381000072
 1687.7500000 590.35754395 1.0000000000 0.2320999950
 1687.8000000 478.68023682 1.0000000000 0.2202000022
 1687.8500000 384.66174316 1.0000000000 0.2143000066
 1687.9000000 311.16113281 1.0000000000 0.2023999989
 1687.9500000 249.40487671 1.0000000000 0.1964000016
 1688.0000000 197.91407776 1.0000000000 0.1905000061
 1688.0500000 164.18450928 1.0000000000 0.1844999939
 1688.1000000 135.24098206 1.0000000000 0.1785999984
 1688.1500000 110.58495331 1.0000000000 0.1726000011
 1688.2000000 89.652069092 1.0000000000 0.1667000055
 1688.2500000 72.031372070 1.0000000000 0.1606999934
 1688.3000000 57.330215454 1.0000000000 0.1547999978
 1688.3500000 23.679866791 1.0000000000 0.1488000005
 1688.4000000 18.149192810 1.0000000000 0.1429000050
 1688.4500000 13.727359772 1.0000000000 0.1368999928
 1688.5000000 11.877105713 1.0000000000 0.1309999973
 1688.5500000 10.232130051 1.0000000000 0.1309999973
 1688.6000000 8.7792005539 1.0000000000 0.1250000000
 1688.6500000 9.6298618317 1.0000000000 0.1250000000
 1688.7000000 10.547126770 1.0000000000 0.1309999973
 1688.7500000 11.529725075 1.0000000000 0.1309999973
 1688.8000000 14.259655952 1.0000000000 0.1368999928
 1688.8500000 17.507202148 1.0000000000 0.1368999928
 1688.9000000 21.321868896 1.0000000000 0.1429000050
 1688.9500000 23.480264664 1.0000000000 0.1488000005
 1689.0000000 25.804840088 1.0000000000 0.1488000005
 1689.0500000 28.326347351 1.0000000000 0.1488000005
 1689.1000000 27.626317978 1.0000000000 0.1488000005
 1689.1500000 26.929952621 1.0000000000 0.1488000005
 1689.2000000 26.258459091 1.0000000000 0.1488000005
 1689.2500000 25.590620041 1.0000000000 0.1488000005
 1689.3000000 24.946771622 1.0000000000 0.1488000005
 1689.3500000 24.306535721 1.0000000000 0.1488000005
 1689.4000000 27.626317978 1.0000000000 0.1488000005
 1689.4500000 31.297981262 1.0000000000 0.1547999978
 1689.5000000 35.374801636 1.0000000000 0.1547999978
 1689.5500000 45.523818970 1.0000000000 0.1606999934
 1689.6000000 102.74018097 1.0000000000 0.1667000055
 1689.6500000 126.84231567 1.0000000000 0.1726000011
 1689.7000000 149.64805603 1.0000000000 0.1785999984
 1689.7500000 175.54292297 1.0000000000 0.1844999939
 1689.8000000 205.03764343 1.0000000000 0.1905000061
 1689.8500000 218.60319519 1.0000000000 0.1905000061
 1689.9000000 232.94352722 1.0000000000 0.1964000016
 1689.9500000 247.96574402 1.0000000000 0.1964000016
 1690.0000000 249.40487671 1.0000000000 0.1964000016
 1690.0500000 250.85073853 1.0000000000 0.1964000016
 1690.1000000 252.23716736 1.0000000000 0.1964000016
 1690.1500000 243.81715393 1.0000000000 0.1964000016
 1690.2000000 235.62461853 1.0000000000 0.1964000016
 1690.2500000 227.65505981 1.0000000000 0.1964000016
 1690.3000000 196.71932983 1.0000000000 0.1905000061
 1690.3500000 169.25859070 1.0000000000 0.1844999939
 1690.4000000 145.01145935 1.0000000000 0.1785999984
 1690.4500000 109.83708191 1.0000000000 0.1726000011
 1690.5000000 81.876350403 1.0000000000 0.1606999934
 1690.5500000 59.970138550 1.0000000000 0.1547999978
 1690.6000000 45.211387634 1.0000000000 0.1488000005
 1690.6500000 16.949117661 1.0000000000 0.1368999928
 1690.7000000 11.963916779 1.0000000000 0.1309999973
 1690.7500000 8.2485218048 1.0000000000 0.1250000000
 1690.8000000 5.6495141983 1.0000000000 0.1190999970
 1690.8500000 3.7670302391 1.0000000000 0.1130999997
 1690.9000000 2.4323136806 1.0000000000 0.1011999995
 1690.9500000 2.0217745304 1.0000000000 0.1011999995
 1691.0000000 1.6699786186 1.0000000000 0.0952000022
 1691.0500000 1.3701297045 1.0000000000 0.0952000022
 1691.1000000 1.4100260735 1.0000000000 0.0952000022
 1691.1500000 1.4508728981 1.0000000000 0.0952000022
 1691.2000000 1.4926872253 1.0000000000 0.0952000022
 1691.2500000 1.5792893171 1.0000000000 0.0952000022
 1691.3000000 1.6699786186 1.0000000000 0.0952000022
 1691.3500000 1.7649047375 1.0000000000 0.1011999995
 1691.4000000 1.9155751467 1.0000000000 0.1011999995
 1691.4500000 2.0766596794 1.0000000000 0.1011999995
 1691.5000000 2.2487134933 1.0000000000 0.1011999995
 1691.5500000 2.9107186794 1.0000000000 0.1071000025
 1691.6000000 3.7209486961 1.0000000000 0.1130999997
 1691.6500000 4.7130475044 1.0000000000 0.1130999997
 1691.7000000 6.9642977715 1.0000000000 0.1190999970
 1691.7500000 10.028033257 1.0000000000 0.1309999973
 1691.8000000 14.128144264 1.0000000000 0.1368999928
 1691.8500000 18.489036560 1.0000000000 0.1429000050
 1691.9000000 23.890464783 1.0000000000 0.1488000005
 1691.9500000 57.330215454 1.0000000000 0.1547999978
 1692.0000000 59.513137817 1.0000000000 0.1547999978
 1692.0500000 61.762393951 1.0000000000 0.1547999978
 1692.1000000 64.101531982 1.0000000000 0.1547999978
 1692.1500000 30.280284882 1.0000000000 0.1547999978
 1692.2000000 26.477258682 1.0000000000 0.1488000005
 1692.2500000 23.075883865 1.0000000000 0.1429000050
 1692.3000000 19.859855652 1.0000000000 0.1429000050
 1692.3500000 17.028978348 1.0000000000 0.1368999928
 1692.4000000 14.532101631 1.0000000000 0.1368999928
 1692.4500000 13.467396736 1.0000000000 0.1368999928
 1692.5000000 12.467655182 1.0000000000 0.1309999973
 1692.5500000 11.529725075 1.0000000000 0.1309999973
 1692.6000000 10.971024513 1.0000000000 0.1309999973
 1692.6500000 10.439633369 1.0000000000 0.1309999973
 1692.7000000 9.9249105453 1.0000000000 0.1250000000
 1692.7500000 9.3376226425 1.0000000000 0.1250000000
 1692.8000000 8.7792005539 1.0000000000 0.1250000000
 1692.8500000 8.2485218048 1.0000000000 0.1250000000
 1692.9000000 7.6648950577 1.0000000000 0.1250000000
 1692.9500000 7.1120901108 1.0000000000 0.1190999970
 1693.0000000 6.5958156586 1.0000000000 0.1190999970
 1693.0500000 6.5958156586 1.0000000000 0.1190999970
 1693.1000000 6.5958156586 1.0000000000 0.1190999970
 1693.1500000 6.5958156586 1.0000000000 0.1190999970
 1693.2000000 7.1120901108 1.0000000000 0.1190999970
