# LAS format log file from PETREL
# Project units are specified as depth units
#==================================================================
~Version information
VERS.   2.0:
WRAP.   NO:
#==================================================================
~Well
STRT .m      1580.0000000 :
STOP .m      1760.0000000 :
STEP .m     0.05000000 :
NULL .        -999.250000 :
COMP.           : COMPANY
WELL.  A_IPE   : WELL
FLD.            : FIELD
LOC.            : LOCATION
SRVC.           : SERVICE COMPANY
DATE.  Friday, March 30 2012 17:03:22   : DATE
PROV.           : PROVINCE
UWI.      : UNIQUE WELL ID
API.            : API NUMBER
#==================================================================
~Curve
DEPT .m                   : DEPTH
Permeability*** .mD       : Permeability ***
NTG*** .                  : NTG ***
PORDENS268*** .m3/m3      : POR DENS 268 ***
~Parameter
#==================================================================
~Ascii
# ...
 1617.7500000 150.56333923 1.0000000000 0.1785999984
 1617.8000000 144.12344360 1.0000000000 0.1785999984
 1617.8500000 137.86628723 1.0000000000 0.1785999984
 1617.9000000 131.82945251 1.0000000000 0.1785999984
 1617.9500000 132.69551086 1.0000000000 0.1785999984
 1618.0000000 133.56613159 1.0000000000 0.1785999984
 1618.0500000 134.40145874 1.0000000000 0.1785999984
 1618.1000000 145.01145935 1.0000000000 0.1785999984
 1618.1500000 156.28498840 1.0000000000 0.1785999984
 1618.2000000 168.25297546 1.0000000000 0.1844999939
 1618.2500000 185.34580994 1.0000000000 0.1844999939
 1618.3000000 203.80848694 1.0000000000 0.1905000061
 1618.3500000 223.72232056 1.0000000000 0.1905000061
 1618.4000000 235.62461853 1.0000000000 0.1964000016
 1618.4500000 247.96574402 1.0000000000 0.1964000016
 1618.5000000 260.88949585 1.0000000000 0.1964000016
 1618.5500000 252.23716736 1.0000000000 0.1964000016
 1618.6000000 243.81715393 1.0000000000 0.1964000016
 1618.6500000 235.62461853 1.0000000000 0.1964000016
 1618.7000000 212.36608887 1.0000000000 0.1905000061
 1618.7500000 190.99095154 1.0000000000 0.1905000061
 1618.8000000 171.38139343 1.0000000000 0.1844999939
 1618.8500000 147.74487305 1.0000000000 0.1785999984
 1618.9000000 126.84231567 1.0000000000 0.1726000011
 1618.9500000 108.38706207 1.0000000000 0.1726000011
 1619.0000000 89.020423889 1.0000000000 0.1667000055
 1619.0500000 39.557285309 1.0000000000 0.1606999934
 1619.1000000 31.297981262 1.0000000000 0.1547999978
 1619.1500000 24.946771622 1.0000000000 0.1488000005
 1619.2000000 19.687143326 1.0000000000 0.1429000050
 1619.2500000 15.375226021 1.0000000000 0.1368999928
 1619.3000000 13.991432190 1.0000000000 0.1368999928
 1619.3500000 12.711671829 1.0000000000 0.1309999973
 1619.4000000 11.529725075 1.0000000000 0.1309999973
 1619.4500000 13.187896729 1.0000000000 0.1309999973
 1619.5000000 15.070089340 1.0000000000 0.1368999928
 1619.5500000 17.167636871 1.0000000000 0.1368999928
 1619.6000000 21.034717560 1.0000000000 0.1429000050
 1619.6500000 25.590620041 1.0000000000 0.1488000005
 1619.7000000 31.297981262 1.0000000000 0.1547999978
 1619.7500000 35.948993683 1.0000000000 0.1547999978
 1619.8000000 41.138542175 1.0000000000 0.1606999934
 1619.8500000 46.945270538 1.0000000000 0.1606999934
 1619.9000000 46.945270538 1.0000000000 0.1606999934
 1619.9500000 46.945270538 1.0000000000 0.1606999934
 1620.0000000 46.945270538 1.0000000000 0.1606999934
 1620.0500000 41.788455963 1.0000000000 0.1606999934
 1620.1000000 37.120349884 1.0000000000 0.1547999978
 1620.1500000 32.877132416 1.0000000000 0.1547999978
 1620.2000000 27.626317978 1.0000000000 0.1488000005
 1620.2500000 23.075883865 1.0000000000 0.1429000050
 1620.3000000 19.160362244 1.0000000000 0.1429000050
 1620.3500000 15.522946358 1.0000000000 0.1368999928
 1620.4000000 12.467655182 1.0000000000 0.1309999973
 1620.4500000 9.9249105453 1.0000000000 0.1250000000
 1620.5000000 7.4264349937 1.0000000000 0.1250000000
 1620.5500000 5.6848535538 1.0000000000 0.1190999970
 1620.6000000 4.4028902054 1.0000000000 0.1130999997
 1620.6500000 3.3995366096 1.0000000000 0.1071000025
 1620.7000000 0.0010000000 0.0000000000 0.1011999995
 1620.7500000 0.0010000000 0.0000000000 0.0952000022
 1620.8000000 0.0010000000 0.0000000000 0.0952000022
 1620.8500000 0.0010000000 0.0000000000 0.0892999992
 1620.9000000 0.0010000000 0.0000000000 0.0892999992
 1620.9500000 0.0010000000 0.0000000000 0.0833000019
 1621.0000000 0.0010000000 0.0000000000 0.0833000019
 1621.0500000 0.0010000000 0.0000000000 0.0833000019
 1621.1000000 0.0010000000 0.0000000000 0.0833000019
 1621.1500000 0.0010000000 0.0000000000 0.0833000019
 1621.2000000 0.0010000000 0.0000000000 0.0833000019
 1621.2500000 0.0010000000 0.0000000000 0.0833000019
 1621.3000000 0.0010000000 0.0000000000 0.0833000019
 1621.3500000 0.0010000000 0.0000000000 0.0892999992
 1621.4000000 0.0010000000 0.0000000000 0.0952000022
 1621.4500000 0.0010000000 0.0000000000 0.1011999995
 1621.5000000 5.1379919052 1.0000000000 0.1130999997
 1621.5500000 8.3330669403 1.0000000000 0.1250000000
 1621.6000000 14.834765434 1.0000000000 0.1368999928
 1621.6500000 26.030836105 1.0000000000 0.1488000005
 1621.7000000 43.788997650 1.0000000000 0.1606999934
 1621.7500000 62.363159180 1.0000000000 0.1726000011
 1621.8000000 148.69401550 1.0000000000 0.1785999984
 1621.8500000 197.91407776 1.0000000000 0.1905000061
 1621.9000000 219.90367126 1.0000000000 0.1905000061
 1621.9500000 243.81715393 1.0000000000 0.1964000016
 1622.0000000 269.77908325 1.0000000000 0.2023999989
 1622.0500000 275.83963013 1.0000000000 0.2023999989
 1622.1000000 282.00909424 1.0000000000 0.2023999989
 1622.1500000 288.28915405 1.0000000000 0.2023999989
 1622.2000000 293.10995483 1.0000000000 0.2023999989
 1622.2500000 297.91964722 1.0000000000 0.2023999989
 1622.3000000 302.86935425 1.0000000000 0.2023999989
 1622.3500000 311.16113281 1.0000000000 0.2023999989
 1622.4000000 319.63467407 1.0000000000 0.2082999945
 1622.4500000 328.37460327 1.0000000000 0.2082999945
 1622.5000000 335.47067261 1.0000000000 0.2082999945
 1622.5500000 342.68966675 1.0000000000 0.2082999945
 1622.6000000 350.03295898 1.0000000000 0.2082999945
 1622.6500000 363.23260498 1.0000000000 0.2082999945
 1622.7000000 376.73818970 1.0000000000 0.2143000066
 1622.7500000 390.73880005 1.0000000000 0.2143000066
 1622.8000000 417.70764160 1.0000000000 0.2143000066
 1622.8500000 446.25854492 1.0000000000 0.2202000022
 1622.9000000 476.35852051 1.0000000000 0.2202000022
 1622.9500000 498.04055786 1.0000000000 0.2202000022
 1623.0000000 520.62786865 1.0000000000 0.2261999995
 1623.0500000 543.90924072 1.0000000000 0.2261999995
 1623.1000000 512.97003174 1.0000000000 0.2261999995
 1623.1500000 483.46258545 1.0000000000 0.2202000022
 1623.2000000 455.33587646 1.0000000000 0.2202000022
 1623.2500000 367.06375122 1.0000000000 0.2082999945
 1623.3000000 293.10995483 1.0000000000 0.2023999989
 1623.3500000 231.58132935 1.0000000000 0.1964000016
 1623.4000000 149.64805603 1.0000000000 0.1785999984
 1623.4500000 51.810256958 1.0000000000 0.1667000055
 1623.5000000 29.052185059 1.0000000000 0.1488000005
 1623.5500000 13.082120895 1.0000000000 0.1309999973
 1623.6000000 5.1652193069 1.0000000000 0.1130999997
 1623.6500000 0.0010000000 0.0000000000 0.0952000022
 1623.7000000 0.0010000000 0.0000000000 0.0833000019
 1623.7500000 0.0010000000 0.0000000000 0.0714000016
 1623.8000000 0.0010000000 0.0000000000 0.0595000014
 1623.8500000 0.0010000000 0.0000000000 0.0595000014
 1623.9000000 0.0010000000 0.0000000000 0.0535999984
 1623.9500000 0.0010000000 0.0000000000 0.0535999984
 1624.0000000 0.0010000000 0.0000000000 0.0535999984
 1624.0500000 0.0010000000 0.0000000000 0.0535999984
 1624.1000000 0.0010000000 0.0000000000 0.0595000014
 1624.1500000 0.0010000000 0.0000000000 0.0595000014
 1624.2000000 0.0010000000 0.0000000000 0.0595000014
 1624.2500000 0.0010000000 0.0000000000 0.0654999986
 1624.3000000 0.0010000000 0.0000000000 0.0654999986
 1624.3500000 0.0010000000 0.0000000000 0.0654999986
 1624.4000000 0.0010000000 0.0000000000 0.0595000014
 1624.4500000 0.0010000000 0.0000000000 0.0595000014
 1624.5000000 0.0010000000 0.0000000000 0.0595000014
 1624.5500000 0.0010000000 0.0000000000 0.0595000014
 1624.6000000 0.0010000000 0.0000000000 0.0595000014
 1624.6500000 0.0010000000 0.0000000000 0.0595000014
 1624.7000000 0.0010000000 0.0000000000 0.0654999986
 1624.7500000 0.0010000000 0.0000000000 0.0714000016
 1624.8000000 0.0010000000 0.0000000000 0.0833000019
 1624.8500000 0.0010000000 0.0000000000 0.0952000022
 1624.9000000 0.0010000000 0.0000000000 0.1071000025
 1624.9500000 0.0010000000 0.0000000000 0.1250000000
 1625.0000000 45.149715424 1.0000000000 0.1429000050
 1625.0500000 75.384429932 1.0000000000 0.1606999934
 1625.1000000 118.19860840 1.0000000000 0.1726000011
 1625.1500000 179.19387817 1.0000000000 0.1905000061
 1625.2000000 264.04055786 1.0000000000 0.2082999945
 1625.2500000 534.52246094 1.0000000000 0.2202000022
