# LAS format log file from PETREL
# Project units are specified as depth units
#==================================================================
~Version information
VERS.   2.0:
WRAP.   NO:
#==================================================================
~Well
STRT .m      1605.0999800 :
STOP .m      1769.9999800 :
STEP .m     0.10000000 :
NULL .        -999.250000 :
COMP.           : COMPANY
WELL.  E_IPE   : WELL
FLD.            : FIELD
LOC.            : LOCATION
SRVC.           : SERVICE COMPANY
DATE.  Friday, March 30 2012 17:04:18   : DATE
PROV.           : PROVINCE
UWI.      : UNIQUE WELL ID
API.            : API NUMBER
#==================================================================
~Curve
DEPT .m                   : DEPTH
Permeability*** .mD       : Permeability ***
NTG*** .                  : NTG ***
PORDENS268*** .m3/m3      : POR DENS 268 ***
~Parameter
#==================================================================
~Ascii
# ...
 1680.5999800 10.382822990 1.0000000000 0.1309999973
 1680.6999800 11.034219742 1.0000000000 0.1309999973
 1680.7999800 15.667809486 1.0000000000 0.1368927956
 1680.8999800 22.333892822 1.0000000000 0.1429000050
 1680.9999800 24.156099319 1.0000000000 0.1488000005
 1681.0999800 19.543743134 1.0000000000 0.1429000050
 1681.1999800 11.718008995 1.0000000000 0.1309999973
 1681.2999800 7.5727791786 1.0000000000 0.1250073165
 1681.3999800 5.9981236458 1.0000000000 0.1190999970
 1681.4999800 6.8616795540 1.0000000000 0.1190999970
 1681.5999800 8.3419876099 1.0000000000 0.1250000000
 1681.6999800 10.704575539 1.0000000000 0.1309999973
 1681.7999800 10.382822990 1.0000000000 0.1309999973
 1681.8999800 9.1728286743 1.0000000000 0.1250000000
 1681.9999800 3.1902573109 1.0000000000 0.1250000000
 1682.0999800 3.8082544804 1.0000000000 0.1250000000
 1682.1999800 14.802800179 1.0000000000 0.1368999928
 1682.2999800 31.888410568 1.0000000000 0.1547781676
 1682.3999800 63.488414764 1.0000000000 0.1726000011
 1682.4999800 109.95574188 1.0000000000 0.1844999939
 1682.5999800 132.87316895 1.0000000000 0.1905000061
 1682.6999800 114.26363373 1.0000000000 0.1905000061
 1682.7999800 73.626976013 1.0000000000 0.1726218313
 1682.8999800 43.471000671 1.0000000000 0.1606999934
 1682.9999800 26.096023560 1.0000000000 0.1488000005
 1683.0999800 18.509422302 1.0000000000 0.1429000050
 1683.1999800 20.077989578 1.0000000000 0.1429000050
 1683.2999800 28.875473022 1.0000000000 0.1487928033
 1683.3999800 46.572380066 1.0000000000 0.1606999934
 1683.4999800 69.133628845 1.0000000000 0.1726000011
 1683.5999800 97.809982300 1.0000000000 0.1844999939
 1683.6999800 118.70571136 1.0000000000 0.1905000061
 1683.7999800 132.87316895 1.0000000000 0.1905000061
 1683.8999800 140.44972229 1.0000000000 0.1964000016
 1683.9999800 162.36547852 1.0000000000 0.2023999989
 1684.0999800 174.31083679 1.0000000000 0.2023999989
 1684.1999800 168.25289917 1.0000000000 0.2023999989
 1684.2999800 135.36100769 1.0000000000 0.1964073181
 1684.3999800 97.809982300 1.0000000000 0.1844999939
 1684.4999800 62.136840820 1.0000000000 0.1726000011
 1684.5999800 37.766220093 1.0000000000 0.1547999978
 1684.6999800 25.436008453 1.0000000000 0.1488000005
 1684.7999800 21.181861877 1.0000000000 0.1429072022
 1684.8999800 20.077989578 1.0000000000 0.1429000050
 1684.9999800 20.624052048 1.0000000000 0.1429000050
 1685.0999800 26.769908905 1.0000000000 0.1488000005
 1685.1999800 39.596305847 1.0000000000 0.1606999934
 1685.2999800 60.808193207 1.0000000000 0.1725854874
 1685.3999800 86.767463684 1.0000000000 0.1785999984
 1685.4999800 123.28620148 1.0000000000 0.1905000061
 1685.5999800 168.25289917 1.0000000000 0.2023999989
 1685.6999800 196.90919495 1.0000000000 0.2082999945
 1685.7999800 203.78024292 1.0000000000 0.2082999945
 1685.8999800 177.40452576 1.0000000000 0.2023999989
 1685.9999800 148.36997986 1.0000000000 0.1964000016
 1686.0999800 118.70571136 1.0000000000 0.1905000061
 1686.1999800 109.95574188 1.0000000000 0.1844999939
 1686.2999800 120.97879028 1.0000000000 0.1904926896
 1686.3999800 153.84704590 1.0000000000 0.1964000016
 1686.4999800 171.25996399 1.0000000000 0.2023999989
 1686.5999800 162.36547852 1.0000000000 0.2023999989
 1686.6999800 107.85159302 1.0000000000 0.1844999939
 1686.7999800 56.959327698 1.0000000000 0.1667217165
 1686.8999800 25.436008453 1.0000000000 0.1488000005
 1686.9999800 13.577730179 1.0000000000 0.1368999928
 1687.0999800 8.8888320923 1.0000000000 0.1250000000
 1687.1999800 7.5727791786 1.0000000000 0.1250000000
 1687.2999800 7.5727791786 1.0000000000 0.1250000000
 1687.3999800 3.5502409935 1.0000000000 0.1250000000
 1687.4999800 4.3706903458 1.0000000000 0.1250000000
 1687.5999800 16.115249634 1.0000000000 0.1368999928
 1687.6999800 36.877048492 1.0000000000 0.1547999978
 1687.7999800 86.767463684 1.0000000000 0.1785709709
 1687.8999800 174.31083679 1.0000000000 0.2023999989
 1687.9999800 257.47473145 1.0000000000 0.2143000066
 1688.0999800 297.61679077 1.0000000000 0.2202000022
 1688.1999800 253.29727173 1.0000000000 0.2143000066
 1688.2999800 171.25996399 1.0000000000 0.2024145126
 1688.3999800 103.73995972 1.0000000000 0.1844999939
 1688.4999800 66.262512207 1.0000000000 0.1726000011
 1688.5999800 46.572380066 1.0000000000 0.1606999934
 1688.6999800 37.766220093 1.0000000000 0.1547999978
 1688.7999800 36.004585266 1.0000000000 0.1547999978
 1688.8999800 38.672557831 1.0000000000 0.1606999934
 1688.9999800 41.497287750 1.0000000000 0.1606999934
 1689.0999800 38.672557831 1.0000000000 0.1606999934
 1689.1999800 35.149005890 1.0000000000 0.1547999978
 1689.2999800 31.888410568 1.0000000000 0.1547999978
 1689.3999800 31.888410568 1.0000000000 0.1547999978
 1689.4999800 36.877048492 1.0000000000 0.1547999978
 1689.5999800 49.849029541 1.0000000000 0.1667000055
 1689.6999800 75.175750732 1.0000000000 0.1785999984
 1689.7999800 118.70571136 1.0000000000 0.1904854923
 1689.8999800 196.90919495 1.0000000000 0.2082999945
 1689.9999800 283.71362305 1.0000000000 0.2202000022
 1690.0999800 364.34249878 1.0000000000 0.2261999995
 1690.1999800 337.38946533 1.0000000000 0.2261999995
 1690.2999800 283.71362305 1.0000000000 0.2202073187
 1690.3999800 229.36659241 1.0000000000 0.2143000066
 1690.4999800 221.80647278 1.0000000000 0.2082999945
 1690.5999800 229.36659241 1.0000000000 0.2143000066
 1690.6999800 288.28939819 1.0000000000 0.2202000022
 1690.7999800 364.34249878 1.0000000000 0.2261926830
 1690.8999800 469.22885132 1.0000000000 0.2381000072
 1690.9999800 556.92224121 1.0000000000 0.2440000027
 1691.0999800 693.87170410 1.0000000000 0.2560000122
 1691.1999800 867.80651855 1.0000000000 0.2678999901
 1691.2999800 1062.0019531 1.0000000000 0.2737928033
 1691.3999800 1102.0229492 1.0000000000 0.2797999978
 1691.4999800 936.95544434 1.0000000000 0.2678999901
 1691.5999800 605.45867920 1.0000000000 0.2500000000
 1691.6999800 317.00228882 1.0000000000 0.2261999995
 1691.7999800 135.36100769 1.0000000000 0.1964363456
 1691.8999800 49.849029541 1.0000000000 0.1667000055
 1691.9999800 19.020990372 1.0000000000 0.1429000050
 1692.0999800 3.9429564476 1.0000000000 0.1250000000
 1692.1999800 2.5598871708 1.0000000000 0.1190999970
 1692.2999800 2.4655678272 1.0000000000 0.1190999970
 1692.3999800 3.3067421913 1.0000000000 0.1250000000
 1692.4999800 10.704575539 1.0000000000 0.1309999973
 1692.5999800 17.040966034 1.0000000000 0.1368999928
 1692.6999800 26.096023560 1.0000000000 0.1488000005
 1692.7999800 36.004585266 1.0000000000 0.1547926813
 1692.8999800 43.471000671 1.0000000000 0.1606999934
 1692.9999800 53.308887482 1.0000000000 0.1667000055
 1693.0999800 62.136840820 1.0000000000 0.1726000011
 1693.1999800 72.103973389 1.0000000000 0.1726000011
 1693.2999800 88.534896851 1.0000000000 0.1785926819
 1693.3999800 114.26363373 1.0000000000 0.1905000061
 1693.4999800 132.87316895 1.0000000000 0.1905000061
 1693.5999800 140.44972229 1.0000000000 0.1964000016
 1693.6999800 137.88679504 1.0000000000 0.1964000016
 1693.7999800 116.46764374 1.0000000000 0.1905072033
 1693.8999800 78.352294922 1.0000000000 0.1785999984
 1693.9999800 47.644733429 1.0000000000 0.1606999934
 1694.0999800 30.351881027 1.0000000000 0.1547999978
 1694.1999800 21.751743317 1.0000000000 0.1429000050
 1694.2999800 17.040966034 1.0000000000 0.1369073093
 1694.3999800 18.009099960 1.0000000000 0.1429000050
 1694.4999800 20.077989578 1.0000000000 0.1429000050
 1694.5999800 23.535940170 1.0000000000 0.1488000005
 1694.6999800 24.789485931 1.0000000000 0.1488000005
 1694.7999800 31.112424850 1.0000000000 0.1547926813
 1694.8999800 43.471000671 1.0000000000 0.1606999934
 1694.9999800 64.863533020 1.0000000000 0.1726000011
 1695.0999800 85.028938293 1.0000000000 0.1785999984
 1695.1999800 95.895248413 1.0000000000 0.1844999939
 1695.2999800 85.028938293 1.0000000000 0.1786071956
 1695.3999800 66.262512207 1.0000000000 0.1726000011
 1695.4999800 55.720958710 1.0000000000 0.1667000055
 1695.5999800 56.959327698 1.0000000000 0.1667000055
