# LAS format log file from PETREL
# Project units are specified as depth units
#==================================================================
~Version information
VERS.   2.0:
WRAP.   NO:
#==================================================================
~Well
STRT .m      1580.0000000 :
STOP .m      1760.0000000 :
STEP .m     0.05000000 :
NULL .        -999.250000 :
COMP.           : COMPANY
WELL.  A_IPE   : WELL
FLD.            : FIELD
LOC.            : LOCATION
SRVC.           : SERVICE COMPANY
DATE.  Friday, March 30 2012 17:03:22   : DATE
PROV.           : PROVINCE
UWI.      : UNIQUE WELL ID
API.            : API NUMBER
#==================================================================
~Curve
DEPT .m                   : DEPTH
Permeability*** .mD       : Permeability ***
NTG*** .                  : NTG ***
PORDENS268*** .m3/m3      : POR DENS 268 ***
~Parameter
#==================================================================
~Ascii
# ...
 1715.9000000 596.01763916 1.0000000000 0.2320999950
 1715.9500000 624.97644043 1.0000000000 0.2320999950
 1716.0000000 655.05639648 1.0000000000 0.2320999950
 1716.0500000 678.33496094 1.0000000000 0.2381000072
 1716.1000000 702.27429199 1.0000000000 0.2381000072
 1716.1500000 727.04382324 1.0000000000 0.2381000072
 1716.2000000 752.35162354 1.0000000000 0.2381000072
 1716.2500000 735.29797363 1.0000000000 0.2381000072
 1716.3000000 718.71051025 1.0000000000 0.2381000072
 1716.3500000 702.27429199 1.0000000000 0.2381000072
 1716.4000000 616.24035645 1.0000000000 0.2320999950
 1716.4500000 538.65106201 1.0000000000 0.2261999995
 1716.5000000 469.22967529 1.0000000000 0.2202000022
 1716.5500000 398.89788818 1.0000000000 0.2143000066
 1716.6000000 337.30563354 1.0000000000 0.2082999945
 1716.6500000 283.53234863 1.0000000000 0.2023999989
 1716.7000000 252.23716736 1.0000000000 0.1964000016
 1716.7500000 223.72232056 1.0000000000 0.1905000061
 1716.8000000 197.91407776 1.0000000000 0.1905000061
 1716.8500000 176.63314819 1.0000000000 0.1844999939
 1716.9000000 157.23274231 1.0000000000 0.1844999939
 1716.9500000 139.62538147 1.0000000000 0.1785999984
 1717.0000000 115.79396820 1.0000000000 0.1726000011
 1717.0500000 95.379631042 1.0000000000 0.1667000055
 1717.1000000 77.939773560 1.0000000000 0.1606999934
 1717.1500000 64.586647034 1.0000000000 0.1547999978
 1717.2000000 28.095056534 1.0000000000 0.1488000005
 1717.2500000 22.475471497 1.0000000000 0.1429000050
 1717.3000000 20.948343277 1.0000000000 0.1429000050
 1717.3500000 19.646209717 1.0000000000 0.1429000050
 1717.4000000 18.723737717 1.0000000000 0.1429000050
 1717.4500000 18.388090134 1.0000000000 0.1429000050
 1717.5000000 18.057405472 1.0000000000 0.1429000050
 1717.5500000 17.731622696 1.0000000000 0.1368999928
 1717.6000000 15.959316254 1.0000000000 0.1368999928
 1717.6500000 14.398516655 1.0000000000 0.1368999928
 1717.7000000 12.959600449 1.0000000000 0.1309999973
 1717.7500000 11.195894241 1.0000000000 0.1309999973
 1717.8000000 9.6298618317 1.0000000000 0.1250000000
 1717.8500000 8.2485218048 1.0000000000 0.1250000000
 1717.9000000 7.9951982498 1.0000000000 0.1250000000
 1717.9500000 7.7444944382 1.0000000000 0.1250000000
 1718.0000000 7.5039982796 1.0000000000 0.1250000000
 1718.0500000 8.5125207901 1.0000000000 0.1250000000
 1718.1000000 9.6298618317 1.0000000000 0.1250000000
 1718.1500000 10.865016937 1.0000000000 0.1309999973
 1718.2000000 13.855809212 1.0000000000 0.1368999928
 1718.2500000 17.507202148 1.0000000000 0.1368999928
 1718.3000000 21.896896362 1.0000000000 0.1429000050
 1718.3500000 29.540702820 1.0000000000 0.1488000005
 1718.4000000 39.238445282 1.0000000000 0.1606999934
 1718.4500000 51.430229187 1.0000000000 0.1667000055
 1718.5000000 68.016555786 1.0000000000 0.1726000011
 1718.5500000 88.766799927 1.0000000000 0.1785999984
 1718.6000000 190.99095154 1.0000000000 0.1905000061
 1718.6500000 221.15084839 1.0000000000 0.1905000061
 1718.7000000 255.09526062 1.0000000000 0.1964000016
 1718.7500000 293.10995483 1.0000000000 0.2023999989
 1718.8000000 289.83963013 1.0000000000 0.2023999989
 1718.8500000 286.74536133 1.0000000000 0.2023999989
 1718.9000000 283.53234863 1.0000000000 0.2023999989
 1718.9500000 250.85073853 1.0000000000 0.1964000016
 1719.0000000 221.15084839 1.0000000000 0.1905000061
 1719.0500000 194.40086365 1.0000000000 0.1905000061
 1719.1000000 167.25210571 1.0000000000 0.1844999939
 1719.1500000 143.19786072 1.0000000000 0.1785999984
 1719.2000000 69.991981506 1.0000000000 0.1726000011
 1719.2500000 66.331390381 1.0000000000 0.1726000011
 1719.3000000 62.829631805 1.0000000000 0.1726000011
 1719.3500000 59.460891724 1.0000000000 0.1667000055
 1719.4000000 56.261482239 1.0000000000 0.1667000055
 1719.4500000 57.101799011 1.0000000000 0.1667000055
 1719.5000000 57.952400208 1.0000000000 0.1667000055
 1719.5500000 58.813388824 1.0000000000 0.1667000055
 1719.6000000 60.134784698 1.0000000000 0.1667000055
 1719.6500000 61.459629059 1.0000000000 0.1726000011
 1719.7000000 62.829631805 1.0000000000 0.1726000011
 1719.7500000 65.622909546 1.0000000000 0.1726000011
 1719.8000000 68.517486572 1.0000000000 0.1726000011
 1719.8500000 71.516136169 1.0000000000 0.1726000011
 1719.9000000 82.301429749 1.0000000000 0.1785999984
 1719.9500000 160.19555664 1.0000000000 0.1844999939
 1720.0000000 180.94726563 1.0000000000 0.1844999939
 1720.0500000 217.36767578 1.0000000000 0.1905000061
 1720.1000000 259.46502686 1.0000000000 0.1964000016
 1720.1500000 307.80734253 1.0000000000 0.2023999989
 1720.2000000 353.75186157 1.0000000000 0.2082999945
 1720.2500000 405.05825806 1.0000000000 0.2143000066
 1720.3000000 462.18685913 1.0000000000 0.2202000022
 1720.3500000 478.68023682 1.0000000000 0.2202000022
 1720.4000000 495.64358521 1.0000000000 0.2202000022
 1720.4500000 512.97003174 1.0000000000 0.2261999995
 1720.5000000 495.64358521 1.0000000000 0.2202000022
 1720.5500000 478.68023682 1.0000000000 0.2202000022
 1720.6000000 462.18685913 1.0000000000 0.2202000022
 1720.6500000 450.77883911 1.0000000000 0.2202000022
 1720.7000000 439.59823608 1.0000000000 0.2202000022
 1720.7500000 428.54061890 1.0000000000 0.2143000066
 1720.8000000 448.46154785 1.0000000000 0.2202000022
 1720.8500000 469.22967529 1.0000000000 0.2202000022
 1720.9000000 490.76443481 1.0000000000 0.2202000022
 1720.9500000 551.93591309 1.0000000000 0.2261999995
 1721.0000000 619.09600830 1.0000000000 0.2320999950
 1721.0500000 692.67791748 1.0000000000 0.2381000072
 1721.1000000 787.24786377 1.0000000000 0.2440000027
 1721.1500000 891.93603516 1.0000000000 0.2500000000
 1721.2000000 1007.5415039 1.0000000000 0.2560000122
 1721.2500000 1116.1763916 1.0000000000 0.2560000122
 1721.3000000 1233.8023682 1.0000000000 0.2619000077
 1721.3500000 1361.1987305 1.0000000000 0.2678999901
 1721.4000000 1451.8554688 1.0000000000 0.2737999856
 1721.4500000 1547.3056641 1.0000000000 0.2737999856
 1721.5000000 1647.7395020 1.0000000000 0.2797999978
 1721.5500000 1706.6510010 1.0000000000 0.2797999978
 1721.6000000 1766.9278564 1.0000000000 0.2797999978
 1721.6500000 1829.2303467 1.0000000000 0.2797999978
 1721.7000000 1829.2303467 1.0000000000 0.2797999978
 1721.7500000 1829.2303467 1.0000000000 0.2797999978
 1721.8000000 1829.2303467 1.0000000000 0.2797999978
 1721.8500000 1760.2868652 1.0000000000 0.2797999978
 1721.9000000 1693.1434326 1.0000000000 0.2797999978
 1721.9500000 1628.6678467 1.0000000000 0.2737999856
 1722.0000000 1522.9831543 1.0000000000 0.2737999856
 1722.0500000 1423.1516113 1.0000000000 0.2678999901
 1722.1000000 1328.4011230 1.0000000000 0.2678999901
 1722.1500000 1213.5352783 1.0000000000 0.2619000077
 1722.2000000 1106.5795898 1.0000000000 0.2560000122
 1722.2500000 1007.5415039 1.0000000000 0.2560000122
 1722.3000000 872.55450439 1.0000000000 0.2440000027
 1722.3500000 752.35162354 1.0000000000 0.2381000072
 1722.4000000 645.84222412 1.0000000000 0.2320999950
 1722.4500000 538.04235840 1.0000000000 0.2261999995
 1722.5000000 445.10806274 1.0000000000 0.2202000022
 1722.5500000 365.63436890 1.0000000000 0.2082999945
 1722.6000000 297.91964722 1.0000000000 0.2023999989
 1722.6500000 207.45748901 1.0000000000 0.1905000061
 1722.7000000 140.49104309 1.0000000000 0.1785999984
 1722.7500000 92.155891418 1.0000000000 0.1667000055
 1722.8000000 33.140274048 1.0000000000 0.1547999978
 1722.8500000 20.588701248 1.0000000000 0.1429000050
 1722.9000000 12.227497101 1.0000000000 0.1309999973
 1722.9500000 8.9664974213 1.0000000000 0.1250000000
 1723.0000000 6.4536404610 1.0000000000 0.1190999970
 1723.0500000 4.5508785248 1.0000000000 0.1130999997
 1723.1000000 4.1940836906 1.0000000000 0.1130999997
 1723.1500000 3.8584570885 1.0000000000 0.1130999997
 1723.2000000 3.5452253819 1.0000000000 0.1071000025
 1723.2500000 3.9059338570 1.0000000000 0.1130999997
 1723.3000000 4.2915821075 1.0000000000 0.1130999997
 1723.3500000 4.7130475044 1.0000000000 0.1130999997
 1723.4000000 5.8431162834 1.0000000000 0.1190999970
