# LAS format log file from PETREL
# Project units are specified as depth units
#==================================================================
~Version information
VERS.   2.0:
WRAP.   NO:
#==================================================================
~Well
STRT .m      1550.0999800 :
STOP .m      1724.9999800 :
STEP .m     0.30000000 :
NULL .        -999.250000 :
COMP.           : COMPANY
WELL.  C_IPE   : WELL
FLD.            : FIELD
LOC.            : LOCATION
SRVC.           : SERVICE COMPANY
DATE.  Friday, March 30 2012 17:03:54   : DATE
PROV.           : PROVINCE
UWI.      : UNIQUE WELL ID
API.            : API NUMBER
#==================================================================
~Curve
DEPT .m                   : DEPTH
Permeability*** .mD       : Permeability ***
NTG*** .                  : NTG ***
PORDENS268*** .m3/m3      : POR DENS 268 ***
~Parameter
#==================================================================
~Ascii
# ...
 1595.3999800 14.031631470 1.0000000000 0.2320999950
 1595.6999800 201.14700317 1.0000000000 0.2381000072
 1595.9999800 477.46298218 1.0000000000 0.2381000072
 1596.2999800 270.33831787 1.0000000000 0.2202072889
 1596.5999800 0.0001475779 1.0000000000 0.1429000050
 1596.8999800 0.0010000000 0.0000000000 0.1071000025
 1597.1999800 0.0000000000 1.0000000000 0.1130999997
 1597.4999800 0.0275342092 1.0000000000 0.1667000055
 1597.7999800 5.9720153809 1.0000000000 0.1785951555
 1598.0999800 1.0785849094 1.0000000000 0.1726000011
 1598.3999800 0.4907743037 1.0000000000 0.1785999984
 1598.6999800 1.1455543041 1.0000000000 0.1905000061
 1598.9999800 5.0424675941 1.0000000000 0.1844999939
 1599.2999800 0.0024250757 1.0000000000 0.1548120826
 1599.5999800 0.0183662865 1.0000000000 0.1429000050
 1599.8999800 0.0000000000 1.0000000000 0.1190999970
 1600.1999800 0.0010000000 0.0000000000 0.1071000025
 1600.4999800 0.0000000000 1.0000000000 0.1429000050
 1600.7999800 1.9943898916 1.0000000000 0.2023757994
 1601.0999800 4.6727833748 1.0000000000 0.2202000022
 1601.3999800 100.98530579 1.0000000000 0.2381000072
 1601.6999800 0.1712022126 1.0000000000 0.1905000061
 1601.9999800 0.6403293610 1.0000000000 0.2023999989
 1602.2999800 0.0000000000 1.0000000000 0.1607169658
 1602.5999800 0.0000000000 1.0000000000 0.1309999973
 1602.8999800 0.0000000000 1.0000000000 0.1309999973
 1603.1999800 0.0000000000 1.0000000000 0.1309999973
 1603.4999800 0.0000000000 1.0000000000 0.1488000005
 1603.7999800 17.461673737 1.0000000000 0.2261685133
 1604.0999800 293.63290405 1.0000000000 0.2560000122
 1604.3999800 246.14381409 1.0000000000 0.2619000077
 1604.6999800 67.927413940 1.0000000000 0.2500000000
 1604.9999800 96.321525574 1.0000000000 0.2619000077
 1605.2999800 913.71038818 1.0000000000 0.2856903076
 1605.5999800 816.60253906 1.0000000000 0.2619000077
 1605.8999800 127.98831177 1.0000000000 0.1905000061
 1606.1999800 0.0000103029 1.0000000000 0.1250000000
 1606.4999800 0.0000000000 1.0000000000 0.1309999973
 1606.7999800 8.3633375168 1.0000000000 0.2201637179
 1607.0999800 174.35977173 1.0000000000 0.2500000000
 1607.3999800 605.99407959 1.0000000000 0.2678999901
 1607.6999800 10.024404526 1.0000000000 0.2202000022
 1607.9999800 0.0000000000 1.0000000000 0.1606999934
 1608.2999800 0.0000000000 1.0000000000 0.1488048434
 1608.5999800 0.0000000000 1.0000000000 0.1667000055
 1608.8999800 100.82695007 1.0000000000 0.2261999995
 1609.1999800 5.7600421906 1.0000000000 0.1785999984
 1609.4999800 0.0000000000 1.0000000000 0.1488000005
 1609.7999800 0.0000000000 1.0000000000 0.1488000005
 1610.0999800 0.0000000000 1.0000000000 0.1368999928
 1610.3999800 0.0010000000 0.0000000000 0.1071000025
 1610.6999800 0.0010000000 0.0000000000 0.0952000022
 1610.9999800 0.0010000000 0.0000000000 0.1130999997
 1611.2999800 7.5747661591 1.0000000000 0.1904685199
 1611.5999800 0.1599041373 1.0000000000 0.1726000011
 1611.8999800 0.0000000038 1.0000000000 0.1309999973
 1612.1999800 0.0000000000 1.0000000000 0.1309999973
 1612.4999800 0.0000000000 1.0000000000 0.1905000061
 1612.7999800 87.824478149 1.0000000000 0.2618709505
 1613.0999800 418.50250244 1.0000000000 0.2737999856
 1613.3999800 284.33288574 1.0000000000 0.2440000027
 1613.6999800 0.9351290464 1.0000000000 0.1964000016
 1613.9999800 0.1455810219 1.0000000000 0.2202000022
 1614.2999800 76.636558533 1.0000000000 0.2737781703
 1614.5999800 310.92623901 1.0000000000 0.2917000055
 1614.8999800 1076.6973877 1.0000000000 0.2797999978
 1615.1999800 151.74674988 1.0000000000 0.2143000066
 1615.4999800 0.1110207587 1.0000000000 0.1606999934
 1615.7999800 5.3282980919 1.0000000000 0.1844903082
 1616.0999800 18.376296997 1.0000000000 0.2261999995
 1616.3999800 359.43368530 1.0000000000 0.2678999901
 1616.6999800 154.18040466 1.0000000000 0.2320999950
 1616.9999800 0.0000000000 1.0000000000 0.1250000000
 1617.2999800 0.0000000000 1.0000000000 0.1131048426
 1617.5999800 0.0000000000 1.0000000000 0.1190999970
 1617.8999800 0.0010000000 0.0000000000 0.0952000022
 1618.1999800 0.0000000000 1.0000000000 0.1250000000
 1618.4999800 44.534832001 1.0000000000 0.1964000016
 1618.7999800 116.68099976 1.0000000000 0.2320854664
 1619.0999800 106.52181244 1.0000000000 0.2500000000
 1619.3999800 91.656562805 1.0000000000 0.2440000027
 1619.6999800 477.46298218 1.0000000000 0.2381000072
 1619.9999800 367.69039917 1.0000000000 0.2320999950
 1620.2999800 14.213953972 1.0000000000 0.2024120837
 1620.5999800 237.95137024 1.0000000000 0.2143000066
 1620.8999800 42.490688324 1.0000000000 0.1844999939
 1621.1999800 1125.1787109 1.0000000000 0.2797999978
 1621.4999800 681.86126709 1.0000000000 0.2560000122
 1621.7999800 19.957334518 1.0000000000 0.1905266494
 1622.0999800 14.955579758 1.0000000000 0.2082999945
 1622.3999800 127.94998169 1.0000000000 0.2261999995
 1622.6999800 155.61079407 1.0000000000 0.2202000022
 1622.9999800 43.478958130 1.0000000000 0.1785999984
 1623.2999800 14.497653008 1.0000000000 0.1607072800
 1623.5999800 208.70439148 1.0000000000 0.2082999945
 1623.8999800 367.69039917 1.0000000000 0.2320999950
 1624.1999800 233.06774902 1.0000000000 0.2261999995
 1624.4999800 414.14608765 1.0000000000 0.2320999950
 1624.7999800 158.91381836 1.0000000000 0.1964145303
 1625.0999800 4.5582618713 1.0000000000 0.1547999978
 1625.3999800 114.49113464 1.0000000000 0.1905000061
 1625.6999800 306.72158813 1.0000000000 0.2202000022
 1625.9999800 31.613498688 1.0000000000 0.2023999989
 1626.2999800 172.45079041 1.0000000000 0.2320879102
 1626.5999800 451.09552002 1.0000000000 0.2381000072
 1626.8999800 72.321624756 1.0000000000 0.2023999989
 1627.1999800 70.736984253 1.0000000000 0.1964000016
 1627.4999800 46.470344543 1.0000000000 0.2082999945
 1627.7999800 9.6352233887 1.0000000000 0.1964048445
 1628.0999800 89.911476135 1.0000000000 0.2202000022
 1628.3999800 298.67687988 1.0000000000 0.2320999950
 1628.6999800 83.931053162 1.0000000000 0.2202000022
 1628.9999800 0.0214178190 1.0000000000 0.1667000055
 1629.2999800 0.6561915278 1.0000000000 0.1725976020
 1629.5999800 278.76715088 1.0000000000 0.2202000022
 1629.8999800 1235.2263184 1.0000000000 0.2856999934
 1630.1999800 902.21691895 1.0000000000 0.2737999856
 1630.4999800 3.5315172672 1.0000000000 0.1667000055
 1630.7999800 97.609512329 1.0000000000 0.1844927520
 1631.0999800 118.03978729 1.0000000000 0.1905000061
 1631.3999800 228.99865723 1.0000000000 0.2143000066
 1631.6999800 365.45602417 1.0000000000 0.2320999950
 1631.9999800 9.3509464264 1.0000000000 0.1667000055
 1632.2999800 5.9557352066 1.0000000000 0.1429096907
 1632.5999800 43.126182556 1.0000000000 0.1785999984
 1632.8999800 100.16418457 1.0000000000 0.2261999995
 1633.1999800 1765.6616211 1.0000000000 0.3036000133
 1633.4999800 888.28717041 1.0000000000 0.2856999934
 1633.7999800 658.19885254 1.0000000000 0.2560120821
 1634.0999800 612.17919922 1.0000000000 0.2500000000
 1634.3999800 94.775894165 1.0000000000 0.1844999939
 1634.6999800 0.0005559141 1.0000000000 0.1190999970
 1634.9999800 195.15325928 1.0000000000 0.2082999945
 1635.2999800 775.90972900 1.0000000000 0.2618781924
 1635.5999800 142.77870178 1.0000000000 0.1964000016
 1635.8999800 29.597934723 1.0000000000 0.1667000055
 1636.1999800 519.68041992 1.0000000000 0.2440000027
 1636.4999800 518.97082520 1.0000000000 0.2440000027
 1636.7999800 203.47422791 1.0000000000 0.2143120915
 1637.0999800 186.53660583 1.0000000000 0.2202000022
 1637.3999800 504.36251831 1.0000000000 0.2440000027
 1637.6999800 383.54815674 1.0000000000 0.2440000027
 1637.9999800 340.40985107 1.0000000000 0.2440000027
 1638.2999800 190.19869995 1.0000000000 0.2262072414
 1638.5999800 74.181571960 1.0000000000 0.1844999939
 1638.8999800 15.271896362 1.0000000000 0.1667000055
 1639.1999800 40.507503510 1.0000000000 0.1667000055
 1639.4999800 54.862140656 1.0000000000 0.1667000055
 1639.7999800 37.859657288 1.0000000000 0.1667000055
 1640.0999800 22.503936768 1.0000000000 0.1667000055
 1640.3999800 0.0204153340 1.0000000000 0.1429000050
