# LAS format log file from PETREL
# Project units are specified as depth units
#==================================================================
~Version information
VERS.   2.0:
WRAP.   NO:
#==================================================================
~Well
STRT .m      1580.0000000 :
STOP .m      1760.0000000 :
STEP .m     0.05000000 :
NULL .        -999.250000 :
COMP.           : COMPANY
WELL.  A_IPE   : WELL
FLD.            : FIELD
LOC.            : LOCATION
SRVC.           : SERVICE COMPANY
DATE.  Friday, March 30 2012 17:03:22   : DATE
PROV.           : PROVINCE
UWI.      : UNIQUE WELL ID
API.            : API NUMBER
#==================================================================
~Curve
DEPT .m                   : DEPTH
Permeability*** .mD       : Permeability ***
NTG*** .                  : NTG ***
PORDENS268*** .m3/m3      : POR DENS 268 ***
~Parameter
#==================================================================
~Ascii
# ...
 1595.1000000 0.0010000000 0.0000000000 0.0833000019
 1595.1500000 0.0010000000 0.0000000000 0.0892999992
 1595.2000000 0.0010000000 0.0000000000 0.0833000019
 1595.2500000 0.0010000000 0.0000000000 0.0833000019
 1595.3000000 0.0010000000 0.0000000000 0.0833000019
 1595.3500000 0.0010000000 0.0000000000 0.0833000019
 1595.4000000 0.0010000000 0.0000000000 0.0833000019
 1595.4500000 0.0010000000 0.0000000000 0.0833000019
 1595.5000000 0.0010000000 0.0000000000 0.0833000019
 1595.5500000 0.0010000000 0.0000000000 0.0833000019
 1595.6000000 0.0010000000 0.0000000000 0.0833000019
 1595.6500000 0.0010000000 0.0000000000 0.0833000019
 1595.7000000 0.0010000000 0.0000000000 0.0892999992
 1595.7500000 0.0010000000 0.0000000000 0.0892999992
 1595.8000000 0.0010000000 0.0000000000 0.0892999992
 1595.8500000 0.0010000000 0.0000000000 0.0892999992
 1595.9000000 0.0010000000 0.0000000000 0.0892999992
 1595.9500000 0.0010000000 0.0000000000 0.0833000019
 1596.0000000 0.0010000000 0.0000000000 0.0833000019
 1596.0500000 0.0010000000 0.0000000000 0.0833000019
 1596.1000000 0.0010000000 0.0000000000 0.0833000019
 1596.1500000 0.0010000000 0.0000000000 0.0833000019
 1596.2000000 0.0010000000 0.0000000000 0.0833000019
 1596.2500000 0.0010000000 0.0000000000 0.0773999989
 1596.3000000 0.0010000000 0.0000000000 0.0833000019
 1596.3500000 0.0010000000 0.0000000000 0.0833000019
 1596.4000000 0.0010000000 0.0000000000 0.0833000019
 1596.4500000 0.0010000000 0.0000000000 0.0833000019
 1596.5000000 0.0010000000 0.0000000000 0.0773999989
 1596.5500000 0.0010000000 0.0000000000 0.0773999989
 1596.6000000 0.0010000000 0.0000000000 0.0773999989
 1596.6500000 0.0010000000 0.0000000000 0.0773999989
 1596.7000000 0.0010000000 0.0000000000 0.0773999989
 1596.7500000 0.0010000000 0.0000000000 0.0833000019
 1596.8000000 0.0010000000 0.0000000000 0.0833000019
 1596.8500000 0.0010000000 0.0000000000 0.0833000019
 1596.9000000 0.0010000000 0.0000000000 0.0833000019
 1596.9500000 0.0010000000 0.0000000000 0.0892999992
 1597.0000000 0.0010000000 0.0000000000 0.0892999992
 1597.0500000 0.0010000000 0.0000000000 0.0892999992
 1597.1000000 0.0010000000 0.0000000000 0.0952000022
 1597.1500000 0.0010000000 0.0000000000 0.0952000022
 1597.2000000 0.0010000000 0.0000000000 0.0952000022
 1597.2500000 0.0010000000 0.0000000000 0.0952000022
 1597.3000000 0.0010000000 0.0000000000 0.0952000022
 1597.3500000 0.0010000000 0.0000000000 0.0952000022
 1597.4000000 0.0010000000 0.0000000000 0.0952000022
 1597.4500000 0.0010000000 0.0000000000 0.0952000022
 1597.5000000 0.0010000000 0.0000000000 0.0952000022
 1597.5500000 0.0010000000 0.0000000000 0.0952000022
 1597.6000000 0.0010000000 0.0000000000 0.0892999992
 1597.6500000 0.0010000000 0.0000000000 0.0892999992
 1597.7000000 0.0010000000 0.0000000000 0.0833000019
 1597.7500000 0.0010000000 0.0000000000 0.0833000019
 1597.8000000 0.0010000000 0.0000000000 0.0773999989
 1597.8500000 0.0010000000 0.0000000000 0.0773999989
 1597.9000000 0.0010000000 0.0000000000 0.0714000016
 1597.9500000 0.0010000000 0.0000000000 0.0714000016
 1598.0000000 0.0010000000 0.0000000000 0.0714000016
 1598.0500000 0.0010000000 0.0000000000 0.0654999986
 1598.1000000 0.0010000000 0.0000000000 0.0654999986
 1598.1500000 0.0010000000 0.0000000000 0.0714000016
 1598.2000000 0.0010000000 0.0000000000 0.0714000016
 1598.2500000 0.0010000000 0.0000000000 0.0714000016
 1598.3000000 0.0010000000 0.0000000000 0.0714000016
 1598.3500000 0.0010000000 0.0000000000 0.0714000016
 1598.4000000 0.0010000000 0.0000000000 0.0714000016
 1598.4500000 0.0010000000 0.0000000000 0.0773999989
 1598.5000000 0.0010000000 0.0000000000 0.0773999989
 1598.5500000 0.0010000000 0.0000000000 0.0773999989
 1598.6000000 0.0010000000 0.0000000000 0.0773999989
 1598.6500000 0.0010000000 0.0000000000 0.0773999989
 1598.7000000 0.0010000000 0.0000000000 0.0773999989
 1598.7500000 0.0010000000 0.0000000000 0.0773999989
 1598.8000000 0.0010000000 0.0000000000 0.0833000019
 1598.8500000 0.0010000000 0.0000000000 0.0833000019
 1598.9000000 0.0010000000 0.0000000000 0.0833000019
 1598.9500000 0.0010000000 0.0000000000 0.0833000019
 1599.0000000 0.0010000000 0.0000000000 0.0833000019
 1599.0500000 0.0010000000 0.0000000000 0.0833000019
 1599.1000000 0.0010000000 0.0000000000 0.0833000019
 1599.1500000 0.0010000000 0.0000000000 0.0773999989
 1599.2000000 0.0010000000 0.0000000000 0.0833000019
 1599.2500000 0.0010000000 0.0000000000 0.0833000019
 1599.3000000 0.0010000000 0.0000000000 0.0833000019
 1599.3500000 0.0010000000 0.0000000000 0.0833000019
 1599.4000000 0.0010000000 0.0000000000 0.0833000019
 1599.4500000 0.0010000000 0.0000000000 0.0892999992
 1599.5000000 0.0010000000 0.0000000000 0.0892999992
 1599.5500000 0.0010000000 0.0000000000 0.0892999992
 1599.6000000 0.0010000000 0.0000000000 0.0892999992
 1599.6500000 0.0010000000 0.0000000000 0.0892999992
 1599.7000000 0.0010000000 0.0000000000 0.0833000019
 1599.7500000 0.0010000000 0.0000000000 0.0833000019
 1599.8000000 0.0010000000 0.0000000000 0.0833000019
 1599.8500000 0.0010000000 0.0000000000 0.0833000019
 1599.9000000 0.0010000000 0.0000000000 0.0833000019
 1599.9500000 0.0010000000 0.0000000000 0.0892999992
 1600.0000000 0.0010000000 0.0000000000 0.0892999992
 1600.0500000 0.0010000000 0.0000000000 0.0892999992
 1600.1000000 0.0010000000 0.0000000000 0.0892999992
 1600.1500000 0.0010000000 0.0000000000 0.0892999992
 1600.2000000 0.0010000000 0.0000000000 0.0952000022
 1600.2500000 0.0010000000 0.0000000000 0.0952000022
 1600.3000000 0.0010000000 0.0000000000 0.0952000022
 1600.3500000 0.0010000000 0.0000000000 0.0952000022
 1600.4000000 0.0010000000 0.0000000000 0.0952000022
 1600.4500000 0.0010000000 0.0000000000 0.0952000022
 1600.5000000 0.0010000000 0.0000000000 0.0952000022
 1600.5500000 0.0010000000 0.0000000000 0.0952000022
 1600.6000000 0.0010000000 0.0000000000 0.0952000022
 1600.6500000 0.0010000000 0.0000000000 0.0892999992
 1600.7000000 0.0010000000 0.0000000000 0.0892999992
 1600.7500000 0.0010000000 0.0000000000 0.0892999992
 1600.8000000 0.0010000000 0.0000000000 0.0892999992
 1600.8500000 0.0010000000 0.0000000000 0.0892999992
 1600.9000000 0.0010000000 0.0000000000 0.0892999992
 1600.9500000 0.0010000000 0.0000000000 0.0892999992
 1601.0000000 0.0010000000 0.0000000000 0.0892999992
 1601.0500000 0.0010000000 0.0000000000 0.0892999992
 1601.1000000 0.0010000000 0.0000000000 0.0892999992
 1601.1500000 0.0010000000 0.0000000000 0.0892999992
 1601.2000000 0.0010000000 0.0000000000 0.0892999992
 1601.2500000 0.0010000000 0.0000000000 0.0892999992
 1601.3000000 0.0010000000 0.0000000000 0.0892999992
 1601.3500000 0.0010000000 0.0000000000 0.0892999992
 1601.4000000 0.0010000000 0.0000000000 0.0892999992
 1601.4500000 0.0010000000 0.0000000000 0.0892999992
 1601.5000000 0.0010000000 0.0000000000 0.0892999992
 1601.5500000 0.0010000000 0.0000000000 0.0892999992
 1601.6000000 0.0010000000 0.0000000000 0.0892999992
 1601.6500000 0.0010000000 0.0000000000 0.0952000022
 1601.7000000 0.0010000000 0.0000000000 0.0952000022
 1601.7500000 0.0010000000 0.0000000000 0.0952000022
 1601.8000000 0.0010000000 0.0000000000 0.0952000022
 1601.8500000 0.0010000000 0.0000000000 0.0952000022
 1601.9000000 0.0010000000 0.0000000000 0.0952000022
 1601.9500000 0.0010000000 0.0000000000 0.0952000022
 1602.0000000 0.0010000000 0.0000000000 0.0952000022
 1602.0500000 0.0010000000 0.0000000000 0.0892999992
 1602.1000000 0.0010000000 0.0000000000 0.0952000022
 1602.1500000 0.0010000000 0.0000000000 0.0952000022
 1602.2000000 0.0010000000 0.0000000000 0.1011999995
 1602.2500000 0.0010000000 0.0000000000 0.1071000025
 1602.3000000 6.7134313583 1.0000000000 0.1130999997
 1602.3500000 9.0873861313 1.0000000000 0.1190999970
 1602.4000000 12.411460876 1.0000000000 0.1309999973
 1602.4500000 16.668451309 1.0000000000 0.1368999928
 1602.5000000 22.058372498 1.0000000000 0.1429000050
 1602.5500000 28.095056534 1.0000000000 0.1488000005
 1602.6000000 35.654273987 1.0000000000 0.1547999978
