# LAS format log file from PETREL
# Project units are specified as depth units
#==================================================================
~Version information
VERS.   2.0:
WRAP.   NO:
#==================================================================
~Well
STRT .m      1555.0999800 :
STOP .m      1749.8999800 :
STEP .m     0.10000000 :
NULL .        -999.250000 :
COMP.           : COMPANY
WELL.  F_IPE   : WELL
FLD.            : FIELD
LOC.            : LOCATION
SRVC.           : SERVICE COMPANY
DATE.  Friday, March 30 2012 17:04:30   : DATE
PROV.           : PROVINCE
UWI.      : UNIQUE WELL ID
API.            : API NUMBER
#==================================================================
~Curve
DEPT .m                   : DEPTH
Permeability*** .mD       : Permeability ***
NTG*** .                  : NTG ***
PORDENS268*** .m3/m3      : POR DENS 268 ***
~Parameter
#==================================================================
~Ascii
# ...
 1675.8999800 132.87316895 1.0000000000 0.1905000061
 1675.9999800 118.70571136 1.0000000000 0.1905000061
 1676.0999800 105.77946472 1.0000000000 0.1844999939
 1676.1999800 114.26363373 1.0000000000 0.1905000061
 1676.2999800 116.46764374 1.0000000000 0.1905000061
 1676.3999800 118.70571136 1.0000000000 0.1905000061
 1676.4999800 122.12811279 1.0000000000 0.1905000061
 1676.5999800 125.62887573 1.0000000000 0.1905000061
 1676.6999800 180.54223633 1.0000000000 0.2023999989
 1676.7999800 210.84370422 1.0000000000 0.2082927972
 1676.8999800 245.10777283 1.0000000000 0.2143000066
 1676.9999800 168.25289917 1.0000000000 0.2023999989
 1677.0999800 104.75572205 1.0000000000 0.1844999939
 1677.1999800 62.136840820 1.0000000000 0.1726000011
 1677.2999800 12.807313919 1.0000000000 0.1310507357
 1677.3999800 8.6118869781 1.0000000000 0.1250000000
 1677.4999800 5.6004033089 1.0000000000 0.1190999970
 1677.5999800 4.5327396393 1.0000000000 0.1130999997
 1677.6999800 4.8685917854 1.0000000000 0.1130999997
 1677.7999800 5.2242197990 1.0000000000 0.1190926805
 1677.8999800 5.6004033089 1.0000000000 0.1190999970
 1677.9999800 1.2491565943 1.0000000000 0.1071000025
 1678.0999800 0.6048539877 1.0000000000 0.1011999995
 1678.1999800 0.1367106289 1.0000000000 0.0833000019
 1678.2999800 0.1803160608 1.0000000000 0.0833000019
 1678.3999800 0.2347544730 1.0000000000 0.0892999992
 1678.4999800 0.4489411712 1.0000000000 0.0952000022
 1678.5999800 0.4489411712 1.0000000000 0.0952000022
 1678.6999800 0.4489411712 1.0000000000 0.0952000022
 1678.7999800 0.0863208324 1.0000000000 0.0774217099
 1678.8999800 0.0606402420 1.0000000000 0.0773999989
 1678.9999800 0.0010000000 0.0000000000 0.0714000016
 1679.0999800 0.0863208324 1.0000000000 0.0773999989
 1679.1999800 0.3020327389 1.0000000000 0.0892999992
 1679.2999800 0.8403857946 1.0000000000 0.1011854857
 1679.3999800 20.077989578 1.0000000000 0.1429000050
 1679.4999800 37.319503784 1.0000000000 0.1547999978
 1679.5999800 64.863533020 1.0000000000 0.1726000011
 1679.6999800 118.70571136 1.0000000000 0.1905000061
 1679.7999800 155.24124146 1.0000000000 0.1963928044
 1679.8999800 200.32102966 1.0000000000 0.2082999945
 1679.9999800 178.96784973 1.0000000000 0.2023999989
 1680.0999800 159.48489380 1.0000000000 0.1964000016
 1680.1999800 128.00721741 1.0000000000 0.1905000061
 1680.2999800 125.62887573 1.0000000000 0.1905000061
 1680.3999800 123.28620148 1.0000000000 0.1905000061
 1680.4999800 135.36100769 1.0000000000 0.1964000016
 1680.5999800 180.54223633 1.0000000000 0.2023999989
 1680.6999800 237.13166809 1.0000000000 0.2143000066
 1680.7999800 317.00228882 1.0000000000 0.2261854857
 1680.8999800 426.59405518 1.0000000000 0.2381000072
 1680.9999800 564.78582764 1.0000000000 0.2440000027
 1681.0999800 449.14581299 1.0000000000 0.2381000072
 1681.1999800 375.59759521 1.0000000000 0.2320999950
 1681.2999800 312.06277466 1.0000000000 0.2202145159
 1681.3999800 193.54345703 1.0000000000 0.2082999945
 1681.4999800 168.25289917 1.0000000000 0.2023999989
 1681.5999800 145.69120789 1.0000000000 0.1964000016
 1681.6999800 125.62887573 1.0000000000 0.1905000061
 1681.7999800 118.70571136 1.0000000000 0.1905000061
 1681.8999800 112.09278870 1.0000000000 0.1905000061
 1681.9999800 92.155761719 1.0000000000 0.1844999939
 1682.0999800 109.95574188 1.0000000000 0.1844999939
 1682.1999800 130.42222595 1.0000000000 0.1905000061
 1682.2999800 130.42222595 1.0000000000 0.1905000061
 1682.3999800 155.24124146 1.0000000000 0.1964000016
 1682.4999800 183.72518921 1.0000000000 0.2023999989
 1682.5999800 214.44808960 1.0000000000 0.2082999945
 1682.6999800 249.17546082 1.0000000000 0.2143000066
 1682.7999800 265.99389648 1.0000000000 0.2143000066
 1682.8999800 183.72518921 1.0000000000 0.2023999989
 1682.9999800 96.848808289 1.0000000000 0.1844999939
 1683.0999800 46.572380066 1.0000000000 0.1606999934
 1683.1999800 33.486701965 1.0000000000 0.1547999978
 1683.2999800 11.487547874 1.0000000000 0.1488073170
 1683.3999800 18.509422302 1.0000000000 0.1429000050
 1683.4999800 14.384991646 1.0000000000 0.1368999928
 1683.5999800 4.9996266365 1.0000000000 0.1309999973
 1683.6999800 2.4655678272 1.0000000000 0.1190999970
 1683.7999800 2.1163361073 1.0000000000 0.1131073162
 1683.8999800 1.8088083267 1.0000000000 0.1130999997
 1683.9999800 5.5186038017 1.0000000000 0.1309999973
 1684.0999800 6.9034733772 1.0000000000 0.1368999928
 1684.1999800 8.5620059967 1.0000000000 0.1429000050
 1684.2999800 56.959327698 1.0000000000 0.1666709781
 1684.3999800 88.534896851 1.0000000000 0.1785999984
 1684.4999800 132.87316895 1.0000000000 0.1905000061
 1684.5999800 132.87316895 1.0000000000 0.1905000061
 1684.6999800 128.00721741 1.0000000000 0.1905000061
 1684.7999800 123.28620148 1.0000000000 0.1905000061
 1684.8999800 109.95574188 1.0000000000 0.1844999939
 1684.9999800 113.17376709 1.0000000000 0.1905000061
 1685.0999800 116.46764374 1.0000000000 0.1905000061
 1685.1999800 135.36100769 1.0000000000 0.1964000016
 1685.2999800 128.00721741 1.0000000000 0.1905072033
 1685.3999800 120.97879028 1.0000000000 0.1905000061
 1685.4999800 95.895248413 1.0000000000 0.1844999939
 1685.5999800 72.862274170 1.0000000000 0.1726000011
 1685.6999800 54.504333496 1.0000000000 0.1667000055
 1685.7999800 28.159336090 1.0000000000 0.1488218307
 1685.8999800 7.2344889641 1.0000000000 0.1368999928
 1685.9999800 3.4267289639 1.0000000000 0.1250000000
 1686.0999800 0.0010000000 0.0000000000 0.0952000022
 1686.1999800 0.0010000000 0.0000000000 0.0595000014
 1686.2999800 0.0010000000 0.0000000000 0.0357290246
 1686.3999800 0.0010000000 0.0000000000 0.0297999997
 1686.4999800 0.0000000005 1.0000000000 0.0297999997
 1686.5999800 0.0010000000 0.0000000000 0.0476000011
 1686.6999800 0.0010000000 0.0000000000 0.0535999984
 1686.7999800 0.0010000000 0.0000000000 0.0654854849
 1686.8999800 2.0356945992 1.0000000000 0.1130999997
 1686.9999800 3.1332924366 1.0000000000 0.1250000000
 1687.0999800 4.6764564514 1.0000000000 0.1309999973
 1687.1999800 69.133628845 1.0000000000 0.1726000011
 1687.2999800 89.429191589 1.0000000000 0.1785926819
 1687.3999800 114.26363373 1.0000000000 0.1905000061
 1687.4999800 109.95574188 1.0000000000 0.1844999939
 1687.5999800 125.62887573 1.0000000000 0.1905000061
 1687.6999800 143.05084229 1.0000000000 0.1964000016
 1687.7999800 245.10777283 1.0000000000 0.2142781764
 1687.8999800 347.97055054 1.0000000000 0.2261999995
 1687.9999800 483.01583862 1.0000000000 0.2381000072
 1688.0999800 533.85662842 1.0000000000 0.2440000027
 1688.1999800 526.34185791 1.0000000000 0.2440000027
 1688.2999800 518.91235352 1.0000000000 0.2440000027
 1688.3999800 417.21142578 1.0000000000 0.2320999950
 1688.4999800 500.70538330 1.0000000000 0.2440000027
 1688.5999800 597.14215088 1.0000000000 0.2500000000
 1688.6999800 761.72045898 1.0000000000 0.2619000077
 1688.7999800 792.38482666 1.0000000000 0.2619000077
 1688.8999800 824.03436279 1.0000000000 0.2619000077
 1688.9999800 840.23468018 1.0000000000 0.2619000077
 1689.0999800 856.69287109 1.0000000000 0.2678999901
 1689.1999800 879.03582764 1.0000000000 0.2678999901
 1689.2999800 834.80639648 1.0000000000 0.2619073391
 1689.3999800 782.05590820 1.0000000000 0.2619000077
 1689.4999800 732.01794434 1.0000000000 0.2560000122
 1689.5999800 670.85321045 1.0000000000 0.2560000122
 1689.6999800 613.86816406 1.0000000000 0.2500000000
 1689.7999800 518.91235352 1.0000000000 0.2440073192
 1689.8999800 469.22885132 1.0000000000 0.2381000072
 1689.9999800 423.44683838 1.0000000000 0.2320999950
 1690.0999800 312.06277466 1.0000000000 0.2202000022
 1690.1999800 279.19750977 1.0000000000 0.2202000022
 1690.2999800 249.17546082 1.0000000000 0.2143072039
 1690.3999800 312.06277466 1.0000000000 0.2202000022
 1690.4999800 452.44406128 1.0000000000 0.2381000072
 1690.5999800 639.66394043 1.0000000000 0.2500000000
 1690.6999800 856.69287109 1.0000000000 0.2678999901
 1690.7999800 884.69683838 1.0000000000 0.2678999901
 1690.8999800 913.42999268 1.0000000000 0.2678999901
