# LAS format log file from PETREL
# Project units are specified as depth units
#==================================================================
~Version information
VERS.   2.0:
WRAP.   NO:
#==================================================================
~Well
STRT .m      1580.0000000 :
STOP .m      1760.0000000 :
STEP .m     0.05000000 :
NULL .        -999.250000 :
COMP.           : COMPANY
WELL.  A_IPE   : WELL
FLD.            : FIELD
LOC.            : LOCATION
SRVC.           : SERVICE COMPANY
DATE.  Friday, March 30 2012 17:03:22   : DATE
PROV.           : PROVINCE
UWI.      : UNIQUE WELL ID
API.            : API NUMBER
#==================================================================
~Curve
DEPT .m                   : DEPTH
Permeability*** .mD       : Permeability ***
NTG*** .                  : NTG ***
PORDENS268*** .m3/m3      : POR DENS 268 ***
~Parameter
#==================================================================
~Ascii
# ...
 1738.5500000 587.47845459 1.0000000000  -999.250000
 1738.6000000 1047.2600098 1.0000000000  -999.250000
 1738.6500000 1864.3426514 1.0000000000  -999.250000
 1738.7000000 3130.2375488 1.0000000000  -999.250000
 1738.7500000 5011.4174805 1.0000000000  -999.250000
 1738.8000000 6086.2172852 1.0000000000  -999.250000
 1738.8500000 7338.1142578 1.0000000000  -999.250000
 1738.9000000 8790.4257813 1.0000000000  -999.250000
 1738.9500000 8259.3710938 1.0000000000  -999.250000
 1739.0000000 7754.4350586 1.0000000000  -999.250000
 1739.0500000 7274.6308594 1.0000000000  -999.250000
 1739.1000000 5434.5507813 1.0000000000  -999.250000
 1739.1500000 3988.8791504 1.0000000000  -999.250000
 1739.2000000 2870.0146484 1.0000000000  -999.250000
 1739.2500000 1732.9903564 1.0000000000  -999.250000
 1739.3000000 990.52557373 1.0000000000  -999.250000
 1739.3500000 349.93896484 1.0000000000  -999.250000
 1739.4000000 172.50486755 1.0000000000  -999.250000
 1739.4500000 76.753204346 1.0000000000  -999.250000
 1739.5000000 33.228382111 1.0000000000  -999.250000
 1739.5500000 22.311487198 1.0000000000  -999.250000
 1739.6000000 0.0010000000 0.0000000000  -999.250000
 1739.6500000 0.0010000000 0.0000000000  -999.250000
 1739.7000000 0.0010000000 0.0000000000  -999.250000
 1739.7500000 0.0010000000 0.0000000000  -999.250000
 1739.8000000 0.0010000000 0.0000000000  -999.250000
 1739.8500000 0.0010000000 0.0000000000  -999.250000
 1739.9000000 0.0010000000 0.0000000000  -999.250000
 1739.9500000 12.866890907 1.0000000000  -999.250000
 1740.0000000 21.321868896 1.0000000000  -999.250000
 1740.0500000 41.788455963 1.0000000000  -999.250000
 1740.1000000 76.203269958 1.0000000000  -999.250000
 1740.1500000 137.10015869 1.0000000000  -999.250000
 1740.2000000 233.24195862 1.0000000000  -999.250000
 1740.2500000 379.06344604 1.0000000000  -999.250000
 1740.3000000 450.02056885 1.0000000000  -999.250000
 1740.3500000 531.67047119 1.0000000000  -999.250000
 1740.4000000 625.12030029 1.0000000000  -999.250000
 1740.4500000 553.17828369 1.0000000000  -999.250000
 1740.5000000 488.18490601 1.0000000000  -999.250000
 1740.5500000 429.70605469 1.0000000000  -999.250000
 1740.6000000 434.16552734 1.0000000000  -999.250000
 1740.6500000 438.66296387 1.0000000000  -999.250000
 1740.7000000 443.19863892 1.0000000000  -999.250000
 1740.7500000 986.15924072 1.0000000000  -999.250000
 1740.8000000 1440.2645264 1.0000000000  -999.250000
 1740.8500000 2049.1977539 1.0000000000  -999.250000
 1740.9000000 3130.2375488 1.0000000000  -999.250000
 1740.9500000 4629.6098633 1.0000000000  -999.250000
 1741.0000000 6659.1230469 1.0000000000  -999.250000
 1741.0500000 7403.0488281 1.0000000000  -999.250000
 1741.1000000 8212.4042969 1.0000000000  -999.250000
 1741.1500000 9091.4570313 1.0000000000  -999.250000
 1741.2000000 7317.2353516 1.0000000000  -999.250000
 1741.2500000 5831.9716797 1.0000000000  -999.250000
 1741.3000000 4600.1347656 1.0000000000  -999.250000
 1741.3500000 3141.2895508 1.0000000000  -999.250000
 1741.4000000 2080.0656738 1.0000000000  -999.250000
 1741.4500000 1328.4011230 1.0000000000  -999.250000
 1741.5000000 776.57885742 1.0000000000  -999.250000
 1741.5500000 620.49700928 1.0000000000  -999.250000
 1741.6000000 491.28942871 1.0000000000  -999.250000
 1741.6500000 385.06414795 1.0000000000  -999.250000
 1741.7000000 405.79721069 1.0000000000  -999.250000
 1741.7500000 427.54187012 1.0000000000  -999.250000
 1741.8000000 450.02056885 1.0000000000  -999.250000
 1741.8500000 841.93524170 1.0000000000  -999.250000
 1741.9000000 1056.2315674 1.0000000000  -999.250000
 1741.9500000 1312.1179199 1.0000000000  -999.250000
 1742.0000000 1746.7528076 1.0000000000  -999.250000
 1742.0500000 2289.9567871 1.0000000000  -999.250000
 1742.1000000 2961.4541016 1.0000000000  -999.250000
 1742.1500000 3936.7258301 1.0000000000  -999.250000
 1742.2000000 5154.3984375 1.0000000000  -999.250000
 1742.2500000 6659.1230469 1.0000000000  -999.250000
 1742.3000000 8377.1845703 1.0000000000  -999.250000
 1742.3500000 10437.685547 1.0000000000  -999.250000
 1742.4000000 12885.973633 1.0000000000  -999.250000
 1742.4500000 14734.690430 1.0000000000  -999.250000
 1742.5000000 16791.001953 1.0000000000  -999.250000
 1742.5500000 19072.078125 1.0000000000  -999.250000
 1742.6000000 19586.205078 1.0000000000  -999.250000
 1742.6500000 20109.187500 1.0000000000  -999.250000
 1742.7000000 20645.625000 1.0000000000  -999.250000
 1742.7500000 19072.078125 1.0000000000  -999.250000
 1742.8000000 17598.486328 1.0000000000  -999.250000
 1742.8500000 16216.000000 1.0000000000  -999.250000
 1742.9000000 13573.508789 1.0000000000  -999.250000
 1742.9500000 11287.569336 1.0000000000  -999.250000
 1743.0000000 9323.2333984 1.0000000000  -999.250000
 1743.0500000 7127.5649414 1.0000000000  -999.250000
 1743.1000000 5367.6469727 1.0000000000  -999.250000
 1743.1500000 3975.4851074 1.0000000000  -999.250000
 1743.2000000 2693.5029297 1.0000000000  -999.250000
 1743.2500000 1766.9278564 1.0000000000  -999.250000
 1743.3000000 1116.1763916 1.0000000000  -999.250000
 1743.3500000 393.25033569 1.0000000000  -999.250000
 1743.4000000 210.63642883 1.0000000000  -999.250000
 1743.4500000 104.33276367 1.0000000000  -999.250000
 1743.5000000 43.269893646 1.0000000000  -999.250000
 1743.5500000 0.0010000000 0.0000000000  -999.250000
 1743.6000000 0.0010000000 0.0000000000  -999.250000
 1743.6500000 0.0010000000 0.0000000000  -999.250000
 1743.7000000 0.0010000000 0.0000000000  -999.250000
 1743.7500000 0.1434578151 1.0000000000  -999.250000
 1743.8000000 0.1176337823 1.0000000000  -999.250000
 1743.8500000 0.0956879556 1.0000000000  -999.250000
 1743.9000000 0.0771625414 1.0000000000  -999.250000
 1743.9500000 0.0010000000 0.0000000000  -999.250000
 1744.0000000 0.0010000000 0.0000000000  -999.250000
 1744.0500000 0.0010000000 0.0000000000  -999.250000
 1744.1000000 0.0010000000 0.0000000000  -999.250000
 1744.1500000 0.0010000000 0.0000000000  -999.250000
 1744.2000000 14.128144264 1.0000000000  -999.250000
 1744.2500000 40.511779785 1.0000000000  -999.250000
 1744.3000000 98.286941528 1.0000000000  -999.250000
 1744.3500000 211.32708740 1.0000000000  -999.250000
 1744.4000000 326.28631592 1.0000000000  -999.250000
 1744.4500000 715.33752441 1.0000000000  -999.250000
 1744.5000000 1007.5415039 1.0000000000  -999.250000
 1744.5500000 991.52020264 1.0000000000  -999.250000
 1744.6000000 975.50787354 1.0000000000  -999.250000
 1744.6500000 959.70416260 1.0000000000  -999.250000
 1744.7000000 944.29803467 1.0000000000  -999.250000
 1744.7500000 397.39672852 1.0000000000  -999.250000
 1744.8000000 237.46049500 1.0000000000  -999.250000
 1744.8500000 150.36007690 1.0000000000  -999.250000
 1744.9000000 65.051872253 1.0000000000  -999.250000
 1744.9500000 0.0010000000 0.0000000000  -999.250000
 1745.0000000 0.0010000000 0.0000000000  -999.250000
 1745.0500000 0.0010000000 0.0000000000  -999.250000
 1745.1000000 0.0010000000 0.0000000000  -999.250000
 1745.1500000 0.0771625414 1.0000000000  -999.250000
 1745.2000000 0.0257077124 1.0000000000  -999.250000
 1745.2500000 0.0063258857 1.0000000000  -999.250000
 1745.3000000 0.0009075571 1.0000000000  -999.250000
 1745.3500000 0.0043522525 1.0000000000  -999.250000
 1745.4000000 0.0125337997 1.0000000000  -999.250000
 1745.4500000 0.0261588842 1.0000000000  -999.250000
 1745.5000000 0.0010000000 0.0000000000  -999.250000
 1745.5500000 0.0010000000 0.0000000000  -999.250000
 1745.6000000 0.0010000000 0.0000000000  -999.250000
 1745.6500000 0.0010000000 0.0000000000  -999.250000
 1745.7000000 0.0010000000 0.0000000000  -999.250000
 1745.7500000 0.0010000000 0.0000000000  -999.250000
 1745.8000000 0.0010000000 0.0000000000  -999.250000
 1745.8500000 0.0010000000 0.0000000000  -999.250000
 1745.9000000 0.0010000000 0.0000000000  -999.250000
 1745.9500000 0.0010000000 0.0000000000  -999.250000
 1746.0000000 0.0010000000 0.0000000000  -999.250000
 1746.0500000 0.0010000000 0.0000000000  -999.250000
